     2.11           OBSERVATION DATA    G (GPS)             RINEX VERSION / TYPE
teqc  2018Dec12                         20190213 00:21:52UTCPGM / RUN BY / DATE
ZIMM                                                        MARKER NAME
14001M004                                                   MARKER NUMBER
TRIMBLE NETR9       SWISSTOPO                               OBSERVER / AGENCY
5429R49141          TRIMBLE NETR9       5.37                REC # / TYPE / VERS
99390               TRM29659.00     NONE                    ANT # / TYPE
  4331297.3480   567555.6390  4633133.7280                  APPROX POSITION XYZ
        0.0000        0.0000        0.0000                  ANTENNA: DELTA H/E/N
     1     1                                                WAVELENGTH FACT L1/2
    10    C1    L1    S1    C2    L2    S2    P2    C5    L5# / TYPES OF OBSERV
          S5                                                # / TYPES OF OBSERV
    30.0000                                                 INTERVAL
Linux 2.4.21-27.ELsmp|Opteron|gcc -static|Linux 64|=+       COMMENT
     2.11           OBSERVATION DATA    M (MIXED)           COMMENT
NetR9 5.37          Receiver Operator   20190212 000000 UTC COMMENT
L2C CARRIER PHASE MEASUREMENTS: PHASE SHIFTS REMOVED        COMMENT
L2C PHASE MATCHES L2 P PHASE                                COMMENT
GLONASS C/A & P PHASE MATCH: PHASE SHIFTS REMOVED           COMMENT
Forced Modulo Decimation to 30 seconds                      COMMENT
teqc edited: all GLONASS satellites excluded                COMMENT
teqc edited: all Galileo satellites excluded                COMMENT
  2019     2    12     0     0    0.0000000     GPS         TIME OF FIRST OBS
                                                            END OF HEADER
 19  2 12  0  0  0.0000000  0 11G01G32G11G18G08G27G26G20G21G16G10
  24441802.328 5 128442548.676 5        35.600    24441810.480 6 100085125.77146
        21.300    24441810.55946  24441806.570 1  95914879.00011        30.900
  24682977.977 6 129709947.116 6        39.500    24682984.688 5 101072692.43946
        22.600    24682984.04746
  23650581.227 6 124284651.146 6        39.400                    96845205.48046
        22.300    23650585.68046
  21876223.305 8 114960350.341 8        47.200                    89579520.81949
        36.000    21876227.93449
  20804205.438 9 109326853.780 9        52.700    20804212.098 9  85189783.36049
        47.500    20804211.23049  20804208.199 7  81640194.551 7        42.300
  20299332.063 9 106673737.343 9        54.700    20299338.473 9  83122421.93949
        50.500    20299337.89849  20299335.082 7  79658932.121 7        43.900
  24961474.992 5 131173442.115 5        35.500    24961483.020 6 102213110.14545
        19.300    24961482.39845
  21922692.172 8 115204549.791 8        45.000                    89769807.24349
        35.100    21922694.82849
  25233942.414 5 132605251.33015        36.000                   103328806.04555
        17.800    25233945.44145
  23004897.258 7 120891555.112 7        43.900                    94201218.43848
        32.300    23004900.44948
  20830139.773 9 109463141.477 9        52.400    20830146.332 9  85295989.06349
        47.200    20830145.87949  20830142.066 7  81741995.730 7        42.100
 19  2 12  0  0 30.0000000  0 11G01G32G11G18G08G27G26G20G21G16G10
  24423127.563 5 128344412.899 5        35.000    24423136.484 6 100008656.39246
        20.900    24423135.87946  24423132.512 1  95841595.79211        30.400
  24665194.813 6 129616494.824 6        39.700    24665201.758 6 100999872.48146
        22.300    24665201.01646
  23631413.766 6 124183918.477 6        40.500                    96766712.52546
        24.800    23631416.05146
  21860458.227 8 114877507.678 8        47.100                    89514968.11149
        36.200    21860463.80949
  20795793.000 9 109282646.338 9        52.800    20795799.988 9  85155335.99549
        47.600    20795798.74649  20795795.676 7  81607182.502 7        41.600
  20303111.547 9 106693596.062 9        53.100    20303117.438 9  83137896.25749
        50.500    20303117.09049  20303114.234 7  79673761.679 7        43.200
  24982882.125 6 131285934.666 6        38.400    24982889.711 5 102300766.70046
        21.300    24982889.17246
  21936575.711 8 115277509.562 8        45.300                    89826659.00549
        35.400    21936578.62549
  25249066.805 4 132684734.83314        34.300                   103390741.24955
        16.300    25249070.34445
  23024878.141 7 120996554.533 7        44.100                    94283036.16748
        32.600    23024881.64548
  20833484.023 9 109480713.964 9        52.100    20833490.375 9  85309681.91849
        47.300    20833489.94549  20833485.973 7  81755118.041 7        41.500
 19  2 12  0  1  0.0000000  0 11G01G32G11G18G08G27G26G20G21G16G10
  24404474.852 6 128246385.354 6        38.700    24404482.270 6  99932271.25846
        23.200    24404482.00046  24404477.691 1  95768393.47611        30.900
  24647426.063 6 129523115.839 6        39.800    24647431.496 5 100927109.66946
        22.300    24647431.30146
  23612262.391 6 124083279.006 6        40.800                    96688292.17947
        26.700    23612265.74247
  21844742.492 8 114794919.283 8        46.700                    89450613.54849
        36.500    21844747.60549
  20787452.836 9 109238818.234 9        52.700    20787459.414 9  85121184.22749
        47.600    20787458.52749  20787455.375 7  81574453.711 7        41.800
  20306977.125 9 106713911.225 9        53.700    20306983.309 9  83153726.25149
        50.400    20306982.84449  20306979.992 7  79688932.072 7        43.700
  25004282.477 5 131398393.269 5        37.100    25004289.559 6 102388396.79846
        21.100    25004289.37946
  21950533.094 8 115350856.448 8        45.500                    89883812.43249
        35.400    21950536.13349
  25264192.406 4 132764219.05514        34.800                   103452676.97455
        17.800    25264196.00445
  23044900.109 7 121101772.038 7        44.300                    94365023.82248
        32.400    23044903.49648
  20836934.180 9 109498843.710 9        52.000    20836940.008 9  85323809.00049
        47.300    20836940.02049  20836935.836 7  81768656.490 7        41.000
 19  2 12  0  1 30.0000000  0 11G01G32G11G18G08G27G26G20G21G16G10
  24385839.945 5 128148467.822 5        36.500    24385849.094 6  99855971.84846
        21.100    24385848.54346  24385844.871 1  95695273.12311        30.500
  24629670.625 6 129429814.209 6        39.700    24629676.719 5 100854407.07946
        21.700    24629676.11346
  23593129.656 6 123982734.938 6        40.400                    96609946.18947
        25.600    23593133.18047
  21829075.469 8 114712587.431 8        47.200                    89386458.89149
        35.700    21829080.18849
  20779185.414 9 109195372.275 9        52.800    20779192.141 9  85087330.23349
        47.800    20779191.06349  20779188.164 7  81542010.309 7        42.100
  20310929.992 9 106734684.044 9        53.000    20310936.270 9  83169912.85849
        50.400    20310935.66849  20310932.977 7  79704444.234 7        43.500
  25025675.977 5 131510816.723 5        35.500    25025683.262 5 102475999.49745
        18.300    25025682.56645
  21964564.031 8 115424589.525 8        45.500                    89941266.77549
        34.800    21964566.97349
  25279318.383 5 132843704.33115        37.000                   103514613.49655
        19.300    25279321.28945
  23064963.063 7 121207205.886 7        44.100                    94447180.06048
        32.000    23064966.78948
  20840490.141 9 109517530.754 9        51.900    20840496.230 9  85338370.33749
        47.200    20840496.05549  20840491.750 7  81782611.100 7        41.800
 19  2 12  0  2  0.0000000  0 11G01G32G11G18G08G27G26G20G21G16G10
  24367228.266 4 128050661.00014        34.900    24367236.953 6  99779758.79256
        20.900    24367236.11746  24367234.344 3  95622235.62613        32.200
  24611930.016 6 129336592.930 6        38.600    24611938.922 6 100781767.16246
        22.200    24611937.25446
  23574015.922 7 123882287.533 7        41.400                    96531675.54947
        26.800    23574018.97347
  21813456.914 8 114630513.025 8        47.300                    89322504.82749
        35.300    21813462.01249
  20770990.930 9 109152310.078 9        52.800    20770997.824 9  85053775.26849
        47.800    20770996.72349  20770993.570 7  81509853.481 7        42.000
  20314970.227 9 106755914.825 9        53.100    20314976.477 9  83186456.31749
        50.500    20314975.79349  20314973.121 7  79720298.399 7        43.100
  25047062.211 6 131623202.61016        38.700    25047069.918 5 102563572.90456
        21.800    25047069.20746
  21978668.094 8 115498706.336 8        45.400                    89999020.14149
        35.100    21978670.80149
  25294444.828 5 132923190.95715        36.100                   103576551.09155
        17.800    25294448.08245
  23085067.664 7 121312853.319 7        44.000                    94529502.72348
        31.500    23085071.09848
  20844151.813 9 109536774.124 9        51.300    20844158.125 9  85353365.17149
        47.000    20844157.77749  20844153.652 7  81796981.163 7        41.700
 19  2 12  0  2 30.0000000  0 11G01G32G11G18G08G27G26G20G21G16G10
  24348638.273 5 127952965.632 5        37.900    24348647.055 6  99703632.52646
        24.700    24348646.44146  24348643.551 3  95549281.368 3        33.600
  24594208.320 6 129243454.801 6        40.200    24594214.828 6 100709192.01446
        22.900    24594213.67246
  23554919.977 7 123781937.880 7        41.700                    96453481.04047
        25.600    23554922.48447
  21797888.391 9 114548696.782 9        48.300                    89258751.92049
        36.300    21797892.48849
  20762869.570 9 109109633.017 9        52.600    20762876.574 9  85020520.41249
        47.500    20762875.54349  20762872.395 7  81477984.243 7        42.300
  20319097.547 9 106777603.458 9        53.400    20319103.695 9  83203356.54049
        50.500    20319102.93449  20319099.852 7  79736494.424 7        43.200
  25068441.813 6 131735548.067 6        39.200    25068448.879 6 102651114.85646
        24.100    25068448.57446
  21992844.547 8 115573204.259 8        45.500                    90057070.46449
        35.000    21992847.55149
  25309569.563 3 133002678.36413        33.700                   103638489.33455
        18.600    25309574.03145
  23105211.375 7 121418711.115 7        44.100                    94611989.31448
        32.000    23105215.07448
  20847919.219 9 109556572.501 9        51.400    20847925.574 9  85368792.48849
        46.800    20847925.24649  20847921.215 7  81811765.677 7        41.700
 19  2 12  0  3  0.0000000  0 11G01G32G11G18G08G27G26G20G21G16G10
  24330069.398 5 127855382.696 5        37.100    24330077.395 6  99627593.93246
        22.200    24330077.07046  24330072.766 1  95476411.057 1        29.700
  24576500.102 6 129150403.206 6        39.000    24576506.871 5 100636684.26746
        22.300    24576506.68446
  23535841.586 6 123681687.128 6        40.500                    96375363.59247
        26.700    23535844.37147
  21782368.883 8 114467140.075 8        47.500                    89195201.26449
        36.200    21782372.77349
  20754822.266 9 109067342.910 9        52.800    20754828.879 9  84987567.08749
        47.900    20754827.87149  20754824.883 7  81446403.973 7        42.100
  20323311.922 9 106799750.475 9        53.400    20323317.969 9  83220613.95449
        50.600    20323317.37149  20323314.730 7  79753032.786 7        43.300
  25089808.938 1 131847851.31111        30.500    25089819.070 5 102738623.68055
        15.600    25089819.15245
  22007093.297 8 115648081.286 8        45.400                    90115416.18749
        34.700    22007096.12949
  25324697.031 4 133082166.85614        34.600                   103700428.36455
        16.300    25324700.03945
  23125395.625 7 121524777.102 7        44.100                    94694638.13448
        32.200    23125398.20748
  20851792.359 9 109576925.233 9        51.300    20851798.453 9  85384651.76549
        46.600    20851798.16849  20851794.043 7  81826964.143 7        42.100
 19  2 12  0  3 30.0000000  0 11G01G32G11G18G08G27G26G20G21G16G10
  24311521.203 5 127757912.365 5        37.500    24311528.246 6  99551643.04146
        21.100    24311527.94946  24311523.984 2  95403624.78412        31.000
  24558809.852 6 129057440.341 6        39.200    24558816.820 6 100564245.71446
        22.600    24558815.98046
  23516783.438 6 123581535.982 6        40.200                    96297323.77047
        25.400    23516786.59447
  21766898.297 9 114385843.023 9        48.100                    89131852.91749
        36.100    21766902.37549
  20746848.516 9 109025441.031 9        53.000    20746855.164 9  84954916.26649
        47.900    20746854.31649  20746851.445 7  81415113.598 7        42.600
  20327613.328 9 106822355.388 9        53.800    20327619.816 9  83238228.16649
        50.500    20327618.93849  20327616.375 7  79769913.076 7        43.200
  25111174.625 6 131960126.12216        40.400    25111179.879 5 102826088.50855
        19.600    25111180.09045  25111177.711 1  98541627.59511        30.900
  22021413.906 8 115723334.402 8        45.500                    90174054.98249
        34.800    22021416.22749
  25339822.281 5 133161656.08315        35.300                   103762368.20255
        18.600    25339825.93445
  23145618.398 7 121631047.750 7        43.900                    94777446.43348
        31.400    23145621.20748
  20855770.328 9 109597830.475 9        51.900    20855776.863 9  85400941.56849
        46.700    20855776.45349  20855772.211 7  81842575.204 7        41.100
 19  2 12  0  4  0.0000000  0 11G01G32G11G18G08G27G26G20G21G16G10
  24292995.703 6 127660555.387 6        38.700    24293002.043 5  99475780.47846
        21.800    24293001.72746  24292999.012 2  95330923.162 2        31.200
  24541136.844 6 128964569.440 6        38.800    24541144.121 6 100491878.78546
        22.000    24541143.36746
  23497745.141 6 123481485.876 6        40.900                    96219362.67947
        26.500    23497748.03147
  21751477.539 8 114304806.864 8        47.500                    89068707.87349
        36.400    21751481.49249
  20738949.016 9 108983928.879 9        52.700    20738955.902 9  84922569.13649
        48.000    20738954.88349  20738951.914 7  81384114.256 7        42.400
  20332002.070 9 106845418.417 9        53.200    20332008.488 9  83256199.34849
        50.500    20332007.72749  20332004.844 7  79787135.458 7        43.000
  25132525.852 5 132072335.991 5        37.600    25132534.777 6 102913524.76146
        22.900    25132534.10546  25132530.258 1  98625420.628 1        28.800
  22035804.914 8 115798961.492 8        45.000                    90232985.19249
        34.700    22035807.61349
  25354948.703 5 133241143.640 5        35.800                   103824306.56545
        19.300    25354951.48045
  23165879.211 7 121737520.405 7        43.600                    94860412.12548
        31.800    23165882.21148
  20859853.469 9 109619287.251 9        51.300    20859859.727 9  85417661.13349
        46.600    20859859.37149  20859855.406 7  81858598.135 7        41.400
 19  2 12  0  4 30.0000000  0 11G01G32G11G18G08G27G26G20G21G16G10
  24274490.078 5 127563312.739 5        37.100    24274497.543 6  99400006.95346
        24.000    24274497.27346  24274494.438 2  95258306.921 2        31.200
  24523482.531 6 128871793.405 6        38.400    24523489.293 6 100419585.79246
        22.200    24523488.48846
  23478725.930 7 123381538.106 7        41.100                    96141481.35247
        27.200    23478728.95747
  21736106.711 8 114224032.507 8        47.900                    89005766.83149
        36.900    21736110.75049
  20731123.891 9 108942807.890 9        53.200    20731130.977 9  84890526.81049
        48.000    20731129.99249  20731126.797 7  81353407.020 7        42.900
  20336478.156 9 106868939.676 9        53.500    20336484.262 9  83274527.60249
        50.300    20336483.67249  20336480.824 7  79804700.036 7        43.700
  25153868.414 3 132184496.00713        33.100    25153877.266 6 103000898.96616
        38.400
  22050266.648 8 115874960.031 8        45.100                    90292204.82649
        34.400    22050269.39549
  25370074.383 5 133320630.53915        35.500                   103886244.33555
        17.800    25370078.35245
  23186177.648 7 121844191.845 7        43.700                    94943532.71248
        31.200    23186181.15248
  20864041.328 9 109641294.400 9        51.900    20864047.648 9  85434809.57049
        46.800    20864047.27749  20864043.309 7  81875032.052 7        41.900
 19  2 12  0  5  0.0000000  0 11G01G32G11G18G08G27G26G20G21G16G10
  24256007.625 5 127466186.222 5        36.100    24256015.449 6  99324324.06246
        22.200    24256015.00846  24256011.438 2  95185777.433 2        31.600
  24505847.023 6 128779116.634 6        40.200    24505853.758 6 100347370.13846
        22.200    24505852.91046
  23459725.906 6 123281694.857 6        40.500                    96063681.43947
        25.300    23459729.39147
  21720786.313 8 114143522.421 8        47.300                    88943031.70649
        36.600    21720790.21549
  20723373.883 9 108902081.506 9        52.800    20723381.000 9  84858791.96249
        48.100    20723379.83649  20723376.734 7  81322994.476 7        42.500
  20341041.500 9 106892920.574 9        54.400    20341047.895 9  83293214.01249
        50.500    20341047.10549  20341044.480 7  79822607.834 7        43.100
  25175204.086 6 132296604.479 6        39.600    25175208.199 2 103088282.27455
        16.900    25175209.72345
  22064799.570 8 115951329.020 8        45.500                    90351713.13449
        34.700    22064802.28949
  25385200.352 4 133400117.67414        34.600                   103948182.32155
        16.900    25385204.00845
  23206514.672 7 121951061.368 7        43.900                    95026807.64648
        31.200    23206517.71948
  20868333.898 9 109663852.137 9        52.300    20868340.027 9  85452387.03349
        46.800    20868339.74649  20868335.801 7  81891877.105 7        41.400
 19  2 12  0  5 30.0000000  0 11G01G32G11G18G08G27G26G20G21G16G10
  24237546.008 6 127369175.42716        38.900    24237554.152 6  99248731.24356
        22.800    24237553.69946  24237549.828 1  95113334.31211        29.500
  24488229.414 5 128686540.732 5        36.800    24488237.012 6 100275233.11046
        22.600    24488236.51246
  23440746.109 7 123181956.123 7        41.000                    95985962.96447
        25.400    23440749.48047
  21705515.266 8 114063276.071 8        47.200                    88880502.11549
        36.400    21705520.33249
  20715699.133 9 108861749.648 9        53.200    20715705.832 9  84827364.54049
        48.100    20715704.93449  20715702.020 7  81292876.513 7        42.400
  20345692.070 9 106917359.934 9        54.500    20345698.551 9  83312257.66749
        50.500    20345697.90249  20345695.031 7  79840858.018 7        43.200
  25196526.148 4 132408658.070 4        34.500    25196534.250 5 103175596.88645
        18.600    25196533.53145  25196530.125 2  98876549.22912        31.100
  22079401.336 8 116028064.821 8        45.300                    90411507.26249
        34.300    22079404.66849
  25400325.813 4 133479603.54214        34.000                   104010119.36655
        17.400    25400329.88745
  23226887.758 7 122058124.533 7        44.100                    95110233.50448
        30.600    23226891.07848
  20872731.102 9 109686957.934 9        51.900    20872736.855 9  85470391.56249
        46.800    20872736.65249  20872732.723 7  81909131.454 7        41.800
 19  2 12  0  6  0.0000000  0 11G01G32G11G18G08G27G26G20G21G16G10
  24219108.555 5 127272281.207 5        37.900    24219116.473 6  99173229.24646
        22.800    24219115.80146  24219112.148 2  95040978.263 2        31.800
  24470632.914 5 128594068.849 5        37.700    24470640.215 6 100203177.09946
        22.900    24470639.27346
  23421786.867 7 123082323.160 7        41.100                    95908326.94547
        26.500    23421790.00047
  21690295.523 8 113983294.544 8        47.300                    88818178.86449
        36.000    21690300.02749
  20708099.672 9 108821813.806 9        52.900    20708106.465 9  84796245.69949
        48.200    20708105.46949  20708102.555 7  81263054.301 7        42.200
  20350430.125 9 106942257.867 9        54.900    20350436.504 9  83331658.63749
        50.500    20350435.73449  20350433.121 7  79859450.612 7        43.100
  25217839.219 5 132520654.49115        36.500    25217846.371 6 103262866.65556
        21.300    25217846.15646  25217842.020 1  98960182.87111        27.300
  22094072.922 8 116105165.031 8        45.200                    90471585.33648
        33.500    22094076.21148
  25415451.352 5 133559087.65415        35.900                   104072055.06355
        16.300    25415454.18845
  23247298.000 7 122165378.375 7        43.500                    95193807.92048
        30.900    23247300.94948
  20877232.133 9 109710610.697 9        52.700    20877238.027 9  85488822.29549
        46.800    20877237.51249  20877233.551 7  81926794.253 7        41.300
 19  2 12  0  6 30.0000000  0 11G01G32G11G18G08G27G26G20G21G16G10
  24200691.766 5 127175504.042 5        35.600    24200699.824 6  99097818.52746
        22.500    24200699.84046  24200696.387 3  94968709.68913        32.300
  24453055.703 5 128501703.795 5        37.900    24453062.906 6 100131204.33846
        22.500    24453063.14546
  23402848.055 7 122982797.105 7        41.300                    95830774.19147
        27.500    23402850.87147
  21675125.867 8 113903578.808 8        47.600                    88756062.73049
        36.700    21675130.59849
  20700575.547 9 108782275.447 9        53.000    20700582.594 9  84765436.59249
        48.200    20700581.67249  20700578.445 7  81233528.909 7        42.700
  20355255.117 9 106967614.263 9        55.100    20355261.500 9  83351416.85949
        50.400    20355261.00449  20355258.301 7  79878385.578 7        43.200
  25239140.461 6 132632590.916 6        38.400    25239147.090 5 103350089.84946
        21.100    25239146.94146
  22108813.750 8 116182627.425 8        45.100                    90531945.65249
        34.200    22108816.94949
  25430576.422 5 133638569.94115        35.500                   104133989.30855
        16.900    25430579.59445
  23267743.398 7 122272820.051 7        43.300                    95277528.70348
        30.200    23267746.17248
  20881836.539 9 109734808.983 9        51.600    20881842.656 9  85507678.11149
        46.700    20881842.42649  20881838.309 7  81944864.401 7        41.300
 19  2 12  0  7  0.0000000  0 12G01G32G11G18G08G27G26G20G21G16G22G10
  24182297.164 5 127078845.449 5        35.400    24182306.938 6  99022500.20246
        21.700    24182306.86346  24182302.430 2  94896529.594 2        31.500
  24435500.656 6 128409449.289 6        38.100    24435507.910 6 100059317.70346
        22.500    24435507.93446
  23383929.289 7 122883379.840 7        41.800                    95753306.20047
        26.200    23383931.50047
  21660008.000 8 113824130.262 8        47.800                    88694154.79749
        36.900    21660012.03949
  20693127.789 9 108743136.992 9        53.000    20693134.672 9  84734939.09549
        48.100    20693133.67649  20693130.836 7  81204302.142 7        41.800
  20360167.594 9 106993429.923 9        54.900    20360174.176 9  83371532.94549
        50.300    20360173.50849  20360170.734 7  79897663.477 7        43.300
  25260426.672 4 132744465.96314        34.100    25260435.641 3 103437265.22955
        16.300    25260435.19945
  22123622.875 8 116260450.107 8        45.400                    90592586.70049
        34.100    22123626.11749
  25445700.148 3 133718050.70313        33.700                   104195922.33855
        17.400    25445704.03545
  23288224.133 7 122380447.501 7        43.700                    95361394.23648
        30.200    23288227.38348
  25291573.898 5 132908106.41015        37.700                   103564773.67355
        15.600    25291575.60945
  20886545.102 9 109759552.334 9        51.500    20886551.191 9  85526958.65149
        46.600    20886550.87149  20886546.984 7  81963341.586 7        41.300
 19  2 12  0  7 30.0000000  0 12G01G32G11G18G08G27G26G20G21G16G22G10
  24163927.547 5 126982306.225 5        36.500    24163935.375 6  98947274.89746
        21.700    24163935.78546  24163931.051 1  94824438.697 1        30.800
  24417966.367 5 128317308.329 5        37.800    24417974.762 6  99987519.59246
        24.200    24417973.52346
  23365031.547 7 122784072.477 7        41.900                    95675923.87447
        26.400    23365034.93447
  21644940.117 9 113744949.832 9        48.200                    88632455.77749
        37.400    21644944.77049
  20685756.586 9 108704399.906 9        54.000    20685763.051 9  84704754.34749
        48.300    20685762.17249  20685759.191 7  81175375.083 7        42.400
  20365167.742 9 107019704.909 9        54.200    20365174.145 9  83392006.95249
        50.300    20365173.44549  20365170.703 7  79917284.421 7        43.000
  25281705.148 5 132856277.062 5        37.300    25281713.207 5 103524390.76446
        20.400    25281712.78146
  22138500.305 7 116338630.851 7        44.900                    90653506.75449
        34.000    22138503.33249
  25460826.063 3 133797529.44613        33.600                   104257853.78155
        17.400    25460828.88745
  23308739.742 7 122488257.920 7        43.400                    95445402.34148
        30.600    23308742.77048
  25270565.914 7 132797704.089 7        41.300                   103478745.78046
        23.200    25270567.00846
  20891356.773 9 109784839.487 9        51.500    20891363.336 9  85546662.93149
        46.300    20891362.84449  20891359.070 7  81982224.857 7        41.500
 19  2 12  0  8  0.0000000  0 11G01G32G11G18G08G27G20G21G16G22G10
  24145578.523 5 126885886.448 5        35.100    24145586.934 6  98872142.62146
        21.100    24145586.76646  24145584.227 3  94752436.962 3        32.100
  24400455.453 6 128225283.394 6        38.900    24400462.555 6  99915811.86646
        22.600    24400461.48046
  23346154.430 7 122684875.660 7        41.300                    95598627.67947
        28.200    23346157.71947
  21629923.891 8 113666038.137 8        47.800                    88570966.16249
        37.600    21629928.50849
  20678461.375 9 108666065.141 9        53.800    20678468.430 9  84674883.09749
        48.200    20678467.25449  20678464.191 7  81146748.491 7        42.500
  20370254.875 9 107046438.705 9        53.600    20370261.418 9  83412838.47449
        50.300    20370260.76649  20370258.047 7  79937247.952 7        42.800
  22153445.125 7 116417166.595 7        44.700                    90714703.44748
        33.500    22153447.89848
  25475949.391 5 133877005.418 5        35.000                   104319783.04645
        18.300    25475953.27345
  23329289.773 7 122596248.226 7        43.600                    95529550.62948
        30.600    23329292.94948
  25249564.805 3 132687351.591 3        33.500                   103392756.99345
        17.800    25249567.84845
  20896272.133 9 109810668.693 9        51.700    20896278.398 9  85566789.59149
        46.400    20896278.19149  20896274.266 7  82001512.875 7        41.200
 19  2 12  0  8 30.0000000  0 11G01G32G11G18G08G27G20G21G16G22G10
  24127254.250 5 126789587.030 5        37.200    24127262.574 6  98797104.21346
        22.200    24127261.78946  24127258.324 3  94680525.107 3        32.100
  24382965.813 6 128133377.542 6        38.300    24382973.352 6  99844196.92046
        22.900    24382972.77746
  23327299.250 7 122585790.848 7        41.400                    95521418.75947
        26.800    23327302.80547
  21614958.859 8 113587396.040 8        47.800                    88509686.63049
        37.800    21614963.28549
  20671243.500 9 108628134.373 9        54.300    20671250.477 9  84645326.65649
        48.500    20671249.34449  20671246.438 7  81118423.565 7        42.000
  20375429.633 9 107073631.252 9        54.900    20375435.898 9  83434027.46749
        50.300    20375435.32449  20375432.633 7  79957554.075 7        43.400
  22168457.117 7 116496054.810 7        44.600                    90776174.78148
        33.800    22168460.41848
  25491072.531 4 133956478.51614        34.600                   104381710.11455
        18.300    25491076.82845
  23349872.977 7 122704415.439 7        43.300                    95613836.77048
        31.000    23349876.59448
  25228576.711 7 132577050.843 7        41.400                   103306808.25845
        19.600    25228577.02345
  20901289.930 9 109837038.549 9        51.000    20901296.305 9  85587337.52249
        46.200    20901296.05149  20901292.000 7  82021204.654 7        41.100
 19  2 12  0  9  0.0000000  0 11G01G32G11G18G08G27G20G21G16G22G10
  24108951.555 5 126693408.79615        36.300    24108960.066 6  98722160.17656
        22.900    24108959.54346  24108956.211 3  94608703.786 3        32.600
  24365500.039 6 128041593.989 6        39.500    24365507.086 6  99772677.30646
        22.500    24365507.09046
  23308466.313 7 122486819.327 7        41.500                    95444298.12247
        27.600    23308469.45747
  21600045.016 9 113509024.716 9        48.600                    88448618.07849
        37.200    21600049.40249
  20664102.820 9 108590609.614 9        54.100    20664109.660 9  84616086.58549
        48.500    20664108.68049  20664105.551 7  81090401.838 7        42.600
  20380691.664 9 107101282.901 9        54.600    20380697.867 9  83455574.20349
        50.400    20380697.28549  20380694.523 7  79978203.017 7        43.100
  22183535.922 7 116575293.614 7        44.200                    90837919.29848
        33.000    22183538.80148
  25506195.836 4 134035948.60514        34.800                   104443634.94355
        17.800    25506198.22345
  23370489.703 7 122812756.818 7        43.000                    95698258.61647
        29.500    23370493.13347
  25207595.031 3 132466804.048 3        32.500                   103220901.69745
        17.800    25207599.39545
  20906410.555 9 109863948.039 9        52.400    20906417.082 9  85608305.96549
        46.400    20906416.61749  20906412.664 7  82041299.436 7        41.700
 19  2 12  0  9 30.0000000  0 11G01G32G11G18G08G27G20G21G16G22G10
  24090672.094 5 126597352.765 5        36.400    24090680.941 6  98647311.36746
        20.100    24090680.35946  24090677.129 2  94536973.678 2        31.900
  24348059.164 6 127949935.874 6        39.400    24348065.246 6  99701255.39846
        22.900    24348064.91046
  23289653.945 6 122387962.789 6        40.900                    95367267.08747
        26.300    23289656.93047
  21585183.211 9 113430925.189 9        48.600                    88387761.31449
        37.700    21585187.64849
  20657039.602 9 108553492.095 9        54.500    20657046.344 9  84587163.84449
        48.600    20657045.46549  20657042.195 7  81062684.195 7        42.600
  20386040.789 9 107129393.750 9        55.000    20386047.266 9  83477478.74749
        50.200    20386046.69149  20386043.824 7  79999194.877 7        43.600
  22198680.625 7 116654880.618 7        44.300                    90899935.13748
        32.400    22198683.58648
  25521316.859 4 134115415.429 4        34.000                   104505557.15045
        17.400    25521320.32845
  23391138.781 7 122921269.814 7        43.300                    95782814.19348
        30.400    23391142.21948
  25186629.219 7 132356613.276 7        41.300                   103135038.87546
        23.800    25186630.83246
  20911634.000 9 109891396.047 9        52.300    20911640.477 9  85629694.02049
        46.300    20911639.91449  20911635.938 7  82061796.318 7        41.400
 19  2 12  0 10  0.0000000  0 11G01G32G11G18G08G27G20G21G16G22G10
  24072417.563 5 126501419.831 5        37.300    24072425.328 6  98572558.45446
        20.100    24072424.74646  24072421.816 3  94465335.54213        32.800
  24330641.203 6 127858406.596 6        39.200    24330648.777 6  99629933.90146
        24.700    24330647.46946
  23270864.508 7 122289222.275 7        41.800                    95290326.42847
        26.900    23270866.82047
  21570373.523 9 113353099.065 9        48.500                    88327117.59149
        37.500    21570377.55949
  20650054.234 9 108516783.907 9        54.700    20650061.293 9  84558560.06349
        48.300    20650059.97749  20650056.941 7  81035272.252 7        42.200
  20391477.516 9 107157964.070 9        54.500    20391483.926 9  83499741.32949
        50.200    20391483.46549  20391480.500 7  80020529.830 7        42.800
  22213891.203 7 116734813.924 7        43.900                    90962220.83148
        32.600    22213894.39548
  25536438.078 3 134194879.13313        32.800                   104567476.86055
        16.300    25536442.05545
  23411820.711 7 123029952.250 7        43.900                    95867501.79447
        29.000    23411823.90647
  25165669.344 5 132246480.523 5        35.800                   103049221.00845
        16.300    25165671.60945
  20916959.469 9 109919381.566 9        52.900    20916965.617 9  85651500.92449
        46.300    20916965.30149  20916961.387 7  82082694.594 7        41.500
 19  2 12  0 10 30.0000000  0 11G01G32G11G18G08G27G20G21G16G22G10
  24054185.625 5 126405610.288 5        37.900    24054193.984 6  98497901.72446
        22.300    24054193.18446  24054190.523 3  94393789.437 3        33.300
  24313249.391 6 127767008.373 6        39.000    24313256.098 6  99558714.52146
        24.200    24313255.10546
  23252096.898 7 122190598.875 7        41.800                    95213477.02947
        27.600    23252100.19547
  21555615.227 9 113275546.008 9        48.700                    88266686.64349
        37.000    21555619.68449
  20643146.844 9 108480485.804 9        54.100    20643153.797 9  84530275.82249
        48.500    20643152.74649  20643149.750 7  81008166.511 7        42.700
  20397001.641 9 107186993.128 9        54.500    20397008.066 9  83522361.36149
        50.300    20397007.41049  20397004.480 7  80042207.373 7        43.200
  22229167.664 7 116815090.254 7        44.100                    91024773.82648
        32.900    22229170.81348
  25551559.695 3 134274338.721 3        33.700                   104629393.36745
        17.400    25551562.90645
  23432533.930 8 123138800.312 8        45.000                    95952318.45847
        29.500    23432537.19947
  25144724.430 6 132136406.924 6        39.500                   102963449.45647
        25.100    25144726.59847
  20922387.164 9 109947902.397 9        52.700    20922392.898 9  85673724.95049
        46.600    20922392.96149  20922388.586 7  82103992.642 7        41.500
 19  2 12  0 11  0.0000000  0 11G01G32G11G18G08G27G20G21G16G22G10
  24035976.820 6 126309924.44516        39.500    24035985.809 6  98423341.39956
        22.600    24035984.93046  24035981.418 3  94322335.829 3        32.100
  24295881.602 6 127675744.137 6        39.800    24295888.570 6  99487599.54847
        25.300    24295887.92247
  23233352.055 7 122092093.320 7        41.600                    95136719.49747
        28.000    23233355.03547
  21540909.930 9 113198267.248 9        48.800                    88206469.45049
        36.600    21540913.69949
  20636318.023 9 108444598.998 9        54.900    20636325.063 9  84502312.08249
        48.500    20636323.60949  20636320.590 7  80981367.939 7        42.600
  20402612.898 9 107216480.786 9        54.900    20402619.441 9  83545338.75049
        50.200    20402618.71949  20402615.789 7  80064227.385 7        43.400
  22244508.422 7 116895707.122 7        44.000                    91087592.15448
        33.000    22244511.24248
  25566679.555 5 134353793.869 5        36.000                   104691306.42045
        16.900    25566683.08245
  23453277.867 7 123247811.135 7        44.200                    96037261.95847
        29.700    23453281.12547
  25123790.219 6 132026394.447 6        40.400                   102877725.47546
        24.600    25123791.85246
  20927915.852 9 109976957.118 9        52.800    20927922.016 9  85696365.00549
        46.700    20927921.60549  20927917.652 6  82125689.337 6        40.800
 19  2 12  0 11 30.0000000  0 11G01G32G11G18G08G27G20G21G16G22G10
  24017791.828 6 126214363.80416        38.800    24017800.309 6  98348878.63556
        22.500    24017800.66046  24017796.781 2  94250975.690 2        31.400
  24278540.242 6 127584617.550 6        38.600    24278547.945 6  99416591.80746
        24.400    24278546.78146
  23214629.594 7 121993707.592 7        42.000                    95060055.31147
        28.200    23214633.19947
  21526256.391 9 113121264.231 9        48.200                    88146467.12149
        37.300    21526260.86749
  20629567.633 9 108409126.068 9        54.200    20629574.406 9  84474670.82949
        48.800    20629573.34849  20629570.430 7  80954878.406 7        43.000
  20408311.609 9 107246427.544 9        54.700    20408318.098 9  83568673.88149
        50.100    20408317.37149  20408314.711 7  80086590.203 7        43.300
  22259913.836 7 116976662.958 7        44.200                    91150674.63348
        33.500    22259916.93448
  25581798.297 5 134433244.846 5        35.000                   104753216.26145
        16.300    25581802.05545
  23474052.383 7 123356982.332 7        43.200                    96122330.42047
        28.700    23474055.77347
  25102865.977 4 131916445.164 4        34.400                   102792050.67345
        17.400    25102868.07445
  20933546.070 9 110006544.938 9        52.800    20933552.523 9  85719420.45049
        46.400    20933552.10549  20933547.977 7  82147784.143 7        41.100
 19  2 12  0 12  0.0000000  0 11G01G32G11G18G08G27G20G21G16G22G10
  23999631.703 6 126118929.064 6        38.800    23999639.504 6  98274513.95446
        22.500    23999639.16046  23999635.750 2  94179709.559 2        31.500
  24261227.000 6 127493631.720 6        39.200    24261233.797 6  99345693.80146
        24.500    24261232.77046  24261229.910 1  95206219.23711        30.900
  23195930.188 7 121895443.007 7        41.400                    94983485.52047
        28.800    23195933.88747
  21511655.922 9 113044537.921 9        48.600                    88086680.39949
        37.500    21511660.44149
  20622896.617 9 108374068.568 9        54.500    20622903.059 9  84447353.29949
        48.800    20622902.27049  20622899.020 7  80928699.109 7        42.800
  20414097.523 9 107276833.430 9        54.500    20414104.254 9  83592366.77649
        50.200    20414103.28549  20414100.711 7  80109295.888 7        43.400
  22275383.453 7 117057955.128 7        44.300                    91214019.16448
        32.200    22275386.17248
  25596916.891 4 134512691.356 4        34.800                   104815122.64545
        16.900    25596920.33645
  23494857.734 7 123466311.383 7        43.500                    96207521.88147
        29.400    23494860.46147
  25081957.063 6 131806561.642 6        38.800                   102706427.17246
        22.500    25081958.66446
  20939277.758 9 110036664.536 9        52.300    20939284.000 9  85742890.27549
        46.300    20939283.67649  20939279.844 7  82170276.035 7        41.500
 19  2 12  0 12 30.0000000  0 12G01G32G11G18G08G27G14G20G21G16G22G10
  23981494.867 6 126023621.253 6        38.700    23981502.961 6  98200248.21246
        22.500    23981503.19146  23981499.883 2  94108538.177 2        31.700
  24243940.523 6 127402789.767 6        39.400    24243947.340 6  99274907.86847
        25.200    24243945.84047  24243943.328 2  95138382.774 2        31.400
  23177254.313 7 121797300.852 7        41.300                    94907011.12547
        28.100    23177257.46547
  21497108.531 9 112968089.448 9        49.000                    88027110.18449
        37.200    21497112.68049
  20616304.563 9 108339427.696 9        54.600    20616311.402 9  84420360.41449
        48.900    20616310.14849  20616307.227 7  80902830.918 7        43.000
  20419971.266 9 107307698.478 9        54.800    20419977.617 9  83616417.45749
        50.100    20419976.83649  20419974.410 7  80132344.457 7        43.400
  25227899.453 5 132573508.70615        37.200                   103304040.21155
        19.900    25227902.79345
  22290916.313 7 117139581.432 7        44.100                    91277624.09548
        32.400    22290918.96148
  25612033.234 3 134592133.333 3        33.800                   104877025.46744
        14.800    25612037.03544
  23515691.258 7 123575795.583 7        43.400                    96292834.24347
        28.900    23515694.41847
  25061060.117 6 131696745.545 6        39.100                   102620856.16146
        23.900    25061061.51246
  20945110.023 9 110067314.607 9        51.900    20945116.688 9  85766773.44449
        46.000    20945116.23449  20945112.070 7  82193164.082 7        41.800
 19  2 12  0 13  0.0000000  0 12G01G32G11G18G08G27G14G20G21G16G22G10
  23963382.758 5 125928440.270 5        37.900    23963391.453 6  98126081.22646
        22.500    23963390.67246  23963387.582 3  94037461.578 3        32.800
  24226681.672 6 127312094.027 6        39.700    24226688.574 6  99204235.88047
        25.800    24226687.26247  24226684.320 2  95070655.420 2        31.100
  23158601.977 7 121699281.912 7        41.600                    94830632.76147
        28.400    23158604.71147
  21482613.695 9 112891919.082 9        49.000                    87967756.66149
        37.900    21482617.97349
  20609791.977 9 108305204.388 9        54.400    20609798.895 9  84393692.89349
        49.000    20609797.71149  20609794.641 7  80877274.547 7        42.300
  20425931.820 9 107339021.896 9        55.800    20425938.207 9  83640825.30049
        50.200    20425937.56349  20425934.887 7  80155735.310 7        43.200
  25210416.727 3 132481649.36813        33.700                   103232461.56055
        15.600    25210422.19945
  22306512.289 7 117221538.947 7        43.800                    91341487.08648
        32.100    22306515.26648
  25627150.039 3 134671569.998 3        33.900                   104938924.18444
        14.800    25627152.82044
  23536554.359 7 123685431.621 7        43.800                    96378264.91247
        28.100    23536557.45347
  25040175.422 5 131586997.695 5        37.400                   102535338.48946
        20.900    25040177.27046
  20951043.203 9 110098493.037 9        52.000    20951049.418 9  85791068.32949
        46.100    20951049.21549  20951044.980 7  82216446.686 7        41.600
 19  2 12  0 13 30.0000000  0 12G01G32G11G18G08G27G14G20G21G16G22G10
  23945295.586 6 125833387.108 6        38.400    23945302.895 6  98052013.90946
        24.200    23945302.46146  23945299.094 3  93966480.411 3        32.300
  24209450.500 6 127221547.758 6        39.000    24209457.906 6  99133680.35747
        25.200    24209457.06647  24209454.457 2  95003039.737 2        31.100
  23139973.211 7 121601387.533 7        41.800                    94754351.42247
        27.300    23139976.65247
  21468172.195 9 112816028.064 9        49.600                    87908620.82549
        38.400    21468176.66449
  20603359.445 9 108271400.270 9        54.700    20603366.145 9  84367352.01849
        49.100    20603365.09049  20603362.203 7  80852031.205 7        42.700
  20431979.844 9 107370803.813 9        55.200    20431985.961 9  83665590.42549
        50.200    20431985.38349  20431982.570 7  80179468.570 7        43.300
  25192930.813 3 132389756.07413        33.700                   103160856.42755
        16.300    25192934.58245
  22322170.875 7 117303825.564 7        43.600                    91405606.51848
        32.000    22322174.08248
  25642265.547 5 134751001.068 5        36.000                   105000818.49445
        19.000    25642268.64145
  23557445.539 7 123795216.766 7        42.800                    96463811.76447
        27.800    23557449.02047
  25019303.344 5 131477320.763 5        35.600                   102449875.81945
        19.000    25019305.14145
  20957076.633 9 110130198.558 9        52.000    20957082.848 9  85815773.93149
        45.900    20957082.61749  20957078.293 6  82240122.897 6        40.900
 19  2 12  0 14  0.0000000  0 12G01G32G11G18G08G27G14G20G21G16G22G10
  23927231.422 5 125738462.918 5        37.200    23927239.320 6  97978047.06146
        23.300    23927239.49646  23927235.445 3  93895595.504 3        32.700
  24192249.750 6 127131154.374 6        39.400    24192256.758 7  99063243.96046
        24.500    24192256.19546  24192252.441 2  94935538.17512        31.200
  23121368.836 7 121503619.510 7        42.600                    94678168.58547
        27.500    23121372.19547
  21453784.023 9 112740417.569 9        49.500                    87849703.57749
        38.300    21453788.43049
  20597006.758 9 108238017.716 9        54.900    20597013.617 9  84341339.63249
        48.900    20597012.64849  20597009.484 7  80827102.678 7        42.500
  20438115.086 9 107403044.464 9        55.200    20438121.395 9  83690713.00649
        50.200    20438120.68449  20438117.777 7  80203544.382 7        43.600
  25175436.672 2 132297831.85212        31.600                   103089227.17355
        17.400    25175442.49245
  22337891.703 7 117386438.974 7        44.100                    91469980.61248
        31.900    22337894.64848
  25657377.742 3 134830426.760 3        32.000                   105062708.60545
        17.800    25657383.61745
  23578365.180 7 123905148.424 7        43.900                    96549472.81047
        28.400    23578368.31347
  24998448.102 6 131367716.422 6        38.800                   102364469.89246
        22.800    24998449.34446
  20963210.219 9 110162430.145 9        53.400    20963216.438 9  85840889.45849
        46.500    20963215.98449  20963212.160 7  82264191.926 7        41.400
 19  2 12  0 14 30.0000000  0 11G01G32G11G18G08G27G14G20G16G22G10
  23909193.000 6 125643669.691 6        38.100    23909200.734 6  97904182.24746
        23.200    23909200.27346  23909196.457 2  93824808.382 2        31.300
  24175078.383 6 127040918.111 6        39.200    24175085.660 7  98992929.99547
        27.200    24175084.77047  24175081.961 2  94868153.955 2        31.400
  23102788.773 7 121405980.324 7        42.500                    94602086.10547
        29.100    23102792.51647
  21439449.594 9 112665089.814 9        49.200                    87791006.63749
        38.500    21439454.02049
  20590735.086 9 108205059.072 9        55.000    20590741.648 9  84315657.57649
        48.900    20590740.87549  20590737.871 7  80802490.716 7        42.400
  20444337.602 9 107435744.921 9        54.900    20444343.934 9  83716193.87249
        50.100    20444343.35249  20444340.355 7  80227963.545 7        42.800
  25157941.070 5 132205880.62715        35.400                   103017576.99655
        16.900    25157945.33245
  22353674.344 7 117469378.132 7        44.300                    91534608.54548
        31.200    22353677.12948
  23599311.336 7 124015225.101 7        43.900                    96635246.83347
        28.700    23599315.46147
  24977605.477 6 131258187.933 6        40.300                   102279123.07546
        23.800    24977606.56646
  20969443.719 9 110195187.470 9        53.000    20969449.855 9  85866414.64649
        46.000    20969449.65249  20969445.438 7  82288653.571 7        41.200
 19  2 12  0 15  0.0000000  0 11G01G32G11G18G08G27G14G20G16G22G10
  23891178.992 6 125549005.828 6        38.500    23891186.762 6  97830418.25646
        22.900    23891186.21946  23891183.051 2  93754117.887 2        31.900
  24157937.000 6 126950839.852 6        39.400    24157943.668 6  98922739.15147
        26.800    24157942.97747  24157940.098 2  94800887.780 2        31.400
  23084232.688 7 121308469.010 7        43.700                    94526103.28047
        28.700    23084235.94547
  21425168.867 9 112590043.534 9        49.600                    87732529.02349
        38.600    21425173.03549
  20584543.727 9 108172523.538 9        54.900    20584550.738 9  84290305.20449
        48.900    20584549.66849  20584546.480 7  80778194.684 7        42.600
  20450647.602 9 107468902.903 9        55.200    20450653.730 9  83742031.25249
        50.000    20450652.92649  20450650.328 7  80252724.363 7        43.100
  25140437.492 4 132113902.76814        34.300                   102945905.89655
        17.800    25140442.65245
  22369518.094 7 117552638.340 7        43.900                    91599486.62348
        31.600    22369521.20348
  23620285.773 7 124125441.864 7        42.400                    96721130.02347
        28.200    23620288.93047
  24956775.930 5 131148735.400 5        36.300                   102193835.42045
        19.000    24956777.76245
  20975776.711 9 110228466.868 9        53.200    20975782.781 9  85892346.65549
        46.000    20975782.37149  20975778.297 7  82313505.086 7        41.300
 19  2 12  0 15 30.0000000  0 11G01G32G11G18G08G27G14G20G16G22G10
  23873189.648 6 125454472.904 6        38.800    23873197.844 7  97756756.27546
        23.300    23873197.28146  23873193.609 3  93683525.180 3        32.300
  24140826.367 6 126860923.335 6        39.300    24140832.992 6  98852674.35347
        26.700    24140832.30147  24140829.258 2  94733742.325 2        31.800
  23065702.008 7 121211087.414 7        43.700                    94450221.54347
        28.500    23065704.82447
  21410941.766 9 112515280.356 9        50.200                    87674272.01749
        38.500    21410946.07049
  20578433.477 9 108140413.259 9        54.100    20578440.164 9  84265284.21349
        49.000    20578439.22749  20578436.164 7  80754216.238 7        43.000
  20457044.516 9 107502518.981 9        55.400    20457050.676 9  83768225.58849
        50.000    20457049.93849  20457047.141 7  80277827.264 7        43.100
  25122930.930 5 132021902.04615        35.500                   102874217.03355
        16.300    25122934.45345
  22385423.516 7 117636218.056 7        43.600                    91664613.67448
        31.900    22385425.97348
  23641285.891 7 124235796.953 7        42.500                    96807121.00347
        27.300    23641288.48047
  24935964.086 6 131039361.070 6        40.700                   102108608.57046
        24.100    24935965.16446
  20982208.695 9 110262267.571 9        53.800    20982214.699 9  85918684.86249
        46.200    20982214.35949  20982210.492 6  82338745.859 6        40.700
 19  2 12  0 16  0.0000000  0 11G01G32G11G18G08G27G14G20G16G22G10
  23855225.281 6 125360071.624 6        38.600    23855233.859 7  97683196.86147
        26.200    23855233.69547  23855229.914 3  93613030.717 3        32.400
  24123747.586 6 126771171.617 6        39.200    24123754.027 6  98782737.95147
        25.900    24123753.09447  24123749.910 2  94666719.895 2        31.800
  23047196.250 7 121113837.402 7        43.600                    94374442.31447
        29.900    23047199.28547
  21396768.813 9 112440801.361 9        49.800                    87616236.44349
        39.000    21396773.22349
  20572404.055 9 108108729.825 9        54.200    20572410.980 9  84240595.82149
        48.900    20572410.05949  20572406.688 7  80730556.535 7        42.200
  20463528.398 9 107536592.964 9        55.200    20463534.746 9  83794776.73849
        49.900    20463534.00449  20463531.293 7  80303272.101 7        42.700
  25105419.258 4 131929880.93914        34.100                   102802512.31255
        16.900    25105423.10245
  22401388.328 7 117720114.735 7        44.100                    91729987.69848
        31.000    22401391.30548
  23662310.508 7 124346287.127 7        42.000                    96893217.22847
        26.700    23662314.07047
  24915166.164 7 130930066.986 7        42.000                   102023444.46346
        21.800    24915166.69146
  20988739.438 9 110296588.051 9        52.900    20988745.641 9  85945428.10349
        45.800    20988745.30949  20988741.141 7  82364374.803 7        41.300
 19  2 12  0 16 30.0000000  0 11G01G32G11G18G08G27G14G20G16G22G10
  23837286.852 6 125265802.743 6        38.500    23837294.563 6  97609740.62446
        24.700    23837294.80146  23837290.527 2  93542635.232 2        31.600
  24106699.844 6 126681587.687 6        39.100    24106706.887 6  98712932.30447
        26.400    24106706.43847  24106702.848 2  94599822.858 2        31.100
  23028714.828 7 121016720.106 7        43.400                    94298766.51147
        28.900    23028718.26647
  21382649.820 9 112366607.168 9        49.300                    87558422.79449
        38.800    21382654.34849
  20566456.641 9 108077474.550 9        54.100    20566463.609 9  84216241.05349
        49.000    20566462.14149  20566459.121 7  80707216.551 7        42.600
  20470099.523 9 107571124.654 9        55.000    20470105.926 9  83821684.54149
        49.800    20470105.23049  20470102.531 7  80329058.749 7        42.900
  25087903.789 3                        33.100
        16.900    25087908.89545
  22417413.008 7 117804326.233 7        43.400                    91795607.04748
        31.800    22417415.57048
  23683362.375 7 124456910.066 7        41.700                    96979416.92447
        27.600    23683365.05547
  24894382.844 6 130820854.564 6        38.800                   101938343.87946
        24.100    24894385.15646
  20995369.203 9 110331426.758 9        52.800    20995375.344 9  85972575.14549
        45.800    20995375.04349  20995370.617 6  82390390.728 6        40.800
 19  2 12  0 17  0.0000000  0 11G01G32G11G18G08G27G14G20G16G22G10
  23819373.984 6 125171667.439 6        39.200    23819381.289 6  97536388.48247
        25.300    23819380.85247  23819377.570 3  93472339.387 3        33.000
  24089684.742 6 126592175.080 6        39.800    24089692.465 7  98643260.15247
        26.300    24089691.74247  24089688.430 2  94533053.669 2        31.600
  23010260.109 7 120919736.956 7        44.100                    94223195.24448
        30.000    23010263.10248
  21368585.734 9 112292699.419 9        49.200                    87500832.35149
        38.700    21368589.97349
  20560590.781 9 108046649.633 9        54.600    20560597.516 9  84192221.63849
        49.000    20560596.45749  20560593.441 7  80684197.926 7        42.500
  20476757.859 9 107606114.270 9        55.300    20476764.273 9  83848949.17049
        49.900    20476763.39149  20476760.957 7  80355187.357 7        43.000
  25070387.516 3 131745789.17513        33.000                   102659064.13455
        15.600    25070391.62145
  22433496.891 7 117888850.166 7        43.000                    91861469.84948
        31.900    22433500.43048
  23704437.617 7 124567663.081 7        42.000                    97065717.95047
        26.400    23704440.70347
  24873614.617 5 130711726.287 5        37.900                   101853308.80245
        19.600    24873617.85245
  21002097.148 9 110366782.519 9        52.300    21002103.289 9  86000125.09349
        45.600    21002103.07049  21002098.922 7  82416792.757 7        41.400
 19  2 12  0 17 30.0000000  0 11G01G32G11G18G08G27G14G20G16G22G10
  23801485.719 6 125077666.042 6        39.500    23801493.141 6  97463140.69646
        23.000    23801492.71946  23801489.609 3  93402143.616 3        33.100
  24072704.164 6 126502936.451 6        40.600    24072711.281 7  98573723.57547
        27.300    24072709.86747  24072707.285 2  94466414.48312        31.800
  22991830.398 7 120822889.163 7        43.700                    94147729.44147
        29.700    22991833.06647
  21354576.125 9 112219078.656 9        49.200                    87443465.53949
        38.500    21354580.86749
  20554806.820 9 108016255.850 9        55.300    20554813.879 9  84168538.16649
        49.200    20554812.82049  20554809.910 7  80661501.258 7        42.100
  20483503.438 9 107641561.312 9        54.600    20483509.453 9  83876570.24549
        49.900    20483508.85549  20483506.188 7  80381657.535 7        43.100
  25052870.945 5 131653724.093 5        37.200                   102587325.15145
        17.800    25052873.36745
  22449640.445 7 117973684.301 7        43.400                    91927574.37448
        31.300    22449643.86748
  23725537.008 7 124678543.186 7        41.600                    97152118.03947
        28.000    23725539.93847
  24852866.289 6 130602683.801 6        39.500                   101768340.68346
        22.900    24852868.43046
  21008923.031 9 110402653.507 9        52.700    21008929.398 9  86028076.51149
        45.500    21008928.94549  21008925.039 6  82443579.527 6        40.900
 19  2 12  0 18  0.0000000  0 11G01G32G11G18G08G27G14G20G16G22G10
  23783623.516 6 124983799.422 6        39.600    23783631.820 6  97389997.90347
        26.400    23783631.04747  23783628.148 3  93332048.479 3        33.800
  24055755.836 7 126413874.972 7        41.400    24055762.980 7  98504325.01147
        26.800    24055762.30547  24055758.961 2  94399907.503 2        31.600
  22973426.641 7 120726178.221 7        44.300                    94072370.29347
        29.400    22973429.71947
  21340621.688 9 112145745.892 9        49.000                    87386323.14649
        38.700    21340625.66049
  20549105.602 9 107986294.845 9        53.800    20549112.371 9  84145191.93349
        49.100    20549111.44949  20549108.477 7  80639127.805 7        43.200
  20490335.531 9 107677465.636 9        55.400    20490342.109 9  83904547.63149
        50.000    20490341.37949  20490338.637 7  80408469.207 7        43.100
  25035349.117 5 131561649.63915        36.700                   102515578.90055
        17.400    25035351.23845
  22465842.563 7 118058826.034 7        43.600                    91993918.56548
        30.700    22465845.83248
  23746661.148 7 124789547.429 7        42.300                    97238614.86047
        27.100    23746663.75447
  24832133.688 6 130493729.055 6        40.900                   101683440.88946
        22.300    24832135.05946
  21015846.680 9 110439038.052 9        52.800    21015853.383 9  86056428.10449
        45.500    21015852.71149  21015848.695 6  82470749.796 6        40.500
 19  2 12  0 18 30.0000000  0 11G01G32G11G18G08G27G14G20G16G22G10
  23765786.336 6 124890068.358 6        38.600    23765794.676 6  97316960.75446
        24.200    23765794.12946  23765790.969 3  93262054.552 3        32.900
  24038842.891 6 126324993.690 6        40.200    24038849.211 7  98435066.87047
        27.200    24038848.72347  24038844.855 3  94333535.111 3        32.200
  22955049.820 7 120629605.567 7        43.800                    93997118.87047
        29.800    22955052.81347
  21326722.023 9 112072702.063 9        48.800                    87329405.89149
        38.900    21326725.70349
  20543486.922 9 107956768.269 9        54.800    20543493.691 9  84122184.21549
        49.200    20543492.53549  20543489.590 7  80617078.740 7        42.100
  20497254.953 9 107713827.053 9        55.200    20497261.191 9  83932881.19849
        49.900    20497260.48449  20497257.961 7  80435622.208 7        42.600
  25017826.000 5 131469568.77215        36.200                   102443827.55855
        17.800    25017828.77745
  22482103.047 7 118144273.060 7        44.600                    92060500.67848
        31.000    22482105.60948
  23767807.664 7 124900672.903 7        41.700                    97325206.13547
        26.000    23767810.27047
  24811416.602 6 130384864.092 6        39.000                   101598611.07546
        22.000    24811417.80146
  21022868.031 9 110475934.817 9        52.500    21022874.266 9  86085178.82849
        45.400    21022874.06349  21022870.004 6  82498302.596 6        40.900
 19  2 12  0 19  0.0000000  0 11G01G32G11G18G08G27G14G20G16G22G10
  23747976.422 6 124796473.658 6        39.900    23747983.949 6  97244029.86347
        25.800    23747983.59047  23747980.672 3  93192162.486 3        33.600
  24021963.586 7 126236295.789 7        41.000    24021970.789 7  98365951.62547
        27.000    24021969.92647  24021966.945 3  94267299.647 3        32.200
  22936699.648 7 120533172.201 7        43.600                    93921976.01348
        30.800    22936702.30148
  21312877.234 9 111999948.286 9        48.500                    87272714.63549
        38.500    21312881.37549
  20537951.219 9 107927677.293 9        54.800    20537957.699 9  84099515.91749
        49.300    20537956.68049  20537953.887 7  80595354.951 7        42.800
  20504261.172 9 107750645.416 9        54.800    20504267.359 9  83961570.82249
        49.800    20504267.06649  20504264.109 7  80463116.438 7        42.900
  25000302.172 3 131377484.308 3        33.900                   102372073.40245
        15.600    25000306.14845
  22498419.922 7 118230022.991 7        43.800                    92127318.79648
        30.900    22498423.28548
  23788976.594 7 125011917.590 7        41.400                    97411890.30947
        26.900    23788979.41447
  24790718.633 6 130276090.853 6        39.700                   101513852.70446
        22.900    24790719.85246
  21029986.508 9 110513342.217 9        52.800    21029992.617 9  86114327.46049
        45.600    21029992.44149  21029988.215 7  82526236.686 7        41.200
 19  2 12  0 19 30.0000000  0 11G01G32G11G18G08G27G14G20G16G22G10
  23730191.719 6 124703015.862 6        40.600    23730199.832 7  97171205.67247
        25.600    23730199.71147  23730195.555 3  93122372.647 3        32.800
  24005120.156 7 126147784.102 7        42.500    24005127.594 7  98296981.49847
        27.000    24005126.69547  24005123.422 3  94201203.279 3        32.200
  22918375.609 7 120436879.632 7        44.500                    93846942.84648
        31.000    22918378.20348
  21299087.844 9 111927485.151 9        49.000                    87216249.87049
        39.000    21299091.94549
  20532498.508 9 107899023.451 9        55.400    20532505.000 9  84077188.24649
        49.400    20532504.05149  20532501.070 7  80573957.598 7        42.000
  20511354.078 9 107787920.283 9        55.600    20511360.883 9  83990616.15849
        49.500    20511360.05949  20511357.223 7  80490951.548 7        43.100
  24982775.313 1 131285398.833 1        30.800                   102300318.49945
        16.300    24982782.82045
  22514794.859 7 118316073.538 7        43.200                    92194371.16748
        30.200    22514798.09448
  23810168.109 7 125123278.270 7        41.200                    97498664.84347
        26.800    23810170.89547
  24770036.625 6 130167410.715 6        38.600                   101429166.84846
        21.700    24770037.85946
  21037201.563 9 110551258.416 9        52.900    21037207.969 9  86143872.55249
        45.300    21037207.63749  21037203.355 7  82554550.729 7        41.100
 19  2 12  0 20  0.0000000  0 11G01G32G11G18G08G27G14G20G16G22G10
  23712433.234 6 124609696.097 6        40.900    23712441.953 6  97098489.01547
        26.300    23712441.32447  23712438.074 3  93052685.849 3        33.300
  23988313.539 7 126059461.989 7        42.600    23988320.301 7  98228159.07447
        27.900    23988319.66847  23988316.430 3  94135248.518 3        32.200
  22900078.297 7 120340729.628 7        43.700                    93772020.76448
        30.000    22900081.16848
  21285354.242 9 111855314.048 9        49.100                    87160012.66249
        39.000    21285358.18449
  20527129.297 9 107870808.696 9        54.600    20527136.082 9  84055202.72049
        49.300    20527134.96949  20527132.121 7  80552888.145 7        43.200
  20518534.336 9 107825651.760 9        55.300    20518540.805 9  84020017.30549
        49.500    20518540.17249  20518537.395 7  80519127.641 7        42.600
  24965253.164 2 131193315.46412        31.600                   102228565.26555
        16.900    24965260.04345
  22531227.219 7 118402422.418 7        43.700                    92261656.00448
        30.800    22531229.78148
  23831380.406 7 125234752.591 7        41.600                    97585527.96147
        26.700    23831384.20747
  24749374.438 6 130058825.840 6        38.800                   101344555.26546
        21.500    24749374.85246
  21044513.609 9 110589682.120 9        52.700    21044519.547 9  86173813.11249
        45.400    21044519.21949  21044515.320 6  82583243.774 6        40.900
 19  2 12  0 20 30.0000000  0 11G01G32G11G18G08G27G14G20G16G22G10
  23694701.680 6 124516514.797 6        40.300    23694710.270 7  97025880.27647
        26.100    23694709.65647  23694706.535 3  92983102.493 3        33.700
  23971542.703 7 125971332.272 7        41.400    23971549.387 7  98159486.57747
        28.000    23971549.28147  23971545.734 2  94069437.399 2        31.900
  22881808.516 7 120244723.206 7        43.300                    93697210.57547
        29.200    22881811.80947
  21271676.414 9 111783435.679 9        49.300                    87104003.54649
        39.000    21271680.48449
  20521843.773 9 107843033.538 9        54.500    20521850.824 9  84033559.74249
        49.300    20521849.69149  20521846.691 7  80532146.944 7        42.700
  20525801.383 9 107863839.286 9        55.300    20525807.609 9  84049773.81449
        49.800    20525806.98049  20525804.215 7  80547644.281 7        42.100
  24947732.719 4 131101236.718 4        34.200                   102156815.60945
        17.400    24947737.19945
  22547714.758 7 118489067.057 7        43.400                    92329171.29148
        30.400    22547717.53948
  23852614.063 7 125346337.153 7        41.400                    97672476.96447
        26.000    23852617.52747
  24728729.273 6 129950337.958 6        38.100                   101260019.23346
        22.300    24728730.58246
  21051921.539 9 110628611.404 9        52.500    21051927.676 9  86204147.62249
        45.400    21051927.49249  21051923.410 6  82612314.350 6        40.700
 19  2 12  0 21  0.0000000  0 11G01G32G11G18G08G27G14G20G16G22G10
  23676996.727 6 124423472.521 6        39.600    23677004.441 7  96953379.83547
        27.900    23677004.12147  23677000.609 3  92913622.888 3        33.100
  23954809.750 7 125883397.811 7        41.000    23954816.352 7  98090966.23847
        28.600    23954815.63747  23954812.805 3  94003772.045 3        32.100
  22863567.195 7 120148861.641 7        43.500                    93622513.26148
        30.700    22863570.26248
  21258054.172 9 111711850.667 9        49.000                    87048223.03149
        39.400    21258058.61349
  20516642.109 9 107815699.505 9        54.100    20516649.324 9  84012260.50049
        49.300    20516648.17249  20516645.059 7  80511735.171 7        43.000
  20533154.711 9 107902482.389 9        55.600    20533161.230 9  84079885.30749
        49.500    20533160.48049  20533157.770 7  80576501.149 7        42.900
  24930213.422 3 131009165.365 3        33.900                   102085071.72245
        16.900    24930217.07045
  22564258.625 7 118576005.088 7        43.500                    92396915.21748
        30.200    22564261.36348
  23873868.148 6 125458028.986 6        40.400                    97759509.54047
        25.600    23873871.52047
  24708103.391 5 129841948.803 5        37.900                   101175560.15746
        22.300    24708104.63346
  21059425.305 9 110668044.464 9        52.400    21059431.551 9  86234874.68449
        45.100    21059431.11749  21059427.043 7  82641761.120 7        41.200
 19  2 12  0 21 30.0000000  0 11G01G32G11G18G08G27G14G20G16G22G10
  23659317.984 7 124330570.515 7        41.100    23659325.707 7  96880988.70247
        26.600    23659325.66847  23659321.813 3  92844248.066 3        32.700
  23938113.477 6 125795662.079 6        40.900    23938120.895 7  98022600.73947
        28.800    23938120.25047  23938116.492 3  93938255.101 3        32.200
  22845353.172 7 120053146.561 7        44.300                    93547930.10148
        31.100    22845355.85248
  21244487.883 9 111640560.273 9        49.200                    86992672.08749
        39.400    21244492.35249
  20511525.031 9 107788808.192 9        55.200    20511532.129 9  83991306.22249
        49.300    20511530.93049  20511527.742 7  80491654.006 7        42.500
  20540595.344 9 107941581.191 9        55.000    20540601.496 9  84110351.89849
        49.500    20540600.84449  20540598.078 7  80605698.290 7        42.500
  24912692.055 2 130917104.412 2        31.900                   102013335.87545
        16.300    24912697.89545
  22580857.711 7 118663233.703 7        43.300                    92464885.56348
        30.500    22580860.30148
  23895142.734 7 125569826.553 7        41.100                    97846624.53647
        25.500    23895145.99647
  24687496.141 5 129733660.735 5        37.100                   101091179.83046
        22.800    24687498.47746
  21067024.781 9 110707979.998 9        52.500    21067031.031 9  86265993.29049
        45.100    21067030.61749  21067026.527 6  82671583.126 6        40.800
 19  2 12  0 22  0.0000000  0 12G01G32G11G18G08G27G14G20G28G16G22G10
  23641666.227 6 124237809.072 6        40.300    23641673.727 7  96808707.07147
        26.800    23641673.97747  23641669.445 3  92774978.196 3        32.700
  23921457.008 7 125708127.894 7        41.000    23921463.758 7  97954392.28747
        29.000    23921462.89847  23921459.336 2  93872888.70112        31.500
  22827167.031 7 119957579.171 7        43.900                    93473462.00148
        30.700    22827170.36748
  21230977.977 9 111569565.467 9        49.800                    86937351.47149
        39.600    21230982.45349
  20506492.398 9 107762360.958 9        55.600    20506499.227 9  83970697.98749
        49.400    20506498.29349  20506495.098 7  80471904.458 7        42.700
  20548122.070 9 107981135.133 9        55.100    20548128.410 9  84141173.13849
        49.600    20548127.73849  20548124.965 7  80635235.316 7        43.100
  24895176.391 3 130825056.456 3        32.500                   101941610.24045
        17.800    24895182.46545
  22597511.953 7 118750751.312 7        43.300                    92533081.10147
        29.700    22597514.73047
  25499801.492 4 134002373.84714        34.300                   104417435.32753
        13.900    25499804.24643
  23916435.844 6 125681726.376 6        40.500                    97933819.20646
        24.700    23916439.87946
  24666909.820 6 129625475.301 6        38.200                   101006879.48946
        24.300    24666911.33646
  21074719.391 9 110748416.112 9        52.400    21074725.652 9  86297501.95049
        45.200    21074725.37949  21074721.035 6  82701778.912 6        40.800
 19  2 12  0 22 30.0000000  0 12G01G32G11G18G08G27G14G20G28G16G22G10
  23624040.773 6 124145188.919 6        40.900    23624048.531 6  96736535.58347
        27.400    23624048.13747  23624044.184 3  92705813.852 3        33.200
  23904838.234 7 125620798.078 7        41.300    23904845.801 7  97886343.09047
        28.400    23904844.82447  23904841.172 3  93807674.862 3        32.500
  22809009.484 7 119862160.905 7        44.100                    93399110.11148
        30.500    22809012.44548
  21217524.500 9 111498866.952 9        48.400                    86882261.73449
        39.200    21217528.92649
  20501544.508 9 107736358.986 9        55.100    20501551.230 9  83950436.71149
        49.600    20501550.28949  20501546.934 7  80452487.390 7        42.800
  20555735.469 9 108021143.712 9        55.600    20555741.730 9  84172348.65249
        49.500    20555741.16049  20555738.305 7  80665111.835 7        42.600
  24877663.594 3 130733024.076 3        32.300                   101869896.66945
        16.900    24877669.71545
  22614220.570 7 118838555.083 7        43.100                    92601499.61147
        29.400    22614222.95347
  25483061.492 5 133914400.57115        36.000                   104348884.81355
        19.300    25483064.05145
  23937749.336 6 125793725.088 6        40.800                    98021090.91946
        23.200    23937752.46546
  24646342.273 6 129517394.001 6        38.600                   100922660.29146
        23.000    24646343.92246
  21082508.961 9 110789350.876 9        52.600    21082515.191 9  86329399.17349
        44.900    21082514.98049  21082511.012 7  82732347.100 7        41.100
 19  2 12  0 23  0.0000000  0 12G01G32G11G18G08G27G14G20G28G16G22G10
  23606442.953 6 124052711.229 6        40.600    23606450.859 7  96664475.10547
        26.600    23606450.91447  23606447.371 3  92636755.860 3        33.200
  23888260.016 7 125533676.186 7        41.500    23888266.355 7  97818455.91547
        27.700    23888266.20347  23888262.875 3  93742616.314 3        32.200
  22790880.961 7 119766893.198 7        44.300                    93324875.54848
        30.600    22790883.97348
  21204127.922 9 111428465.912 9        48.800                    86827403.79049
        39.900    21204132.10249
  20496681.430 9 107710804.035 9        55.500    20496688.352 9  83930523.75049
        49.600    20496687.34049  20496683.984 7  80433404.136 7        42.600
  20563435.484 9 108061607.073 9        55.200    20563441.680 9  84203878.53649
        49.400    20563441.10249  20563438.125 7  80695327.991 7        42.700
  24860154.375 5 130641010.433 5        35.400                   101798197.75545
        19.000    24860160.18045
  22630982.938 7 118926642.637 7        43.200                    92670139.27648
        30.900    22630985.29348
  25466361.492 3 133826647.136 3        33.000                   104280505.44445
        15.600    25466364.50045
  23959080.180 7 125905820.879 7        41.000                    98108438.30047
        25.000    23959083.20747
  24625795.227 6 129409419.287 6        39.500                   100838524.14547
        25.200    24625798.03947
  21090393.469 9 110830783.103 9        52.400    21090399.578 9  86361684.03049
        45.000    21090399.53149  21090395.129 7  82763286.738 7        41.200
 19  2 12  0 23 30.0000000  0 12G01G32G11G18G08G27G14G20G28G16G22G10
  23588871.789 7 123960375.974 7        41.500    23588880.117 7  96592525.58747
        28.500    23588879.84847  23588875.609 3  92567804.256 3        33.100
  23871720.477 7 125446764.467 7        41.100    23871727.395 7  97750732.48847
        27.900    23871727.04747  23871723.824 3  93677714.745 3        32.700
  22772780.938 8 119671777.070 8        45.000                    93250759.09548
        30.400    22772784.15248
  21190787.383 9 111358362.655 9        48.700                    86772777.88549
        39.900    21190791.62549
  20491903.773 9 107685696.420 9        55.100    20491910.684 9  83910959.37649
        49.600    20491909.63749  20491906.285 7  80414654.951 7        42.300
  20571221.820 9 108102524.080 9        54.300    20571227.887 9  84235761.91149
        49.300    20571227.35249  20571224.188 7  80725882.873 7        42.800
  24842650.094 4 130549017.631 4        34.300                   101726515.09245
        17.400    24842654.19545
  22647799.078 7 119015011.361 7        43.500                    92738998.00248
        30.500    22647801.71948
  25449705.578 4 133739114.910 4        34.800                   104212298.51845
        17.400    25449708.14145
  23980428.688 6 126018010.224 6        40.000                    98195858.56346
        24.200    23980432.37546
  24605269.000 6 129301552.299 6        39.200                   100754471.91746
        24.900    24605271.07046
  21098371.758 9 110872710.224 9        52.100    21098378.035 9  86394354.51649
        45.000    21098377.69549  21098373.773 6  82794595.954 6        40.900
 19  2 12  0 24  0.0000000  0 12G01G32G11G18G08G27G14G20G28G16G22G10
  23571328.523 6 123868184.706 6        40.200    23571336.758 7  96520688.29647
        27.200    23571336.68847  23571332.207 3  92498960.249 3        33.300
  23855222.844 7 125360066.839 7        41.400    23855229.766 7  97683175.92147
        29.700    23855228.67247  23855225.730 3  93612973.00113        32.900
  22754710.391 7 119576814.504 7        44.600                    93176762.30448
        30.900    22754712.97348
  21177503.875 9 111288558.907 9        48.600                    86718385.36649
        39.400    21177508.30149
  20487211.352 9 107661038.689 9        55.300    20487218.453 9  83891745.55549
        49.600    20487217.36349  20487214.137 7  80396241.711 7        43.000
  20579094.531 9 108143895.219 9        54.600    20579100.520 9  84267999.15349
        49.300    20579099.88749  20579097.434 7  80756776.897 7        42.800
  24825148.000 4 130457049.411 4        34.800                   101654851.58345
        19.000    24825152.71545
  22664667.984 7 119103659.686 7        42.100                    92808074.60747
        29.800    22664670.64547
  25433091.164 5 133651807.086 5        36.500                   104144266.41645
        15.600    25433093.60945
  24001795.469 6 126130291.467 6        40.000                    98283350.44347
        25.300    24001798.11747
  24584764.289 6 129193795.581 6        39.100                   100670505.66347
        25.700    24584765.35547
  21106444.328 9 110915131.404 9        52.700    21106450.441 9  86427409.98949
        45.100    21106450.03949  21106446.125 6  82826274.093 6        40.200
 19  2 12  0 24 30.0000000  0 12G01G32G11G18G08G27G14G20G28G16G22G10
  23553812.242 6 123776138.140 6        40.100    23553819.902 7  96448963.72847
        26.900    23553819.53947  23553816.676 4  92430224.174 4        34.100
  23838766.023 7 125273586.304 7        41.700    23838773.152 7  97615788.50347
        29.400    23838772.10247  23838769.027 3  93548393.408 3        32.100
  22736669.250 8 119482007.091 8        45.000                    93102886.41048
        31.000    22736671.50048
  21164278.242 9 111219055.713 9        49.100                    86664227.03849
        39.500    21164282.50049
  20482605.148 9 107636831.871 9        55.200    20482611.801 9  83872883.09249
        49.600    20482610.83649  20482607.672 7  80378165.186 7        42.600
  20587053.430 9 108185720.086 9        55.000    20587059.602 9  84300589.95149
        49.400    20587059.11749  20587056.316 7  80788009.743 7        43.300
  24807651.000 4 130365108.279 4        34.100                   101583209.11645
        17.400    24807657.25445
  22681590.000 7 119192584.754 7        42.400                    92877366.86847
        29.700    22681592.69147
  25416520.313 5 133564726.19615        35.900                   104076411.26855
        18.300    25416523.17245
  24023178.813 6 126242660.974 6        39.600                    98370911.09847
        25.200    24023181.89547
  24564279.664 6 129086151.043 6        39.400                   100586626.79647
        25.000    24564281.70747
  21114610.797 9 110958044.833 9        52.400    21114616.660 9  86460849.02749
        44.800    21114616.28549  21114612.395 6  82858319.852 6        40.900
 19  2 12  0 25  0.0000000  0 12G01G32G11G18G08G27G14G20G28G16G22G10
  23536324.117 6 123684236.737 6        40.400    23536331.996 7  96377352.29247
        25.300    23536331.03947  23536327.859 3  92361596.556 3        33.200
  23822350.984 7 125187325.615 7        41.600    23822358.410 7  97548572.40247
        29.100    23822357.59047  23822354.629 2  93483977.981 2        31.900
  22718657.391 8 119387355.856 8        45.200                    93029132.19148
        31.800    22718660.40648
  21151109.492 9 111149853.635 9        49.200                    86610303.34549
        39.400    21151113.77349
  20478084.711 9 107613077.214 9        55.700    20478091.469 9  83854372.97049
        49.500    20478090.39849  20478087.301 7  80360426.307 7        42.800
  20595098.719 9 108227998.000 9        53.000    20595104.785 9  84333533.76749
        49.300    20595104.08649  20595101.395 7  80819580.904 7        42.500
  24790163.102 4 130273196.772 4        34.700                   101511589.82345
        19.300    24790167.50445
  22698563.680 7 119281784.245 7        43.100                    92946872.97147
        28.600    22698566.64847
  25399990.445 2 133477874.007 2        31.600                   104008734.10445
        15.600    25399994.95745
  24044578.367 6 126355116.151 6        40.200                    98458538.47646
        24.200    24044581.46946
  24543816.758 6 128978620.258 6        40.700                   100502836.55247
        26.200    24543819.32047
  21122869.813 9 111001448.425 9        50.300    21122876.059 9  86494670.00749
        44.800    21122875.71549  21122871.703 6  82890731.633 6        40.500
 19  2 12  0 25 30.0000000  0 12G01G32G11G18G08G27G14G20G28G16G22G10
  23518864.242 6 123592481.200 6        39.600    23518872.098 7  96305854.53147
        26.600    23518870.81347  23518867.813 4  92293077.874 4        34.000
  23805978.602 7 125101287.772 7        41.700    23805985.906 7  97481529.93147
        28.800    23805985.07047  23805981.355 3  93419728.940 3        32.400
  22700675.398 8 119292862.307 8        45.600                    92955500.88748
        31.500    22700678.69948
  21137998.508 9 111080953.478 9        49.500                    86556614.92549
        40.200    21138002.37149
  20473650.727 9 107589776.122 9        55.000    20473657.559 9  83836216.27949
        49.600    20473656.23449  20473653.305 7  80343026.141 7        42.600
  20603229.773 9 108270728.508 9        54.300    20603236.129 9  84366830.25449
        49.400    20603235.52349  20603232.629 7  80851490.049 7        42.600
  24772679.398 5 130181318.234 5        36.100                   101439996.21945
        18.300    24772682.52345
  22715589.484 7 119371255.906 7        43.000                    93016591.13747
        29.800    22715592.87947
  25383510.383 3 133391252.795 3        33.800                   103941237.00545
        15.600    25383511.92645
  24065994.063 6 126467654.501 6        39.900                    98546230.68347
        25.500    24065997.14547
  24523377.227 6 128871204.87316        39.300                   100419136.26057
        25.800    24523378.97347
  21131222.391 9 111045340.481 9        50.800    21131228.469 9  86528871.61349
        44.600    21131228.45349  21131223.852 6  82923508.168 6        40.600
 19  2 12  0 26  0.0000000  0 12G01G32G11G18G08G27G14G20G28G16G22G10
  23501431.711 6 123500872.416 6        40.500    23501438.840 7  96234471.09247
        27.900    23501438.59447  23501435.629 3  92224668.756 3        33.600
  23789649.328 7 125015475.991 7        42.100    23789656.188 7  97414663.61847
        28.700    23789655.62147  23789651.855 3  93355648.736 3        32.400
  22682724.805 8 119198528.025 8        45.100                    92881993.67148
        31.700    22682727.47348
  21124944.711 9 111012356.293 9        49.300                    86503162.58049
        40.400    21124948.71549
  20469303.070 9 107566930.023 9        54.500    20469310.020 9  83818414.11949
        49.600    20469308.78949  20469306.070 7  80325965.744 7        43.300
  20611447.227 9 108313911.380 9        54.000    20611453.691 9  84400479.23749
        49.100    20611452.99649  20611450.098 7  80883736.973 7        41.800
  24755203.180 5 130089475.224 5        37.800                   101368430.17545
        19.900    24755205.35945
  22732667.508 7 119460997.433 7        43.100                    93086519.59648
        30.000    22732670.27048
  25367070.945 5 133304864.783 5        36.700                   103873921.74545
        19.000    25367073.73845
  24087424.648 6 126580273.553 6        39.900                    98633985.81346
        23.800    24087427.27746
  24502959.641 6 128763907.179 6        40.500                   100335527.66346
        24.100    24502960.55546
  21139667.258 9 111089719.255 9        50.200    21139673.680 9  86563452.47849
        44.500    21139673.19949  21139668.789 6  82956648.172 6        40.200
 19  2 12  0 26 30.0000000  0 12G01G32G11G18G08G27G14G20G28G16G22G10
  23484026.734 7 123409410.854 7        41.000    23484034.164 7  96163202.37747
        27.200    23484033.71947  23484030.410 3  92156369.622 3        33.900
  23773363.852 7 124929893.060 7        42.200    23773370.195 7  97347975.62747
        29.200    23773369.68847  23773366.539 3  93291739.439 3        32.200
  22664803.813 8 119104354.113 8        45.200                    92808611.41248
        31.400    22664806.42648
  21111948.781 9 110944062.933 9        50.200                    86449946.98149
        40.100    21111953.07849
  20465042.375 9 107544539.784 9        55.300    20465049.336 9  83800967.17649
        49.600    20465048.09049  20465045.078 7  80309245.754 7        43.200
  20619750.867 9 108357545.946 9        52.700    20619757.129 9  84434480.18149
        49.200    20619756.30549  20619753.555 7  80916321.211 7        42.300
  24737731.422 5 129997670.378 5        35.900                   101296893.93845
        19.000    24737735.92245
  22749795.203 7 119551005.996 7        42.800                    93156656.13547
        29.400    22749797.96947
  25350676.742 5 133218712.588 5        37.100                   103806790.13345
        16.900    25350678.55945
  24108870.523 6 126692969.784 6        40.500                    98721801.03846
        22.000    24108872.91446
  24482563.477 6 128656728.548 6        39.600                   100252011.84947
        26.100    24482565.49647
  21148204.227 9 111134582.773 9        49.900    21148210.699 9  86598411.06949
        44.200    21148210.19949  21148206.234 6  82990150.145 6        40.200
 19  2 12  0 27  0.0000000  0 12G01G32G11G18G08G27G14G20G28G16G22G10
  23466649.930 6 123318097.426 6        40.800    23466657.965 7  96092049.08947
        28.600    23466657.78147  23466654.520 4  92088181.057 4        34.100
  23757121.594 7 124844542.187 7        42.000    23757128.746 7  97281468.48847
        29.100    23757127.94947  23757124.965 3  93228003.353 3        32.200
  22646913.953 8 119010342.177 8        45.000                    92735355.36648
        31.900    22646916.90248
  21099010.602 9 110876074.156 9        49.400                    86396968.72749
        39.700    21099015.20749
  20460868.609 9 107522606.977 9        55.600    20460875.504 9  83783876.67749
        49.600    20460874.52749  20460871.527 7  80292867.372 7        43.300
  20628140.008 9 108401631.938 9        54.800    20628146.355 9  84468832.88949
        49.000    20628145.51249  20628143.043 7  80949242.550 7        42.500
  24720267.180 3 129905906.657 3        32.000                   101225389.77645
        18.300    24720274.09845
  22766973.242 7 119641279.605 7        41.800                    93226999.20647
        28.300    22766976.49247
  25334326.773 5 133132798.569 5        35.700                   103739844.20345
        16.900    25334331.05945
  24130329.242 6 126805741.241 6        39.400                    98809674.92846
        23.000    24130332.39146
  24462191.453 6 128549671.004 6        40.000                   100168590.39547
        25.000    24462192.85247
  21156833.961 9 111179929.345 9        51.900    21156839.840 9  86633746.06949
        44.500    21156839.39549  21156835.773 6  83024012.843 6        40.500
 19  2 12  0 27 30.0000000  0 12G01G32G11G18G08G27G14G20G28G16G22G10
  23449302.633 6 123226933.073 6        40.900    23449309.789 7  96021011.96847
        29.100    23449309.72347  23449306.457 4  92020103.867 4        34.000
  23740924.477 7 124759426.539 7        41.300    23740931.801 7  97215144.60847
        28.800    23740930.58247  23740927.598 3  93164442.993 3        32.100
  22629054.695 7 118916493.870 7        44.100                    92662226.83348
        31.600    22629058.57448
  21086131.281 9 110808391.338 9        49.400                    86344228.87949
        40.200    21086135.66449
  20456782.383 9 107501132.874 9        55.600    20456789.164 9  83767143.60649
        49.700    20456788.03949  20456785.250 7  80276831.504 7        42.300
  20636614.914 9 108446169.019 9        52.400    20636621.352 9  84503537.10249
        48.900    20636620.68849  20636618.043 7  80982500.746 7        42.600
  24702817.242 5 129814187.157 5        37.000                   101153920.09745
        19.000    24702819.73045
  22784202.156 7 119731815.883 7        41.800                    93297546.94547
        27.200    22784205.05547
  25318024.164 5 133047124.910 5        35.000                   103673085.39245
        18.300    25318027.69145
  24151803.195 6 126918584.864 6        40.100                    98897604.98746
        22.200    24151806.71946
  24441842.281 6 128442736.557 6        39.200                   100085264.82746
        24.800    24441843.95746
  21165554.406 9 111225757.308 9        50.100    21165560.852 9  86669456.16249
        44.200    21165560.19149  21165556.449 6  83058235.033 6        40.500
 19  2 12  0 28  0.0000000  0 12G01G32G11G18G08G27G14G20G28G16G22G10
  23431983.211 7 123135918.601 7        41.200    23431990.590 7  95950091.64347
        29.800    23431990.69947  23431986.305 3  91952138.552 3        33.500
  23724773.414 7 124674549.228 7        42.500    23724780.285 7  97149006.45947
        29.400    23724778.91447  23724775.828 3  93101060.619 3        32.400
  22611228.047 7 118822810.768 7        44.900                    92589227.02048
        31.500    22611230.76248
  21073310.266 9 110741015.392 9        49.200                    86291728.15649
        39.800    21073314.49649
  20452783.422 9 107480118.997 9        55.700    20452790.242 9  83750769.15349
        49.800    20452789.36349  20452786.305 7  80261139.319 7        42.600
  20645176.102 9 108491156.849 9        52.400    20645182.445 9  84538592.54049
        48.800    20645181.65249  20645179.105 7  81016095.562 7        42.500
  24685371.328 5 129722514.820 5        37.100                   101082487.04345
        19.000    24685375.28945
  22801479.969 7 119822612.484 7        41.700                    93368297.53647
        28.800    22801483.07447
  25301765.297 3 132961693.911 3        33.700                   103606515.73144
        14.800    25301769.39144
  24173289.555 6 127031497.948 6        40.200                    98985589.22646
        22.600    24173292.88746
  24421518.008 6 128335927.046 6        39.600                   100002036.67046
        24.200    24421518.69146
  21174366.711 9 111272064.928 9        50.200    21174372.629 9  86705540.02749
        44.100    21174372.37149  21174368.590 6  83092815.392 6        40.200
 19  2 12  0 28 30.0000000  0 12G01G32G11G18G08G27G14G20G28G16G22G10
  23414691.867 7 123045054.330 7        41.300    23414699.766 7  95879288.37347
        28.600    23414699.23447  23414695.188 4  91884285.366 4        34.100
  23708667.453 7 124589912.892 7        42.700    23708674.445 7  97083056.07847
        29.300    23708673.16047  23708670.316 3  93037858.182 3        32.200
  22593432.063 8 118729293.852 8        45.300                    92516356.71448
        32.100    22593434.78948
  21060547.266 9 110673946.815 9        50.200                    86239466.94449
        40.500    21060551.73849
  20448872.391 9 107459565.948 9        55.400    20448879.512 9  83734753.79249
        49.800    20448878.34449  20448875.074 7  80245791.265 7        42.600
  20653822.438 9 108536594.479 9        52.400    20653828.816 9  84573998.48149
        48.800    20653828.28149  20653825.555 7  81050026.269 7        42.300
  24667935.727 5 129630891.890 5        35.400                   101011092.58045
        17.800    24667939.78145
  22818807.117 7 119913666.693 7        41.400                    93439248.87047
        28.200    22818809.91847
  25285556.500 5 132876507.955 5        36.100                   103540137.08645
        17.800    25285559.64545
  24194789.156 6 127144477.476 6        40.600                    99073625.20147
        25.100    24194792.61747
  24401215.969 6 128229243.986 6        39.700                    99918907.01346
        24.400    24401217.77046
  21183269.242 9 111318849.856 9        50.000    21183275.480 9  86741995.82349
        44.300    21183275.30949  21183271.051 6  83127752.189 6        40.100
 19  2 12  0 29  0.0000000  0 12G01G32G11G18G08G27G14G20G28G16G22G10
  23397429.484 7 122954340.861 7        41.400    23397437.133 7  95808602.60147
        28.600    23397437.60247  23397433.324 3  91816544.847 3        33.700
  23692607.914 7 124505520.453 7        42.600    23692614.836 7  97017295.74648
        30.000    23692614.52348  23692611.313 3  92974837.887 3        32.600
  22575668.438 7 118635944.562 7        44.500                    92443617.02248
        32.800    22575671.08248
  21047843.578 9 110607186.449 9        49.700                    86187445.87649
        40.300    21047847.46149
  20445049.211 9 107439475.033 9        55.600    20445055.961 9  83719098.53049
        49.700    20445055.07849  20445051.691 7  80230788.313 7        42.800
  20662554.633 9 108582481.374 9        52.600    20662561.000 9  84609754.49749
        48.700    20662560.12149  20662557.418 7  81084292.428 7        42.700
  24650511.609 5 129539321.148 5        37.100                   100939738.75745
        18.600    24650514.94945
  22836182.570 7 120004976.849 7        41.000                    93510399.62247
        27.900    22836185.84847
  25269393.703 5 132791569.171 5        36.900                   103473950.99245
        17.400    25269396.01645
  24216300.969 6 127257520.967 6        39.900                    99161711.03946
        22.500    24216303.78146
  24380939.344 6 128122689.037 6        39.400                    99835877.18647
        25.600    24380940.99647
  21192262.891 9 111366110.246 9        50.300    21192268.910 9  86778822.10149
        44.300    21192268.84849  21192264.551 6  83163044.048 6        40.500
 19  2 12  0 29 30.0000000  0 12G01G32G11G18G08G27G14G20G28G16G22G10
  23380196.492 7 122863779.383 7        41.800    23380204.148 7  95738035.25847
        28.400    23380204.02747  23380199.930 4  91748917.780 4        34.100
  23676595.281 7 124421375.376 7        43.400    23676602.340 7  96951728.17047
        29.900    23676601.50847  23676598.207 3  92912002.26713        33.000
  22557936.617 8 118542764.820 8        45.500                    92371009.45648
        32.300    22557939.71948
  21035198.156 9 110540735.492 9        49.900                    86135665.92349
        39.900    21035202.27349
  20441314.242 9 107419847.648 9        56.100    20441321.152 9  83703804.45549
        49.700    20441320.08649  20441316.945 7  80216131.493 7        42.800
  20671371.977 9 108628817.473 9        54.800    20671378.449 9  84645860.54249
        48.900    20671377.66849  20671374.996 7  81118894.049 7        42.600
  24633095.133 5 129447805.845 5        35.000                   100868428.17145
        17.400    24633100.43045
  22853607.023 7 120096540.096 7        41.900                    93581747.61747
        29.300    22853609.76647
  25253276.836 5 132706879.739 5        35.900                   103407959.22845
        16.900    25253279.89545
  24237823.438 6 127370625.727 6        39.800                    99249844.62146
        23.000    24237826.96546
  24360686.977 6 128016264.480 6        39.600                    99752948.96647
        26.000    24360689.27747
  21201346.375 9 111413844.664 9        52.000    21201352.477 9  86816017.74949
        44.600    21201352.39549  21201348.012 6  83198689.863 6        40.000
 19  2 12  0 30  0.0000000  0 12G01G32G11G18G08G27G14G20G28G16G22G10
  23362992.195 7 122773370.424 7        41.300    23362999.738 7  95667586.76947
        29.300    23362999.60947  23362995.328 3  91681404.726 3        33.200
  23660631.016 7 124337480.470 7        43.800    23660637.949 7  96886355.52747
        29.500    23660637.09847  23660633.590 3  92849353.507 3        32.700
  22540238.164 7 118449755.968 7        44.700                    92298535.03948
        32.100    22540240.66048
  21022611.828 9 110474594.865 9        50.200                    86084127.78149
        40.500    21022616.11749
  20437667.828 9 107400684.881 9        55.500    20437674.602 9  83688872.42349
        49.700    20437673.55949  20437670.383 7  80201821.629 7        42.500
  20680274.813 9 108675602.034 9        54.100    20680281.184 9  84682316.03549
        48.700    20680280.45349  20680277.629 7  81153830.564 7        42.900
  24615693.727 5 129356349.066 5        37.200                   100797163.17345
        19.300    24615696.30145
  22871078.758 7 120188354.085 7        42.400                    93653290.98947
        28.200    22871081.35247
  25237210.188 5 132622442.384 5        36.700                   103342163.85845
        16.300    25237211.62145
  24259358.000 6 127483789.191 6        39.100                    99338023.91946
        22.300    24259361.26246
  24340460.727 6 127909971.751 6        39.600                    99670123.46747
        26.400    24340462.18447
  21210519.625 9 111462050.978 9        50.200    21210525.887 9  86853581.10849
        43.900    21210525.47349  21210521.340 6  83234688.087 6        40.400
 19  2 12  0 30 30.0000000  0 12G01G32G11G18G08G27G14G20G28G16G22G10
  23345815.781 7 122683114.973 7        41.100    23345825.004 7  95597257.89447
        27.500    23345824.40247  23345820.055 3  91614006.214 3        33.400
  23644714.344 7 124253838.928 7        43.200    23644721.590 7  96821180.31247
        28.900    23644721.02347  23644717.223 3  92786893.930 3        32.600
  22522571.875 7 118356919.586 7        44.900                    92226195.01448
        33.100    22522574.52348
  21010084.805 9 110408765.705 9        50.200                    86032832.34049
        40.100    21010089.29749
  20434109.969 9 107381988.575 9        55.300    20434116.785 9  83674303.87249
        49.800    20434115.64849  20434112.551 7  80187860.124 7        42.600
  20689262.977 9 108722834.705 9        52.600    20689269.313 9  84719120.70449
        48.800    20689268.68049  20689265.953 7  81189101.712 7        42.400
  24598299.984 5 129264953.122 5        35.800                   100725945.52145
        19.600    24598303.73445
  22888597.563 6 120280416.787 6        40.900                    93725028.15747
        27.300    22888600.51247
  25221189.953 5 132538259.248 5        36.800                   103276566.58445
        18.300    25221192.80945
  24280901.641 6 127597008.024 6        38.400                    99426246.37246
        21.500    24280905.58646
  24320259.078 6 127803813.072 6        40.200                    99587402.44747
        25.700    24320260.71147
  21219782.539 9 111510727.484 9        49.800    21219788.664 9  86891510.86049
        43.900    21219788.35249  21219784.391 6  83271037.462 6        39.900
 19  2 12  0 31  0.0000000  0 12G01G32G11G18G08G27G14G20G28G16G22G10
  23328671.234 6 122593013.469 6        40.800    23328678.496 7  95527049.00047
        27.600    23328678.57047  23328674.707 3  91546722.691 3        33.900
  23628846.977 7 124170453.597 7        43.900    23628853.836 7  96756204.72547
        29.800    23628852.87947  23628849.836 3  92724625.66513        32.900
  22504938.750 7 118264256.876 7        44.800                    92153990.31148
        32.600    22504941.18048
  20997617.555 9 110343248.560 9        50.200                    85981780.03949
        40.700    20997621.84849
  20430641.063 9 107363759.248 9        55.400    20430647.902 9  83660099.19749
        49.900    20430646.79749  20430643.828 7  80174247.286 7        43.000
  20698336.141 9 108770514.716 9        54.800    20698342.414 9  84756273.95349
        48.800    20698341.86349  20698339.047 7  81224706.932 7        42.200
  24580920.297 5 129173621.160 5        36.900                   100654777.76345
        19.000    24580924.61745
  22906163.055 6 120372725.622 6        40.700                    93796957.10547
        28.900    22906166.24647
  25205218.883 5 132454332.853 5        35.800                   103211169.38845
        16.900    25205222.53545
  24302457.539 6 127710280.576 6        38.900                    99514510.71446
        21.100    24302460.51646
  24300082.922 6 127697789.992 6        39.600                    99504787.07147
        25.800    24300084.96547
  21229134.266 9 111559872.102 9        51.300    21229140.738 9  86929805.37449
        43.800    21229140.00849  21229136.391 6  83307736.341 6        40.100
 19  2 12  0 31 30.0000000  0 12G01G32G11G18G08G27G14G20G28G16G22G10
  23311554.711 6 122503066.844 6        40.600    23311562.219 7  95456960.74747
        28.600    23311561.93047  23311558.113 4  91479554.776 4        34.000
  23613028.609 7 124087327.594 7        43.400    23613035.023 7  96691431.24947
        28.600    23613034.52347  23613031.125 3  92662551.071 3        32.800
  22487339.016 7 118171769.573 7        44.600                    92081922.30548
        33.100    22487342.05548
  20985209.602 9 110278044.300 9        49.500                    85930971.53049
        40.900    20985213.68449
  20427261.148 9 107345998.552 9        55.900    20427268.145 9  83646259.68449
        50.000    20427267.02049  20427264.176 7  80160984.418 7        42.900
  20707494.281 9 108818641.706 9        54.600    20707500.676 9  84793775.49649
        48.800    20707500.02749  20707497.574 7  81260645.887 7        42.600
  24563553.133 5 129082356.085 5        35.500                   100583662.13246
        20.400    24563556.93046
  22923775.523 7 120465278.255 7        42.100                    93869076.03947
        28.500    22923778.18847
  25189297.977 5 132370665.301 5        36.800                   103145973.85145
        18.600    25189301.19945
  24324021.625 6 127823603.578 6        38.300                    99602814.35546
        21.800    24324025.45746
  24279933.672 6 127591904.517 6        40.200                    99422278.90747
        27.200    24279935.94947
  21238574.805 9 111609483.064 9        52.600    21238581.328 9  86968463.26349
        43.800    21238580.93049  21238576.762 6  83344783.491 6        40.400
 19  2 12  0 32  0.0000000  0 12G01G32G11G18G08G27G14G20G28G16G22G10
  23294467.797 7 122413276.094 7        41.700    23294475.676 7  95386993.95847
        28.500    23294475.53947  23294471.414 3  91412503.307 3        33.700
  23597260.344 7 124004464.248 7        44.300    23597267.344 7  96626862.40447
        29.400    23597266.19947  23597262.652 3  92600672.605 3        32.500
  22469772.336 7 118079459.302 7        44.500                    92009992.23848
        33.300    22469775.61348
  20972861.563 9 110213154.371 9        49.600                    85880407.95849
        40.000    20972865.51249
  20423971.125 9 107328708.040 9        56.000    20423977.746 9  83632786.56049
        49.900    20423976.81349  20423973.762 7  80148072.679 7        43.000
  20716737.625 9 108867215.372 9        54.900    20716744.082 9  84831625.09849
        48.800    20716743.23449  20716740.648 7  81296918.394 7        42.900
  24546199.656 5 128991160.743 5        36.300                   100512600.85345
        19.900    24546203.30145
  22941433.195 7 120558072.584 7        41.900                    93941383.31947
        29.100    22941436.53147
  25173427.359 6 132287259.260 6        39.200                   103080982.11445
        17.400    25173429.21145
  24345595.617 6 127936974.675 6        38.400                    99691155.45646
        20.600    24345599.20746
  24259812.047 7 127486158.828 7        41.200                    99339879.70647
        26.700    24259812.98047
  21248104.000 9 111659558.694 9        51.300    21248110.336 9  87007483.23349
        43.600    21248109.90249  21248105.840 6  83382177.638 6        40.300
 19  2 12  0 32 30.0000000  0 12G01G32G11G18G08G27G14G20G28G16G22G10
  23277410.539 7 122323641.227 7        41.100    23277418.703 7  95317148.64547
        28.100    23277418.41847  23277413.902 4  91345568.224 4        34.300
  23581541.711 7 123921865.811 7        43.500    23581549.074 7  96562499.99047
        28.400    23581548.00447  23581545.078 3  92538991.924 3        33.300
  22452240.164 7 117987326.976 7        44.700                    91938200.82448
        32.500    22452243.52048
  20960573.086 9 110148578.940 9        49.700                    85830089.44549
        40.800    20960577.14149
  20420770.422 9 107311887.816 9        56.100    20420777.027 9  83619679.88949
        50.000    20420775.96149  20420772.945 7  80135512.129 7        42.700
  20726065.906 9 108916234.418 9        52.500    20726072.016 9  84869821.74349
        48.500    20726071.24249  20726068.461 7  81333523.538 7        41.600
  24528858.844 4 128900037.684 4        34.000                   100441595.87645
        18.300    24528863.12145
  22959137.063 7 120651105.998 7        41.600                    94013876.87047
        27.900    22959140.27747
  25157605.219 6 132204116.253 6        38.800                   103016195.34045
        17.800    25157607.48845
  24367177.984 6 128050390.505 6        38.600                    99779531.43946
        22.600    24367181.57846
  24239714.555 6 127380553.656 6        40.300                    99257589.96247
        27.900    24239717.30947
  21257721.055 9 111710096.396 9        49.500    21257727.242 9  87046863.26449
        43.700    21257727.09049  21257723.043 6  83419916.845 6        39.700
 19  2 12  0 33  0.0000000  0 12G01G32G11G18G08G27G14G20G28G16G22G10
  23260383.930 7 122234163.433 7        41.300    23260391.277 7  95247425.74847
        27.600    23260390.95347  23260387.102 3  91278750.472 3        33.600
  23565874.984 7 123839535.703 7        44.700    23565882.367 7  96498346.68647
        29.600    23565881.19147  23565877.984 3  92477511.679 3        33.100
  22434742.031 8 117895374.616 8        45.000                    91866549.65848
        33.400    22434745.46948
  20948345.063 9 110084319.126 9        49.500                    85780016.86749
        40.600    20948349.10549
  20417659.109 9 107295539.775 9        55.800    20417666.262 9  83606941.15449
        49.900    20417665.08249  20417662.156 7  80123304.173 7        42.800
  20735478.539 9 108965698.639 9        52.400    20735484.750 9  84908365.28449
        48.500    20735484.03949  20735481.148 7  81370461.092 7        42.200
  24511533.031 5 128808990.295 5        36.200                   100370649.87745
        18.600    24511537.32045
  22976885.711 7 120744376.434 7        41.700                    94086555.11847
        27.000    22976888.88747
  25141834.539 6 132121239.395 6        38.700                   102951615.99645
        17.800    25141836.87145
  24388768.508 6 128163848.718 6        38.900                    99867940.40946
        22.000    24388772.23446
  24219646.250 7 127275091.469 7        41.700                    99175411.66247
        27.000    24219648.41447
  21267425.984 9 111761094.580 9        49.700    21267431.992 9  87086602.11549
        43.600    21267431.68449  21267427.535 6  83457999.890 6        40.300
 19  2 12  0 33 30.0000000  0 12G01G32G11G18G08G27G14G20G28G16G22G10
  23243386.680 6 122144843.449 6        40.900    23243394.289 7  95177825.78847
        28.200    23243394.19947  23243390.418 5  91212050.494 5        35.000
  23550259.844 7 123757476.962 7        44.300    23550266.680 7  96434404.81047
        29.800    23550266.04347  23550262.773 3  92416234.088 3        33.300
  22417278.930 8 117803603.828 8        45.000                    91795039.95748
        32.300    22417281.98848
  20936177.039 9 110020376.143 9        50.200                    85730191.17149
        40.100    20936181.14549
  20414638.359 9 107279664.812 9        55.800    20414645.285 9  83594571.05849
        49.900    20414644.15249  20414640.988 7  80111449.464 7        43.000
  20744975.703 9 109015607.445 9        55.200    20744982.133 9  84947255.25449
        48.500    20744981.53949  20744978.828 7  81407730.642 7        42.600
  24494223.219 5 128718021.182 5        37.100                   100299764.88046
        20.100    24494226.44946
  22994679.594 7 120837881.489 7        41.600                    94159416.18847
        27.800    22994682.15647
  25126114.859 5 132038630.294 5        37.700                   102887245.23445
        17.800    25126116.26645
  24410366.531 5 128277346.817 5        37.900                    99956380.48746
        22.500    24410369.66846
  24199605.305 7 127169773.909 7        42.200                    99093346.06547
        27.500    24199607.28547
  21277217.719 9 111812551.314 9        51.300    21277223.922 9  87126698.27049
        43.500    21277223.44149  21277219.609 6  83496425.380 6        40.500
 19  2 12  0 34  0.0000000  0 12G01G32G11G18G08G27G14G20G28G16G22G10
  23226419.734 7 122055681.861 7        41.000    23226427.602 7  95108349.25647
        29.600    23226427.37147  23226423.691 4  91145468.836 4        34.600
  23534696.648 7 123675692.495 7        43.800    23534704.023 7  96370676.65547
        29.200    23534702.66047  23534699.973 3  92355161.277 3        33.100
  22399850.313 7 117712015.750 7        44.300                    91723672.63448
        32.600    22399853.36748
  20924069.539 9 109956750.621 9        48.500                    85680612.84749
        40.300    20924073.69949
  20411707.711 9 107264263.802 9        55.800    20411714.457 9  83582570.26449
        49.900    20411713.49249  20411710.438 7  80099948.732 7        42.200
  20754557.578 9 109065960.133 9        54.100    20754563.949 9  84986491.10849
        48.300    20754563.32449  20754560.688 7  81445331.683 7        42.400
  24476927.766 5 128627133.224 5        36.800                   100228943.08146
        20.400    24476930.96146
  23012517.031 7 120931618.739 7        41.800                    94232458.20047
        27.900    23012519.87947
  25110445.953 6 131956291.505 6        38.000                   102823085.13445
        16.300    25110447.14145
  24431972.305 6 128390881.903 6        38.500                   100044849.38146
        22.200    24431975.25046
  24179591.750 7 127064602.822 7        42.600                    99011394.60647
        27.400    24179593.93447
  21287096.477 9 111864464.589 9        51.100    21287102.707 9  87167150.17849
        43.300    21287102.17249  21287098.613 6  83535191.796 6        39.900
 19  2 12  0 34 30.0000000  0 12G01G32G11G18G08G27G14G20G28G16G22G10
  23209483.734 6 121966679.625 6        40.000    23209490.750 7  95038996.91747
        28.700    23209490.43847  23209487.305 4  91079006.152 4        34.600
  23519185.969 7 123594185.384 7        43.400    23519193.566 7  96307164.63047
        29.900    23519192.46947  23519189.926 3  92294295.584 3        33.100
  22382457.414 8 117620612.343 8        45.000                    91652449.21348
        33.700    22382460.10948
  20912022.734 9 109893443.701 9        48.900                    85631282.79149
        41.500    20912026.69549
  20408867.461 9 107249338.518 9        55.300    20408874.293 9  83570940.16549
        50.000    20408873.37149  20408870.246 7  80088803.220 7        43.100
  20764224.047 9 109116756.211 9        55.000    20764230.066 9  85026072.46549
        48.500    20764229.62949  20764227.160 7  81483263.805 7        42.200
  24459646.789 5 128536329.334 5        35.000                   100158186.81145
        19.600    24459651.97345
  23030398.602 7 121025585.884 7        42.200                    94305679.33747
        28.900    23030401.49247
  25094828.586 5 131874225.609 5        36.900                   102759137.63945
        17.800    25094831.24645
  24453583.227 5 128504451.111 5        37.200                   100133344.85346
        20.600    24453586.77046
  24159606.539 7 126959580.176 7        41.600                    98929558.78847
        26.500    24159608.24647
  21297061.539 9 111916832.595 9        50.100    21297067.926 9  87207956.41349
        43.500    21297067.35949  21297063.496 6  83574297.744 6        39.300
 19  2 12  0 35  0.0000000  0 12G01G32G11G18G08G27G14G20G28G16G22G10
  23192577.219 6 121877837.211 6        40.400    23192584.727 7  94969769.07347
        28.400    23192584.50047  23192580.938 4  91012662.875 4        34.900
  23503729.570 7 123512958.384 7        43.900    23503736.406 7  96243870.88948
        30.200    23503736.03148  23503732.188 3  92233639.063 3        32.100
  22365098.891 8 117529394.573 8        45.500                    91581370.43348
        33.400    22365101.20748
  20900036.320 9 109830455.898 9        49.600                    85582201.39549
        40.800    20900040.64549
  20406118.039 9 107234889.125 9        56.200    20406124.918 9  83559680.90049
        50.000    20406123.93449  20406120.508 7  80078013.082 7        42.800
  20773974.328 9 109167994.779 9        54.100    20773980.508 9  85065998.61749
        48.600    20773979.91849  20773977.230 7  81521526.348 7        42.300
  24442384.188 5 128445612.593 5        35.700                   100087498.47245
        19.600    24442388.68045
  23048322.414 7 121119780.591 7        42.700                    94379077.80247
        27.300    23048325.88347
  25079265.281 6 131792434.518 6        38.900                   102695404.30245
        19.300    25079267.50045
  24475201.164 6 128618051.883 6        38.600                   100221864.94946
        21.100    24475203.87546
  24139650.586 7 126854707.423 7        42.100                    98847839.78047
        26.600    24139651.35547
  21307113.031 9 111969653.006 9        51.300    21307119.531 9  87249115.17649
        43.500    21307118.99649  21307114.711 6  83613741.566 6        39.800
 19  2 12  0 35 30.0000000  0 12G01G32G11G18G08G27G14G20G28G16G22G10
  23175701.625 7 121789155.693 7        41.100    23175709.598 7  94900666.63047
        28.300    23175709.18847  23175706.105 4  90946439.701 4        34.800
  23488326.344 7 123432014.884 7        44.400    23488333.453 7  96180798.03148
        30.900    23488332.59048  23488329.023 3  92173194.265 3        32.900
  22347776.531 8 117438364.565 8        45.600                    91510437.97148
        33.500    22347779.46948
  20888111.063 9 109767788.475 9        49.300                    85533369.64949
        40.900    20888115.38749
  20403459.336 9 107220917.865 9        55.400    20403466.141 9  83548794.19149
        50.200    20403465.23849  20403462.008 7  80067579.999 7        43.100
  20783808.516 9 109219675.589 9        54.400    20783814.992 9  85106269.36849
        48.300    20783814.46949  20783811.621 7  81560119.175 7        42.200
  24425139.133 5 128354985.417 5        36.700                   100016879.88246
        20.600    24425142.79346
  23066290.438 7 121214200.867 7        41.900                    94452652.06647
        26.500    23066293.33247
  25063753.750 5 131710920.742 5        37.900                   102631887.13645
        17.400    25063756.11345
  24496824.953 6 128731681.651 6        39.000                   100310407.63345
        19.900    24496826.68845
  24119722.555 7 126749986.757 7        41.100                    98766239.26247
        26.500    24119723.46547
  21317250.266 9 112022924.303 9        50.900    21317256.598 9  87290625.27449
        43.300    21317256.06649  21317251.910 6  83653522.085 6        40.400
 19  2 12  0 36  0.0000000  0 12G01G32G11G18G08G27G14G20G28G16G22G10
  23158857.195 7 121700635.590 7        41.100    23158864.660 7  94831689.93547
        29.300    23158864.32047  23158860.465 4  90880337.063 4        34.800
  23472977.461 7 123351357.592 7        43.700    23472984.844 7  96117948.19848
        30.800    23472984.37148  23472980.773 3  92112963.152 3        32.400
  22330490.063 8 117347523.729 8        46.000                    91439652.90048
        33.400    22330493.05948
  20876246.984 9 109705442.146 9        49.100                    85484788.10049
        40.900    20876251.46549
  20400891.742 9 107207425.128 9        55.800    20400898.473 9  83538280.36649
        50.100    20400897.39849  20400894.395 7  80057504.243 7        42.900
  20793727.148 9 109271797.654 9        54.300    20793733.566 9  85146883.95449
        48.200    20793732.78149  20793729.941 7  81599041.472 7        42.600
  24407910.938 5 128264450.981 5        37.400                    99946333.58645
        19.300    24407914.60545
  23084301.211 7 121308844.234 7        42.300                    94526400.12247
        25.800    23084303.32847
  25048294.711 6 131629686.463 6        38.400                   102568587.66245
        18.300    25048297.19545
  24518452.438 6 128845337.491 6        38.300                   100398970.62346
        20.600    24518455.03946
  24099823.523 6 126645419.595 6        40.800                    98684758.37247
        26.900    24099825.29747
  21327472.609 9 112076644.185 9        51.200    21327479.004 9  87332484.92849
        43.300    21327478.80949  21327474.520 6  83693637.607 6        40.100
 19  2 12  0 36 30.0000000  0 12G01G32G11G18G08G27G14G20G28G16G22G10
  23142042.359 6 121612277.398 6        40.900    23142050.328 7  94762839.44048
        30.400    23142050.75048  23142046.512 4  90814355.328 4        34.800
  23457683.883 7 123270989.228 7        43.700    23457691.281 7  96055323.51147
        29.400    23457690.55947  23457687.371 3  92052947.856 3        32.900
  22313239.859 8 117256873.403 8        46.800                    91369016.27748
        33.700    22313242.28948
  20864444.063 9 109643417.479 9        49.400                    85436457.20449
        40.900    20864448.58249
  20398415.211 9 107194411.835 9        56.300    20398422.063 9  83528140.13649
        50.000    20398421.13749  20398418.246 7  80047786.524 7        42.800
  20803729.633 9 109324360.092 9        53.900    20803736.031 9  85187841.69349
        48.300    20803735.04749  20803732.344 7  81638292.634 7        42.200
  24390700.734 5 128174011.908 5        36.800                    99875861.61345
        19.900    24390705.27345
  23102352.781 7 121403708.020 7        42.000                    94600319.95347
        25.700    23102355.43847
  25032889.617 6 131548733.716 6        38.400                   102505507.57845
        18.300    25032892.76645
  24540085.055 6 128959017.65216        38.800                   100487552.52356
        20.400    24540088.46146
  24079954.898 6 126541007.588 6        40.900                    98603398.38947
        27.600    24079956.72347
  21337780.266 9 112130810.414 9        50.300    21337786.383 9  87374692.38949
        43.200    21337786.35249  21337781.977 6  83734086.417 6        39.900
 19  2 12  0 37  0.0000000  0 12G01G32G11G18G08G27G14G20G28G16G22G10
  23125259.695 7 121524082.378 7        41.000    23125267.539 7  94694116.10147
        29.400    23125267.36747  23125263.699 4  90748495.474 4        34.400
  23442446.383 7 123190913.308 7        43.400    23442453.465 7  95992926.70848
        30.800    23442452.28948  23442449.477 3  91993150.934 3        33.500
  22296026.063 8 117166415.393 8        45.500                    91298529.52848
        33.700    22296029.22348
  20852702.711 9 109581716.073 9        49.900                    85388378.19749
        41.300    20852707.08249
  20396030.539 9 107181879.331 9        54.700    20396037.445 9  83518374.54449
        50.000    20396036.36749  20396033.230 7  80038427.825 7        43.300
  20813815.633 9 109377362.727 9        54.100    20813822.074 9  85229142.44049
        48.300    20813821.22749  20813818.371 7  81677872.522 7        42.000
  24373510.102 5 128083671.405 5        37.500                    99805466.42246
        21.700    24373514.10946
  23120446.055 7 121498790.504 7        42.000                    94674410.19947
        26.400    23120448.94547
  25017538.961 5 131468065.191 5        37.400                   102442648.98445
        18.300    25017541.57045
  24561721.078 6 129072718.736 6        38.700                   100576150.76346
        21.100    24561724.46146
  24060116.398 7 126436752.782 7        41.000                    98522160.89747
        27.900    24060117.89547
  21348172.297 9 112185421.536 9        50.800    21348178.699 9  87417246.50549
        43.200    21348178.43049  21348174.340 6  83774867.423 6        39.900
 19  2 12  0 37 30.0000000  0 12G01G32G11G18G08G27G14G20G28G16G22G10
  23108508.359 6 121436051.076 6        40.800    23108515.777 7  94625520.31748
        30.100    23108515.41848  23108511.098 4  90682757.854 4        34.600
  23427264.445 7 123111132.550 7        43.900    23427271.383 7  95930759.89548
        30.200    23427270.55148  23427267.418 3  91933574.389 3        33.600
  22278849.125 8 117076150.953 8        46.500                    91228193.61748
        33.800    22278852.45748
  20841023.008 9 109520338.383 9        48.900                    85340551.42949
        41.100    20841027.15249
  20393737.414 9 107169829.112 9        56.200    20393744.215 9  83508984.75849
        50.100    20393743.38749  20393740.285 7  80029429.289 7        42.900
  20823985.227 9 109430804.655 9        54.700    20823991.586 9  85270785.49449
        48.200    20823991.06349  20823988.449 7  81717780.449 7        42.200
  24356337.852 5 127993432.315 5        37.600                    99735150.22945
        19.600    24356341.34045
  23138580.852 7 121594089.027 7        41.700                    94748668.78147
        26.900    23138583.76247
  25002243.008 5 131387683.231 5        37.100                   102380013.68545
        17.800    25002246.72345
  24583362.195 6 129186438.13816        39.400                   100664763.28056
        21.500    24583364.42246
  24040306.391 6 126332657.178 6        40.700                    98441047.46647
        29.400    24040308.93447
  21358648.828 9 112240475.282 9        50.700    21358654.996 9  87460145.53649
        42.800    21358654.62549  21358650.777 6  83815979.001 6        39.300
 19  2 12  0 38  0.0000000  0 12G01G32G11G18G08G27G14G20G28G16G22G10
  23091787.750 7 121348184.136 7        41.300    23091795.285 7  94557052.59548
        30.200    23091794.79748  23091790.738 3  90617142.907 3        33.900
  23412139.180 7 123031649.885 7        43.900    23412146.488 7  95868825.35948
        30.200    23412145.75048  23412142.422 3  91874220.47013        33.100
  22261709.523 8 116986081.787 8        45.800                    91158009.85549
        34.200    22261712.88749
  20829404.641 9 109459285.386 9        49.400                    85292977.67149
        41.600    20829409.12549
  20391536.125 9 107158261.546 9        55.900    20391542.996 9  83499971.06749
        50.100    20391542.09449  20391539.039 7  80020791.163 7        43.000
  20834238.359 9 109484685.048 9        53.000    20834244.875 9  85312770.20049
        48.200    20834244.05949  20834241.316 7  81758015.806 7        41.900
  24339186.070 6 127903297.370 6        38.000                    99664915.24546
        20.600    24339188.73846
  23156756.469 7 121689601.583 7        43.200                    94823094.15347
        27.900    23156759.34847
  24987001.773 6 131307589.706 6        38.800                   102317603.10145
        18.600    24987004.85245
  24605004.852 6 129300173.370 6        38.000                   100753388.16046
        21.700    24605008.37146
  24020528.781 6 126228722.221 6        40.300                    98360059.20247
        28.200    24020530.60947
  21369209.070 9 112295969.578 9        49.600    21369215.117 9  87503387.84049
        43.600    21369214.83249  21369211.039 6  83857419.546 6        40.400
 19  2 12  0 38 30.0000000  0 12G01G32G11G18G08G27G14G20G28G16G22G10
  23075098.563 7 121260482.376 7        41.600    23075106.102 7  94488713.59348
        30.500    23075105.84448  23075101.824 4  90551651.381 4        34.500
  23397071.750 7 122952468.333 7        44.100    23397078.477 7  95807125.45648
        30.600    23397077.84848  23397074.703 3  91815091.371 3        33.200
  22244607.828 8 116896209.697 8        46.000                    91087979.67049
        34.100    22244610.55149
  20817848.898 9 109398558.044 9        49.500                    85245657.67349
        41.000    20817853.09849
  20389427.094 9 107147178.093 9        55.600    20389434.074 9  83491334.60549
        50.000    20389432.83649  20389429.969 7  80012514.563 7        43.000
  20844574.875 9 109539003.284 9        53.700    20844581.145 9  85355096.08749
        47.900    20844580.50049  20844577.766 7  81798578.097 7        42.300
  24322053.945 5 127813269.640 5        37.600                    99594763.76946
        20.100    24322057.77046
  23174972.109 7 121785325.820 7        42.500                    94897684.45847
        27.300    23174975.18047
  24971815.500 5 131227787.147 5        37.600                   102255419.29245
        19.300    24971819.17245
  24626650.430 6 129413921.332 6        38.300                   100842022.87346
        20.400    24626653.38346
  24000781.945 6 126124949.803 6        40.700                    98279197.60847
        27.500    24000783.38347
  21379852.586 9 112351902.443 9        49.900    21379858.813 9  87546971.89049
        42.900    21379858.56349  21379854.500 6  83899187.588 6        39.400
 19  2 12  0 39  0.0000000  0 12G01G32G11G18G08G27G14G20G28G16G22G10
  23058440.602 7 121172946.334 7        42.400    23058448.602 7  94420503.71947
        29.400    23058447.70747  23058444.027 4  90486283.630 4        34.900
  23382061.672 7 122873590.608 7        44.500    23382068.828 7  95745662.30048
        31.200    23382067.80148  23382064.840 4  91756189.208 4        34.300
  22227543.391 8 116806535.807 8        45.800                    91018103.90249
        34.000    22227546.14549
  20806354.836 9 109338156.833 9        49.300                    85198591.78949
        41.600    20806359.06349
  20387410.125 9 107136578.976 9        55.800    20387416.918 9  83483075.54849
        50.000    20387415.81349  20387413.227 7  80004599.627 7        42.900
  20854994.313 9 109593758.381 9        53.500    20855000.801 9  85397762.38849
        47.900    20854999.97749  20854997.141 7  81839466.630 7        42.100
  24304942.813 5 127723351.858 5        37.200                    99524697.96946
        20.600    24304947.17246
  23193227.773 7 121881259.019 7        42.100                    94972437.59047
        26.600    23193230.55947
  24956686.391 6 131148277.590 6        39.100                   102193463.81345
        19.600    24956689.36745
  24648296.375 5 129527680.121 5        36.400                   100930666.10946
        21.100    24648301.41046
  23981065.797 6 126021341.449 6        40.900                    98198463.84747
        27.900    23981066.68047
  21390579.703 9 112408271.586 9        49.500    21390585.863 9  87590895.90349
        42.900    21390585.29749  21390580.926 6  83941281.449 6        39.000
 19  2 12  0 39 30.0000000  0 12G01G32G11G18G08G27G14G20G28G16G22G10
  23041815.445 7 121085577.177 7        41.300    23041822.504 7  94352423.86947
        29.200    23041821.89547  23041819.242 4  90421040.429 4        34.400
  23367110.141 7 122795020.076 7        44.700    23367117.270 7  95684438.52348
        31.200    23367116.46148  23367113.625 3  91697516.428 3        33.800
  22210516.398 8 116717062.238 8        45.500                    90948384.24149
        35.100    22210519.86749
  20794923.000 9 109278083.113 9        48.900                    85151781.10449
        41.300    20794927.52749
  20385485.984 9 107126466.234 9        55.400    20385492.414 9  83475195.48449
        50.200    20385491.69549  20385488.691 7  79997047.911 7        42.900
  20865496.922 9 109648950.009 9        52.900    20865503.297 9  85440768.84149
        47.800    20865502.54349  20865499.672 7  81880681.168 7        42.000
  24287853.508 5 127633547.260 5        36.600                    99454720.40246
        20.400    24287858.18846
  23211522.828 7 121977399.424 7        42.100                    95047352.18547
        26.300    23211525.37547
  24941611.484 6 131069063.601 6        39.200                   102131738.60645
        17.400    24941614.19545
  24669946.281 5 129641446.537 5        35.900                   101019315.21945
        19.300    24669949.82045
  23961381.313 6 125917899.033 6        40.900                    98117859.36147
        27.300    23961382.64147
  21401389.141 9 112465075.455 9        49.100    21401394.934 9  87635158.65849
        42.700    21401394.85249  21401390.590 6  83983699.907 6        39.700
 19  2 12  0 40  0.0000000  0 12G01G32G11G18G08G27G14G20G28G16G22G10
  23025220.453 6 120998375.520 6        40.500    23025228.531 7  94284474.57447
        29.100    23025227.91047  23025224.883 4  90355922.322 4        34.500
  23352217.844 7 122716759.574 7        43.800    23352224.684 7  95623456.32648
        30.300    23352224.05148  23352220.523 3  91639075.125 3        33.700
  22193528.961 8 116627790.505 8        45.600                    90878821.86249
        34.900    22193532.25449
  20783553.727 9 109218337.912 9        48.800                    85105226.41249
        40.900    20783558.40249
  20383654.031 9 107116840.589 9        55.400    20383661.012 9  83467694.97249
        50.100    20383659.96549  20383656.926 7  79989859.922 7        42.600
  20876082.414 9 109704577.294 9        52.000    20876088.945 9  85484114.77549
        47.800    20876088.09449  20876085.496 7  81922220.995 7        42.200
  24270787.039 6 127543858.422 6        38.100                    99384833.02846
        20.900    24270790.49646
  23229856.375 7 122073744.841 7        42.000                    95122426.53347
        27.100    23229859.31647
  24926593.914 5 130990147.336 5        37.500                   102070245.38545
        17.400    24926596.56345
  24691595.930 5 129755218.107 5        37.300                   101107968.41445
        19.300    24691599.78545
  23941728.625 7 125814624.472 7        41.800                    98037385.70447
        27.600    23941730.58647
  21412280.563 9 112522311.839 9        49.100    21412286.516 9  87679758.43949
        42.600    21412286.53149  21412282.191 6  84026441.361 6        39.500
 19  2 12  0 40 30.0000000  0 12G01G32G11G18G08G27G14G20G28G16G22G10
  23008659.391 7 120911341.787 7        41.200    23008666.402 7  94216656.11847
        29.800    23008665.68847  23008662.199 4  90290929.677 4        34.200
  23337384.328 7 122638811.693 7        43.600    23337392.105 7  95562717.71048
        31.900    23337391.00848  23337387.676 3  91580867.324 3        33.400
  22176579.625 8 116538721.913 8        46.000                    90809417.77949
        34.800    22176583.05949
  20772247.430 9 109158921.509 9        49.100                    85058927.91949
        41.700    20772251.67649
  20381915.266 9 107107702.598 9        55.200    20381921.953 9  83460574.45849
        50.000    20381921.05949  20381917.785 7  79983036.084 7        43.400
  20886750.617 9 109760639.109 9        52.500    20886757.035 9  85527799.29049
        47.900    20886756.28149  20886753.766 7  81964085.321 7        42.200
  24253743.125 6 127454288.522 6        38.400                    99315038.31846
        20.600    24253745.48446
  23248228.617 7 122170292.536 7        41.500                    95197658.51447
        26.000    23248231.85247
  24911633.750 5 130911530.844 5        37.300                   102008985.76645
        18.600    24911636.19145
  24713247.039 5 129868992.592 5        37.200                   101196623.82345
        19.900    24713250.73445
  23922108.000 7 125711519.435 7        41.600                    97957044.14347
        27.900    23922109.89147
  21423254.172 9 112579978.290 9        49.100    21423260.039 9  87724693.34349
        43.000    21423259.88749  21423255.852 6  84069503.981 6        39.700
 19  2 12  0 41  0.0000000  0 12G01G32G11G18G08G27G14G20G28G16G22G10
  22992129.305 7 120824476.839 7        42.600    22992136.867 7  94148969.16848
        30.800    22992136.08648  22992133.051 5  90226063.039 5        35.400
  23322612.445 7 122561179.500 7        44.300    23322618.645 7  95502225.10648
        30.800    23322617.95748  23322614.574 3  91522895.215 3        33.700
  22159670.008 8 116449857.891 8        45.900                    90740173.08849
        34.500    22159672.41849
  20761003.477 9 109099834.854 9        49.200                    85012886.37149
        41.700    20761007.96549
  20380269.188 9 107099053.332 9        54.600    20380276.262 9  83453834.76149
        50.000    20380274.93449  20380271.836 7  79976577.215 7        42.900
  20897501.305 9 109817134.796 9        52.700    20897507.793 9  85571821.90149
        47.800    20897507.08249  20897504.504 7  82006273.651 7        42.100
  24236721.320 6 127364840.756 6        38.800                    99245338.72646
        21.100    24236724.47346
  23266639.578 7 122267040.611 7        41.200                    95273046.59947
        27.500    23266642.54747
  24896731.516 6 130833216.052 6        38.800                   101947961.28945
        18.600    24896733.43845
  24734897.102 5 129982766.708 5        37.500                   101285278.96546
        21.100    24734901.07046
  23902520.352 7 125608585.566 7        42.200                    97876835.94747
        29.000    23902522.24647
  21434309.273 9 112638072.937 9        50.000    21434315.195 9  87769961.90249
        43.000    21434315.00449  21434311.078 6  84112886.353 6        40.300
 19  2 12  0 41 30.0000000  0 12G01G32G11G18G08G27G14G20G28G16G22G10
  22975631.445 7 120737781.635 7        42.600    22975639.211 7  94081414.50247
        29.700    22975638.08247  22975634.984 5  90161323.205 5        35.200
  23307899.656 7 122483866.124 7        44.700    23307906.270 7  95441980.92248
        31.900    23307905.38348  23307902.891 3  91465161.236 3        33.700
  22142798.805 8 116361200.587 8        46.800                    90671089.48349
        35.000    22142801.59449
  20749823.039 9 109041079.347 9        49.100                    84967102.86649
        41.600    20749827.26649
  20378716.617 9 107090894.024 9        55.200    20378723.480 9  83447476.85449
        49.900    20378722.34049  20378719.504 7  79970484.204 7        42.500
  20908334.602 9 109874063.737 9        53.300    20908341.266 9  85616182.10349
        47.800    20908340.53949  20908337.422 7  82048785.527 7        41.700
  24219722.367 5 127275516.958 5        36.600                    99175735.75546
        21.700    24219726.80146
  23285087.602 7 122363986.748 7        41.000                    95348589.03347
        25.700    23285090.43047
  24881887.180 6 130755206.010 6        40.100                   101887174.18745
        19.600    24881889.43045
  24756547.789 6 130096537.585 6        38.600                   101373931.59345
        19.300    24756550.96945
  23882966.016 7 125505824.914 7        42.300                    97796762.71947
        28.500    23882967.08247
  21445445.305 9 112696593.862 9        49.300    21445451.363 9  87815562.62249
        42.700    21445450.95349  21445447.457 6  84156587.016 6        39.800
 19  2 12  0 42  0.0000000  0 12G01G32G11G18G08G27G14G20G28G16G22G10
  22959166.578 7 120651256.688 7        42.800    22959173.855 7  94013992.51448
        30.400    22959173.51648  22959169.711 5  90096710.429 5        35.500
  23293248.516 7 122406874.247 7        44.900    23293255.551 7  95381987.25248
        32.100    23293254.93448  23293251.418 3  91407667.306 3        33.400
  22125967.602 8 116272751.325 8        45.900                    90602167.99349
        34.300    22125970.44949
  20738704.969 9 108982655.435 9        48.900                    84921577.75049
        41.400    20738709.18849
  20377257.141 9 107083225.126 9        54.900    20377264.078 9  83441501.09149
        50.000    20377262.98449  20377260.004 7  79964757.435 7        43.000
  20919250.164 9 109931424.935 9        52.400    20919256.664 9  85660879.13449
        47.800    20919256.15649  20919253.129 7  82091620.171 7        42.200
  24202750.328 6 127186320.449 6        38.000                    99106232.04246
        21.300    24202754.12146
  23303573.109 7 122461128.535 7        42.100                    95424283.91047
        25.800    23303576.12947
  24867100.898 6 130677502.793 6        39.200                   101826626.23345
        19.900    24867102.89845
  24778196.102 5 130210303.222 5        37.700                   101462580.14546
        20.600    24778199.59846
  23863444.945 7 125403238.840 7        43.100                    97716825.53347
        29.200    23863445.74647
  21456662.383 9 112755538.766 9        49.600    21456668.082 9  87861493.71649
        43.100    21456667.77349  21456663.883 6  84200604.354 6        39.400
 19  2 12  0 42 30.0000000  0 12G01G32G11G18G08G27G14G20G28G16G22G10
  22942733.688 7 120564902.394 7        41.900    22942741.457 7  93946703.47548
        31.400    22942741.10948  22942737.344 5  90032225.110 5        35.200
  23278659.703 7 122330206.410 7        44.900    23278666.117 7  95322246.10348
        31.900    23278665.19548  23278661.477 3  91350415.376 3        33.400
  22109176.234 8 116184511.612 8        46.400                    90533409.78549
        35.500    22109178.71549
  20727650.758 9 108924563.635 9        49.600                    84876311.42049
        41.800    20727654.78549
  20375891.633 9 107076047.561 9        55.300    20375898.152 9  83435908.18749
        50.000    20375897.07449  20375894.227 7  79959397.558 7        43.000
  20930247.805 9 109989217.180 9        52.000    20930254.055 9  85705912.04249
        47.600    20930253.46149  20930250.703 7  82134776.720 7        41.800
  24185801.422 6 127097254.426 6        38.800                    99036829.92846
        21.500    24185804.71946
  23322095.977 7 122558463.383 7        42.600                    95500129.28147
        25.800    23322097.99647
  24852372.867 6 130600108.615 6        38.600                   101766319.05446
        20.100    24852374.39146
  24799844.516 6 130324061.066 6        38.500                   101551222.60646
        20.400    24799846.96146
  23843956.906 7 125300828.748 7        42.600                    97637025.49147
        29.200    23843957.87147
  21467959.492 9 112814905.199 9        49.300    21467965.305 9  87907753.27849
        42.400    21467964.89549  21467960.867 6  84244936.431 6        39.600
 19  2 12  0 43  0.0000000  0 12G01G32G11G18G08G27G14G20G28G16G22G10
  22926334.750 7 120478720.343 7        42.400    22926340.996 7  93879548.66548
        31.200    22926341.14848  22926336.992 5  89967868.430 5        35.700
  23264132.117 8 122253866.462 8        45.200    23264139.070 7  95262760.43448
        31.600    23264137.80148  23264135.102 3  91293408.251 3        33.700
  22092424.422 8 116096483.267 8        46.300                    90464816.27649
        35.500    22092427.57849
  20716659.688 9 108866805.870 9        49.100                    84831305.37349
        41.400    20716663.99249
  20374619.516 9 107069362.986 9        55.200    20374626.277 9  83430699.41749
        50.300    20374625.17249  20374622.086 7  79954405.834 7        43.400
  20941327.078 9 110047440.473 9        53.300    20941333.496 9  85751280.83949
        47.600    20941332.82449  20941330.102 7  82178255.129 7        41.200
  24168876.414 5 127008321.600 5        37.400                    98967531.62846
        21.700    24168880.73846
  23340653.547 7 122655990.022 7        41.400                    95576124.06747
        27.100    23340656.77047
  24837703.813 5 130523025.030 5        37.900                   101706253.87545
        19.600    24837705.98445
  24821488.273 5 130437808.757 5        36.600                   101639857.20045
        19.000    24821492.48045
  23824502.516 7 125198597.183 7        42.600                    97557364.55847
        27.200    23824503.71547
  21479336.305 9 112874691.934 9        49.300    21479342.430 9  87954340.34449
        43.100    21479341.84849  21479337.887 6  84289582.349 6        39.500
 19  2 12  0 43 30.0000000  0 12G01G32G11G18G08G27G14G20G28G16G22G10
  22909967.203 7 120392710.788 7        42.700    22909974.156 7  93812528.26248
        32.000    22909974.45348  22909970.051 5  89903640.571 5        35.000
  23249668.086 7 122177856.642 7        44.600    23249674.941 7  95203532.01348
        31.800    23249673.73048  23249670.844 4  91236647.683 4        34.100
  22075714.375 8 116008667.931 8        46.400                    90396388.74949
        35.500    22075716.86349
  20705732.438 9 108809382.092 9        49.100                    84786559.57149
        41.800    20705736.58249
  20373441.203 9 107063171.716 9        55.100    20373448.063 9  83425875.04949
        50.300    20373447.04749  20373444.059 7  79949782.499 7        42.600
  20952488.391 9 110106093.441 9        52.100    20952494.871 9  85796984.44049
        47.400    20952494.12949  20952491.492 7  82222054.425 7        42.100
  24151981.445 6 126919525.212 6        38.300                    98898339.66546
        21.700    24151983.54346
  23359248.547 7 122753705.708 7        41.600                    95652266.14147
        27.100    23359251.98847
  24823095.867 6 130446254.697 6        38.400                   101646432.90345
        19.000    24823097.46945
  24843133.164 6 130551543.031 6        38.200                   101728481.28945
        19.600    24843135.41445
  23805083.164 7 125096545.306 7        43.000                    97477843.64447
        28.900    23805084.28947
  21490793.055 9 112934896.310 9        49.500    21490799.020 9  88001252.84949
        42.400    21490798.50849  21490794.379 6  84334540.178 6        39.700
 19  2 12  0 44  0.0000000  0 12G01G32G11G18G08G27G14G20G28G16G22G10
  22893632.672 7 120306874.360 7        42.800    22893639.711 7  93745642.75648
        31.500    22893639.14848  22893635.086 4  89839541.953 4        34.700
  23235266.938 8 122102179.816 8        45.300    23235273.980 7  95144563.06548
        32.300    23235273.45348  23235270.234 4  91180135.791 4        34.500
  22059044.258 8 115921067.253 8        46.600                    90328128.49249
        35.900    22059047.10949
  20694868.945 9 108752293.460 9        49.200                    84742074.93549
        42.100    20694872.84849
  20372357.250 9 107057474.520 9        55.200    20372364.043 9  83421435.66749
        50.300    20372362.89549  20372359.730 7  79945528.089 7        42.900
  20963731.266 9 110165175.126 9        52.500    20963737.750 9  85843022.10949
        47.600    20963737.13349  20963734.242 7  82266173.841 7        42.200
  24135108.297 5 126830867.850 5        37.400                    98829256.00146
        21.700    24135113.03946
  23377878.617 7 122851607.958 7        41.800                    95728553.59447
        26.100    23377882.07047
  24808547.445 6 130369800.020 6        39.100                   101586857.78045
        19.600    24808548.75045
  24864771.758 5 130665261.297 5        36.500                   101817092.91145
        19.300    24864775.29745
  23785697.445 7 124994675.349 7        43.000                    97398464.45647
        29.400    23785698.92247
  21502328.195 9 112995516.129 9        49.100    21502334.477 9  88048489.06749
        42.300    21502334.06349  21502330.184 6  84379808.215 6        39.700
 19  2 12  0 44 30.0000000  0 12G01G32G11G18G08G27G14G20G28G16G22G10
  22877331.711 7 120221212.403 7        42.400    22877338.898 7  93678893.21848
        31.500    22877338.41048  22877334.262 5  89775573.601 5        35.100
  23220930.523 8 122026839.440 8        45.500    23220936.996 7  95085856.28148
        32.600    23220936.62548  23220933.324 3  91123875.124 3        33.900
  22042415.586 8 115833682.996 8        46.300                    90260036.87049
        35.400    22042418.37949
  20684069.109 9 108695541.395 9        49.400                    84697852.55449
        41.900    20684073.30949
  20371367.219 9 107052273.421 9        55.400    20371374.234 9  83417382.85349
        50.200    20371373.22349  20371370.094 7  79941644.136 7        42.600
  20975055.625 9 110224685.235 9        51.700    20975062.273 9  85889393.61149
        47.300    20975061.53549  20975058.984 7  82310613.215 7        42.000
  24118266.055 6 126742352.334 6        39.200                    98760282.89646
        22.200    24118268.82846
  23396544.383 7 122949694.667 7        41.700                    95804984.80047
        27.400    23396547.10547
  24794057.344 6 130293663.472 6        38.700                   101527530.60945
        18.300    24794059.67645
  24886408.914 5 130778961.889 5        37.600                   101905690.75245
        19.300    24886411.78545
  23766347.055 7 124892988.747 7        42.700                    97319228.17347
        28.500    23766348.79747
  21513942.680 9 113056549.873 9        48.800    21513948.734 9  88096047.83749
        42.700    21513948.47349  21513944.352 6  84425385.356 6        39.900
 19  2 12  0 45  0.0000000  0 12G01G32G11G18G08G27G14G20G28G16G22G10
  22861063.539 7 120135724.926 7        42.100    22861071.031 7  93612279.62148
        31.400    22861070.91848  22861067.367 5  89711735.624 5        36.900
  23206657.555 7 121951837.603 7        44.400    23206665.098 7  95027413.29248
        32.200    23206663.80948  23206660.980 4  91067867.23314        34.200
  22025828.164 8 115746516.288 8        46.400                    90192114.76549
        36.200    22025831.23449
  20673333.641 9 108639125.835 9        49.100                    84653892.38249
        42.400    20673338.08649
  20370471.953 9 107047567.859 9        53.700    20370478.836 9  83413716.18149
        50.200    20370477.72749  20370474.844 7  79938130.240 7        43.000
  20986461.328 9 110284622.118 9        51.700    20986467.945 9  85936097.66949
        47.300    20986467.22749  20986464.398 7  82355371.275 7        41.800
  24101447.656 5 126653981.559 5        37.900                    98691422.54346
        22.500    24101452.41846
  23415244.070 7 123047963.755 7        41.300                    95881558.09546
        24.800    23415247.34446
  24779631.523 6 130217846.809 6        39.500                   101468452.64445
        19.000    24779632.08245
  24908040.969 5 130892641.47215        37.100                   101994272.30255
        19.000    24908044.22745
  23747031.992 7 124791487.056 7        42.600                    97240135.95947
        28.600    23747033.64847
  21525635.281 9 113117994.665 9        49.000    21525641.461 9  88143926.89449
        42.400    21525641.08649  21525636.723 6  84471269.445 6        39.300
 19  2 12  0 45 30.0000000  0 12G01G32G11G18G08G27G14G20G28G16G22G10
  22844829.180 7 120050413.119 7        41.800    22844836.840 7  93545802.93048
        30.400    22844836.39148  22844832.707 5  89648028.780 5        35.300
  23192450.805 7 121877177.708 7        44.700    23192457.684 7  94969236.76148
        32.000    23192456.74248  23192453.805 4  91012114.739 4        34.300
  22009282.422 8 115659569.235 8        46.400                    90124363.82349
        36.200    22009285.73049
  20662662.352 9 108583048.091 9        49.200                    84610195.44149
        42.000    20662666.66849
  20369670.922 9 107043359.280 9        54.500    20369677.859 9  83410436.77049
        50.000    20369676.75849  20369673.875 7  79934987.467 7        42.900
  20997948.102 9 110344985.330 9        51.700    20997954.457 9  85983133.92749
        47.200    20997953.83649  20997951.355 7  82400447.677 7        41.800
  24084659.922 5 126565758.793 5        37.400                    98622677.52246
        22.000    24084663.74246
  23433978.094 6 123146413.499 6        40.700                    95958272.19346
        24.000    23433981.65246
  24765264.305 6 130142352.379 6        38.800                   101409625.79045
        19.000    24765266.02045
  24929669.352 6 131006297.291 6        38.100                   102082835.22045
        19.300    24929672.42645
  23727752.250 7 124690172.035 7        41.700                    97161189.23047
        29.200    23727753.99247
  21537405.633 9 113179848.800 9        49.300    21537411.793 9  88192124.90949
        42.500    21537411.46149  21537407.320 6  84517459.219 6        39.900
 19  2 12  0 46  0.0000000  0 12G01G32G11G18G08G27G14G20G28G16G22G10
  22828628.813 7 119965277.754 7        42.100    22828636.184 7  93479463.72748
        30.900    22828635.79348  22828632.254 5  89584453.703 5        35.300
  23178308.773 8 121802862.615 8        45.200    23178316.051 7  94911328.91648
        32.700    23178315.31348  23178312.035 4  90956619.730 4        34.700
  21992779.305 8 115572843.667 8        46.500                    90056785.46549
        35.900    21992782.21949
  20652055.781 9 108527309.227 9        49.300                    84566762.56849
        42.300    20652059.83649
  20368965.086 9 107039648.667 9        54.500    20368971.949 9  83407545.38049
        50.100    20368970.70349  20368967.488 7  79932216.554 7        43.200
  21009515.688 9 110405774.027 9        51.700    21009522.246 9  86030501.73349
        47.200    21009521.50849  21009518.953 7  82445841.796 7        41.400
  24067901.945 6 126477687.145 6        39.200                    98554050.30146
        22.200    24067905.01646
  23452746.859 6 123245041.339 6        40.900                    96035125.05746
        24.200    23452749.71146
  24750959.484 6 130067182.303 6        38.800                   101351051.74245
        17.400    24750961.99245
  24951291.047 5 131119926.541 5        36.300                   102171377.50445
        17.800    24951294.64845
  23708508.750 7 124589045.717 7        43.200                    97082389.52147
        29.300    23708510.17247
  21549253.922 9 113242110.232 9        49.100    21549259.832 9  88240640.30949
        42.400    21549259.28149  21549255.426 6  84563953.172 6        39.100
 19  2 12  0 46 30.0000000  0 12G01G32G11G18G08G27G14G20G28G16G22G10
  22812461.938 7 119880319.377 7        42.600    22812468.891 7  93413262.42948
        30.700    22812468.76248  22812465.207 5  89521010.846 5        35.700
  23164233.305 8 121728894.969 8        45.900    23164240.094 7  94853691.79148
        33.100    23164239.75048  23164236.371 4  90901384.150 4        34.100
  21976318.602 8 115486340.544 8        46.700                    89989380.45349
        35.900    21976321.33249
  20641513.430 9 108471909.655 9        49.000                    84523594.07949
        42.000    20641518.04749
  20368353.734 9 107036436.242 9        55.100    20368360.520 9  83405042.18249
        50.200    20368359.40649  20368356.258 7  79929817.652 7        42.800
  21021164.344 9 110466986.980 9        51.700    21021170.914 9  86078200.13449
        47.000    21021170.11349  21021167.238 7  82491552.797 7        41.700
  24051171.281 6 126389768.857 6        38.600                    98485542.53046
        22.800    24051174.61346
  23471548.789 7 123343844.728 7        41.100                    96112114.68547
        26.000    23471551.90647
  24736717.430 6 129992338.583 6        39.200                   101292731.92245
        19.600    24736721.10245
  24972909.953 5 131233527.769 5        37.100                   102259897.97946
        20.600    24972912.78946
  23689300.805 7 124488109.441 7        42.700                    97003737.89247
        27.900    23689302.37947
  21561178.750 9 113304776.546 9        48.800    21561184.680 9  88289471.20449
        42.500    21561184.37149  21561180.703 6  84610749.451 6        39.700
 19  2 12  0 47  0.0000000  0 12G01G32G11G18G08G27G14G20G28G16G22G10
  22796328.711 7 119795538.680 7        42.200    22796335.418 7  93347199.57248
        31.500    22796335.34048  22796331.676 5  89457700.616 5        35.800
  23150224.133 8 121655277.492 8        45.200    23150231.324 7  94796327.53348
        32.800    23150230.63748  23150227.699 5  90846410.060 5        35.100
  21959899.992 8 115400061.698 8        46.400                    89922150.18249
        36.900    21959903.07849
  20631036.031 9 108416850.244 9        49.400                    84480690.65049
        42.000    20631040.30949
  20367837.414 9 107033723.213 9        53.700    20367844.199 9  83402928.13249
        50.200    20367843.14149  20367840.004 7  79927791.692 7        42.500
  21032893.367 9 110528623.229 9        51.500    21032899.848 9  86126228.36549
        47.000    21032898.94549  21032896.098 7  82537579.831 7        41.700
  24034470.039 5 126302007.052 5        37.900                    98417156.72446
        21.800    24034473.91846
  23490383.797 6 123442821.766 6        40.000                    96189239.65446
        22.800    23490386.37946
  24722537.766 6 129917823.730 6        38.600                   101234668.34845
        18.300    24722540.72345
  24994521.344 5 131347097.895 5        37.400                   102348394.15445
        19.900    24994525.41445
  23670129.938 7 124387364.821 7        42.400                    96925235.60147
        28.500    23670130.84047
  21573180.445 9 113367845.562 9        49.000    21573186.582 9  88338615.89149
        42.200    21573185.91049  21573182.160 6  84657846.397 6        39.200
 19  2 12  0 47 30.0000000  0 12G01G32G11G18G08G27G14G20G28G16G22G10
  22780229.430 7 119710936.745 7        42.700    22780236.227 7  93281276.00248
        31.300    22780236.02048  22780232.270 5  89394523.867 5        35.300
  23136282.344 8 121582013.415 8        45.400    23136289.367 7  94739238.66448
        33.000    23136288.73848  23136285.906 4  90791699.889 4        34.300
  21943524.672 8 115314009.179 8        46.600                    89855096.28449
        36.400    21943528.00049
  20620623.375 9 108362132.287 9        49.200                    84438053.27849
        42.400    20620627.57849
  20367416.352 9 107031510.296 9        54.500    20367423.289 9  83401203.77549
        50.200    20367421.98449  20367418.938 7  79926139.188 7        42.500
  21044702.727 9 110590682.148 9        51.400    21044709.281 9  86174585.95849
        47.300    21044708.48849  21044705.492 7  82583922.520 7        41.300
  24017801.023 6 126214404.925 6        38.100                    98348895.33246
        22.500    24017803.79346
  23509250.727 6 123541970.359 6        40.600                    96266498.29446
        23.300    23509253.35546
  24708421.781 6 129843639.825 6        38.600                   101176862.71745
        19.600    24708425.18445
  25016125.016 4 131460633.914 4        34.900                   102436863.80445
        17.400    25016129.44545
  23650995.391 7 124286813.823 7        42.100                    96846884.19747
        28.000    23650996.98047
  21585258.211 9 113431315.434 9        49.000    21585264.316 9  88388072.92749
        42.100    21585263.95349  21585259.941 6  84705242.717 6        39.300
 19  2 12  0 48  0.0000000  0 12G01G32G11G18G08G27G14G20G28G16G22G10
  22764164.141 7 119626514.152 7        42.500    22764171.656 7  93215492.20548
        31.800    22764171.12948  22764167.301 5  89331481.015 5        35.900
  23122408.688 8 121509105.344 8        45.500    23122415.934 7  94682427.18548
        33.200    23122415.07048  23122411.973 4  90737255.587 4        34.700
  21927192.414 8 115228184.488 8        46.800                    89788219.91249
        36.400    21927195.73449
  20610275.961 9 108307756.398 9        49.400                    84395682.46649
        41.800    20610280.31649
  20367090.398 9 107029798.355 9        55.600    20367097.293 9  83399869.78449
        50.400    20367096.35949  20367093.156 7  79924860.779 7        42.800
  21056592.141 9 110653162.605 9        51.600    21056598.766 9  86223272.01149
        46.900    21056598.19949  21056595.367 7  82630580.014 7        41.500
  24001161.680 6 126126965.152 6        39.500                    98280760.46446
        21.800    24001165.07046
  23528150.234 6 123641288.267 6        40.200                    96343888.88046
        22.500    23528153.18846
  24694368.703 6 129769788.906 6        39.700                   101119316.51345
        19.900    24694371.66845
  25037725.273 5 131574133.849 5        37.100                   102525305.25345
        19.000    25037727.66845
  23631898.969 7 124186457.907 7        42.500                    96768684.80347
        29.000    23631900.14147
  21597411.852 9 113495183.829 9        49.300    21597417.934 9  88437840.51049
        42.400    21597417.78149  21597413.605 6  84752936.672 6        38.800
 19  2 12  0 48 30.0000000  0 12G01G32G11G18G08G27G14G20G28G16G22G10
  22748133.297 7 119542271.638 7        42.700    22748140.680 7  93149848.69548
        32.600    22748140.37148  22748136.504 5  89268572.681 5        35.900
  23108603.266 8 121436556.152 8        45.800    23108610.203 7  94625895.35948
        33.200    23108609.81648  23108606.008 5  90683079.241 5        35.400
  21910904.711 8 115142589.200 8        47.000                    89721522.28749
        36.700    21910907.52349
  20599993.844 9 108253723.560 9        49.600                    84353578.95749
        42.500    20599998.15649
  20366860.305 9 107028588.138 9        55.500    20366867.137 9  83398926.75249
        50.200    20366865.97349  20366862.992 7  79923957.030 7        42.800
  21068561.727 9 110716063.638 9        51.400    21068568.441 9  86272285.79649
        46.800    21068567.93449  21068565.012 7  82677551.554 7        41.400
  23984553.594 6 126039690.614 6        39.400                    98212754.35946
        22.600    23984557.13746
  23547081.977 6 123740773.167 6        39.000                    96421409.56946
        22.900    23547084.51246
  24680379.367 6 129696273.366 6        39.400                   101062031.64345
        18.600    24680381.42245
  25059315.578 6 131687595.141 6        38.600                   102613716.67145
        19.900    25059318.95345
  23612839.086 7 124086298.978 7        42.500                    96690638.90047
        29.800    23612840.86347
  21609641.273 9 113559448.632 9        49.300    21609647.328 9  88487916.98449
        42.400    21609646.96949  21609642.672 6  84800926.615 6        39.100
 19  2 12  0 49  0.0000000  0 12G01G32G11G18G08G27G14G20G28G16G22G10
  22732136.469 7 119458209.619 7        42.100    22732144.496 7  93084345.85348
        31.800    22732143.93848  22732139.996 5  89205799.129 5        36.400
  23094865.867 8 121364368.253 8        45.400    23094873.313 7  94569645.05448
        33.000    23094872.21148  23094868.750 4  90629172.707 4        34.300
  21894659.914 8 115057225.223 8        47.000                    89655004.90049
        37.000    21894663.35949
  20589777.133 9 108200034.068 9        49.400                    84311742.99849
        42.500    20589781.32849
  20366725.430 9 107027880.129 9        54.400    20366732.336 9  83398375.04749
        50.200    20366731.28949  20366728.328 7  79923428.329 7        42.500
  21080611.359 9 110779383.911 9        51.500    21080617.922 9  86321626.26049
        46.800    21080617.28549  21080614.449 7  82724836.155 7        41.600
  23967977.750 6 125952583.955 6        39.000                    98144879.05246
        22.800    23967980.71146
  23566044.219 6 123840422.857 6        38.700                    96499058.64646
        22.300    23566047.37146
  24666453.336 6 129623095.111 6        38.400                   101005009.61745
        19.600    24666455.90645
  25080899.320 5 131801015.157 5        36.400                   102702095.87645
        16.300    25080902.25445
  23593816.758 7 123986338.450 7        42.600                    96612747.60847
        29.300    23593818.80547
  21621945.250 9 113624107.320 9        49.000    21621951.590 9  88538300.37749
        42.200    21621951.32449  21621946.996 6  84849210.709 6        39.100
 19  2 12  0 49 30.0000000  0 12G01G32G11G18G08G27G14G20G28G16G22G10
  22716174.688 7 119374329.315 7        43.000    22716182.020 7  93018984.60048
        33.100    22716182.15648  22716178.340 5  89143161.265 5        36.100
  23081198.508 8 121292544.896 8        45.500    23081205.742 7  94513678.81448
        33.000    23081204.67248  23081201.215 4  90575538.386 4        34.700
  21878460.313 8 114972094.253 8        47.100                    89588669.08849
        36.500    21878463.41849
  20579626.547 9 108146689.237 9        49.500                    84270175.60349
        42.500    20579630.11349
  20366686.633 9 107027675.373 9        54.800    20366693.383 9  83398215.49449
        50.200    20366692.27349  20366689.203 7  79923275.406 7        42.400
  21092740.664 9 110843122.843 9        51.600    21092746.973 9  86371292.95349
        46.800    21092746.41449  21092743.453 7  82772433.397 7        41.400
  23951433.883 6 125865648.626 6        39.200                    98077137.21646
        21.500    23951437.20746
  23585038.367 6 123940235.436 6        39.000                    96576834.69046
        22.300    23585040.64546
  24652592.086 6 129550256.401 6        38.300                   100948252.14445
        17.400    24652595.10245
  25102474.555 6 131914391.046 6        39.400                   102790440.70545
        18.600    25102476.75845
  23574833.094 7 123886578.126 7        41.600                    96535012.32147
        29.100    23574834.71947
  21634323.961 9 113689158.119 9        49.200    21634330.047 9  88588989.30349
        42.000    21634329.68049  21634326.406 6  84897787.590 6        39.000
 19  2 12  0 50  0.0000000  0 12G01G32G11G18G08G27G14G20G28G16G22G10
  22700247.586 7 119290631.289 7        42.900    22700255.016 7  92953765.38448
        32.600    22700254.31348  22700250.418 5  89080659.523 5        36.000
  23067600.820 8 121221088.697 8        45.500    23067607.840 7  94457998.67448
        33.700    23067607.43448  23067604.109 4  90522178.264 4        34.400
  21862304.883 8 114887197.468 8        46.600                    89522515.76449
        36.900    21862308.20749
  20569540.555 9 108093689.916 9        49.300                    84228877.43749
        42.200    20569545.04349
  20366743.359 9 107027974.227 9        54.700    20366750.223 9  83398448.36049
        50.100    20366749.35249  20366745.973 7  79923498.571 7        43.200
  21104949.195 9 110907279.233 9        51.200    21104955.488 9  86421284.94149
        46.500    21104954.95749  21104952.133 7  82820342.368 7        41.800
  23934924.000 6 125778887.103 6        38.700                    98009530.85246
        24.400    23934927.48046
  23604063.055 6 124040208.392 6        38.300                    96654735.68446
        20.600    23604064.73046
  24638796.258 6 129477759.669 6        38.400                   100891761.19946
        20.100    24638799.99246
  25124039.000 6 132027720.404 6        38.100                   102878749.35245
        19.300    25124042.48445
  23555888.594 7 123787019.736 7        41.400                    96457434.37047
        27.600    23555889.19147
  21646776.820 9 113754598.671 9        49.500    21646783.172 9  88639981.94149
        42.100    21646782.76649  21646778.852 6  84946655.547 6        39.200
 19  2 12  0 50 30.0000000  0 12G01G32G11G18G08G27G14G20G28G16G22G10
  22684355.719 7 119207116.441 7        43.000    22684362.398 7  92888688.89948
        33.300    22684362.38348  22684358.301 5  89018294.569 5        35.900
  23054074.039 8 121150002.631 8        46.100    23054080.785 7  94402606.93848
        33.300    23054079.68048  23054076.848 4  90469094.510 4        34.900
  21846194.875 8 114802537.304 8        47.200                    89456546.81249
        37.000    21846197.55549
  20559520.734 9 108041037.021 9        49.500                    84187849.21449
        42.400    20559525.30549
  20366896.211 9 107028777.856 9        54.300    20366903.258 9  83399074.56449
        50.300    20366902.32849  20366899.055 7  79924098.686 7        43.600
  21117237.031 9 110971852.249 9        51.400    21117243.715 9  86471601.56549
        46.600    21117242.64849  21117239.797 7  82868562.462 7        41.400
  23918448.039 6 125692302.726 6        39.200                    97942062.53246
        21.800    23918451.77746
  23623117.258 5 124140339.948 5        37.900                    96732760.29746
        20.400    23623119.34446
  24625066.742 6 129405606.950 6        38.500                   100835538.28346
        20.100    24625069.87146
  25145596.578 5 132141000.042 5        37.700                   102967019.21545
        18.600    25145599.22345
  23536981.500 7 123687665.038 7        43.000                    96380015.13647
        29.400    23536982.83647
  21659303.648 9 113820427.043 9        48.900    21659309.879 9  88691276.77049
        41.300    21659309.59849  21659305.074 6  84995813.049 6        39.000
 19  2 12  0 51  0.0000000  0 12G01G32G11G18G08G27G14G20G28G16G22G10
  22668497.617 7 119123785.458 7        42.300    22668505.070 7  92823755.69148
        31.700    22668504.75848  22668501.547 5  88956066.881 5        35.900
  23040617.609 8 121079289.369 8        46.300    23040624.203 7  94347505.71149
        34.200    23040623.22749  23040620.906 5  90416289.159 5        35.200
  21830129.617 8 114718115.172 8        47.300                    89390763.33749
        38.100    21830132.80549
  20549567.609 9 107988731.227 9        49.800                    84147091.44749
        42.200    20549571.77749
  20367145.328 9 107030086.917 9        54.600    20367152.402 9  83400094.59949
        50.200    20367151.36349  20367147.805 7  79925076.220 7        42.600
  21129603.953 9 111036840.745 9        51.400    21129610.383 9  86522241.94049
        46.600    21129609.53949  21129607.016 7  82917092.836 7        41.300
  23902005.102 6 125605898.430 6        39.300                    97874734.48946
        22.900    23902008.78946
  23642200.609 5 124240627.749 5        37.900                    96810906.60845
        19.300    23642203.53545
  24611401.836 5 129333800.120 5        37.400                   100779584.93145
        18.600    24611404.87145
  25167143.172 6 132254228.950 6        38.400                   103055249.48945
        18.300    25167145.83645
  23518113.563 7 123588515.664 7        43.100                    96302755.89948
        30.500    23518115.35548
  21671903.992 9 113886640.877 9        48.900    21671909.805 9  88742871.96449
        42.100    21671909.56649  21671905.262 6  85045258.465 6        39.200
 19  2 12  0 51 30.0000000  0 12G01G32G11G18G08G27G14G20G28G16G22G10
  22652675.453 7 119040638.876 7        43.300    22652683.039 7  92758966.15848
        32.100    22652682.32848  22652679.199 5  88893976.931 5        36.100
  23027232.266 8 121008951.447 8        45.500    23027239.324 7  94292696.94249
        34.000    23027238.51649  23027235.395 5  90363764.107 5        35.400
  21814110.680 8 114633932.582 8        47.700                    89325166.52149
        37.900    21814113.41049
  20539680.508 9 107936773.212 9        49.600                    84106604.69149
        42.700    20539684.62149
  20367490.617 9 107031901.454 9        53.700    20367497.617 9  83401508.51849
        50.200    20367496.64549  20367493.355 7  79926431.227 7        42.800
  21142049.648 9 111102243.456 9        51.500    21142056.012 9  86573205.08249
        46.500    21142055.29349  21142052.859 7  82965932.513 7        41.700
  23885597.313 6 125519676.655 6        39.300                    97807548.67946
        23.000    23885601.25846
  23661314.266 5 124341069.353 5        37.900                    96889172.77246
        20.400    23661317.19146
  24597803.695 5 129262341.545 5        37.900                   100723902.92345
        19.900    24597807.02045
  25188679.234 6 132367403.287 6        38.100                   103143437.33945
        18.300    25188682.07045
  23499285.617 7 123489572.942 7        42.600                    96225657.69447
        29.900    23499287.03147
  21684576.688 9 113953237.798 9        48.800    21684583.129 9  88794765.67449
        41.600    21684582.40249  21684578.672 6  85094989.930 6        38.700
 19  2 12  0 52  0.0000000  0 12G01G32G11G18G08G27G14G20G28G16G22G10
  22636888.789 7 118957677.808 7        43.200    22636895.980 7  92694321.19148
        32.700    22636895.64148  22636892.086 5  88832025.533 5        36.000
  23013919.766 8 120938991.982 8        45.100    23013926.395 8  94238183.08848
        33.600    23013926.15248  23013922.176 4  90311521.689 4        34.500
  21798136.922 8 114549991.262 8        47.500                    89259757.70849
        37.900    21798140.32849
  20529859.766 9 107885164.178 9        49.900                    84066389.85949
        43.000    20529863.52349
  20367932.484 9 107034222.599 9        53.700    20367939.199 9  83403317.20049
        50.100    20367938.26649  20367934.840 7  79928164.536 7        42.800
  21154573.953 9 111168059.679 9        51.300    21154580.723 9  86624490.44149
        46.300    21154579.85249  21154577.359 7  83015080.976 7        41.700
  23869225.273 6 125433640.545 6        38.300                    97740507.59246
        21.800    23869229.14146
  23680456.727 5 124441663.384 5        37.400                    96967557.73545
        19.300    23680459.30545
  24584272.727 6 129191233.040 6        38.100                   100668493.63446
        20.400    24584275.04746
  25210204.852 5 132480521.327 5        36.400                   103231581.28145
        19.000    25210207.85945
  23480496.969 7 123390838.868 7        43.000                    96148722.08248
        30.200    23480498.62548
  21697322.172 9 114020215.962 9        48.800    21697328.414 9  88846956.44349
        41.200    21697328.01249  21697323.934 6  85145006.083 6        38.800
 19  2 12  0 52 30.0000000  0 12G01G32G11G18G08G27G14G20G28G16G22G10
  22621137.164 7 118874902.706 7        43.100    22621144.230 8  92629821.13348
        32.300    22621144.38748  22621140.504 5  88770213.013 5        36.400
  23000679.281 8 120869413.413 8        45.700    23000686.410 7  94183966.03249
        34.700    23000685.37549  23000682.277 5  90259563.640 5        35.000
  21782209.258 8 114466292.938 8        47.600                    89194538.23749
        37.300    21782212.69949
  20520105.023 9 107833904.654 9        49.500                    84026447.37549
        42.300    20520109.30149
  20368470.688 9 107037050.719 9        53.700    20368477.480 9  83405520.92549
        50.200    20368476.51649  20368473.523 7  79930276.456 7        42.900
  21167176.984 9 111234288.038 9        51.000    21167183.496 9  86676096.94749
        46.200    21167182.71949  21167180.215 7  83064537.181 7        41.400
  23852889.477 6 125347793.003 6        38.600                    97673613.39046
        23.500    23852893.36346
  23699627.414 5 124542407.050 5        37.300                    97046059.30245
        19.600    23699629.93045
  24570808.219 6 129120476.997 6        38.700                   100613359.03945
        19.900    24570810.10545
  25231719.453 5 132593580.219 5        37.300                   103319679.10745
        19.300    25231722.34445
  23461749.141 7 123292314.954 7        43.200                    96071950.22048
        30.400    23461750.11748
  21710139.695 9 114087572.848 9        48.700    21710145.832 9  88899442.32549
        41.400    21710145.47349  21710141.691 6  85195305.063 6        39.000
 19  2 12  0 53  0.0000000  0 12G01G32G11G18G08G27G14G20G28G16G22G10
  22605420.992 7 118792314.363 7        42.800    22605428.074 8  92565466.58948
        32.300    22605428.29348  22605424.387 5  88708539.882 5        36.600
  22987512.086 8 120800218.491 8        47.300    22987518.902 7  94130047.91149
        34.500    22987517.79749  22987514.766 4  90207892.114 4        34.700
  21766328.750 8 114382839.459 8        47.600                    89129509.55749
        38.300    21766332.00849
  20510417.453 9 107782995.579 9        49.400                    83986777.97349
        42.800    20510421.66849
  20369105.258 9 107040386.549 9        53.900    20369112.469 9  83408120.26549
        50.200    20369111.16849  20369108.406 7  79932767.498 7        42.900
  21179858.031 9 111300927.465 9        51.000    21179864.543 9  86728023.75949
        46.300    21179863.82449  21179860.777 7  83114300.400 7        41.400
  23836589.758 6 125262136.924 6        39.200                    97606868.41947
        25.500    23836593.66047
  23718826.031 5 124643298.335 5        36.800                    97124675.88046
        20.600    23718829.26646
  24557410.883 6 129050075.597 6        39.400                   100558500.82246
        20.400    24557414.28546
  25253221.984 5 132706577.788 5        35.200                   103407729.19045
        18.300    25253225.19945
  23443040.070 7 123194002.623 7        43.200                    95995343.21547
        29.600    23443041.43847
  21723029.141 9 114155306.297 9        48.600    21723035.109 9  88952221.63049
        41.600    21723034.71949  21723031.117 6  85245885.268 6        39.300
 19  2 12  0 53 30.0000000  0 12G01G32G11G18G08G27G14G20G28G16G22G10
  22589740.578 7 118709913.700 7        43.000    22589748.199 7  92501258.30048
        31.900    22589746.85948  22589744.121 5  88647006.948 5        36.500
  22974417.898 8 120731410.107 8        45.900    22974425.152 7  94076430.98949
        35.200    22974424.32449  22974420.977 4  90156509.230 4        34.800
  21750495.242 8 114299632.764 8        47.700                    89064673.16949
        37.500    21750498.21949
  20500796.570 9 107732437.893 9        49.800                    83947382.38149
        42.700    20500800.66849
  20369836.813 9 107044230.839 9        53.800    20369843.941 9  83411115.81149
        50.200    20369842.55549  20369839.832 7  79935638.220 7        42.600
  21192617.133 9 111367977.026 9        51.100    21192623.617 9  86780270.16249
        46.500    21192622.71549  21192619.898 7  83164369.880 7        41.100
  23820326.422 6 125176675.119 6        39.000                    97540274.80046
        23.600    23820330.50846
  23738053.602 5 124744335.599 5        36.700                    97203406.19146
        21.100    23738055.99646
  24544081.992 6 128980030.922 6        39.500                   100503920.52546
        20.600    24544084.41446
  25274712.813 5 132819510.645 5        37.200                   103495728.72545
        18.600    25274715.43445
  23424372.289 7 123095903.561 7        43.200                    95918902.41448
        30.000    23424374.16448
  21735989.578 9 114223414.304 9        48.400    21735995.934 9  89005292.81049
        41.200    21735995.43049  21735991.445 6  85296745.084 6        38.900
 19  2 12  0 54  0.0000000  0 12G01G32G11G18G08G27G14G20G28G16G22G10
  22574096.641 7 118627701.424 7        43.000    22574103.777 8  92437196.82148
        33.200    22574103.01248  22574099.250 5  88585614.672 5        36.800
  22961398.211 8 120662990.967 8        45.800    22961405.008 8  94023117.37549
        34.700    22961404.65249  22961401.969 5  90105417.063 5        35.300
  21734708.961 8 114216674.194 8        47.500                    89000030.14649
        37.600    21734711.81649
  20491242.500 9 107682232.115 9        49.500                    83908261.00649
        42.800    20491246.89849
  20370665.289 9 107048584.209 9        53.800    20370672.270 9  83414508.04049
        50.300    20370671.16049  20370668.117 7  79938889.110 7        42.300
  21205453.680 9 111435435.596 9        51.000    21205460.563 9  86832835.27549
        45.900    21205459.69949  21205456.754 7  83214744.761 7        41.600
  23804101.656 6 125091410.701 6        38.900                    97473835.01647
        25.300    23804105.30547
  23757306.797 5 124845516.442 5        36.000                    97282248.41845
        19.900    23757310.03545
  24530820.680 5 128910344.780 5        37.800                   100449619.67046
        20.600    24530824.04746
  25296189.984 6 132932377.627 6        38.100                   103583677.10446
        20.400    25296193.61346
  23405746.258 7 122998019.780 7        43.400                    95842629.35348
        30.600    23405747.60248
  21749020.797 9 114291894.568 9        48.100    21749027.262 9  89058654.05549
        41.100    21749026.77049  21749022.496 6  85347882.929 6        38.600
 19  2 12  0 54 30.0000000  0 12G01G32G11G18G08G27G14G20G28G16G22G10
  22558487.922 7 118545678.190 7        42.900    22558494.895 7  92373282.62548
        33.300    22558494.43848  22558490.645 5  88524363.611 5        36.500
  22948452.984 8 120594963.600 8        45.600    22948460.020 8  93970109.05749
        34.200    22948459.10949  22948456.363 4  90054617.410 4        34.900
  21718969.648 8 114133965.496 8        47.200                    88935581.82249
        38.100    21718973.16049
  20481756.336 9 107632379.375 9        50.100                    83869414.72249
        42.400    20481760.22349
  20371590.844 9 107053446.898 9        53.800    20371597.746 9  83418297.14749
        50.200    20371596.52749  20371593.570 7  79942520.322 7        42.800
  21218368.602 9 111503301.913 9        51.000    21218374.852 9  86885718.11149
        46.100    21218374.39849  21218371.641 7  83265424.150 7        41.200
  23787913.773 6 125006346.169 6        39.200                    97407550.96246
        24.200    23787917.29346
  23776588.156 5 124946838.518 5        36.000                    97361200.68045
        19.000    23776591.46545
  24517629.898 6 128841019.299 6        38.400                   100395599.78346
        21.100    24517632.75446
  25317654.164 5 133045175.509 5        36.700                   103671571.52445
        17.800    25317658.34045
  23387160.258 7 122900352.436 7        44.300                    95766524.94648
        31.700    23387162.34048
  21762123.086 9 114360744.759 9        48.600    21762128.938 9  89112303.55049
        41.400    21762128.36749  21762124.820 6  85399297.047 6        38.000
 19  2 12  0 55  0.0000000  0 12G01G32G11G18G08G27G14G20G28G16G22G10
  22542915.109 7 118463844.914 7        42.900    22542922.422 8  92309516.45748
        33.700    22542922.30948  22542919.008 5  88463254.374 5        37.100
  22935583.758 8 120527330.853 8        46.300    22935589.789 8  93917408.22649
        34.900    22935589.15249  22935586.066 4  90004112.473 4        34.500
  21703278.680 8 114051508.593 8        47.600                    88871329.69749
        37.900    21703281.77049
  20472336.875 9 107582880.430 9        50.100                    83830844.12349
        43.000    20472340.73849
  20372613.039 9 107058819.696 9        53.700    20372619.859 9  83422483.73249
        50.200    20372619.09049  20372616.039 7  79946532.481 7        42.800
  21231360.313 9 111571575.000 9        51.000    21231367.086 9  86938917.91049
        46.200    21231366.39149  21231363.688 7  83316407.301 7        41.700
  23771765.672 6 124921484.817 6        39.700                    97341425.24546
        24.200    23771768.77046
  23795895.313 4 125048300.019 4        34.300                    97440261.57345
        18.300    23795898.64145
  24504506.102 6 128772056.828 6        38.600                   100341862.80746
        20.400    24504508.62946
  25339106.500 5 133157901.639 5        37.700                   103759409.97345
        17.400    25339108.55945
  23368617.063 7 122802903.456 7        44.900                    95690590.69248
        31.500    23368618.53148
  21775294.617 9 114429962.811 9        48.600    21775300.711 8  89166239.69549
        40.700    21775300.50849  21775296.422 6  85450985.873 6        38.700
 19  2 12  0 55 30.0000000  0 12G01G32G11G18G08G27G14G20G28G16G22G10
  22527378.969 7 118382202.182 7        43.100    22527386.477 8  92245898.76548
        33.600    22527386.11748  22527382.422 5  88402287.434 5        36.600
  22922788.625 8 120460095.320 8        45.400    22922795.523 8  93865016.90049
        34.700    22922794.66449  22922791.355 4  89953904.071 4        34.800
  21687636.063 8 113969305.147 8        47.900                    88807275.07249
        38.100    21687638.91449
  20462984.766 9 107533735.794 9        49.700                    83792549.60849
        42.300    20462988.88349
  20373732.563 9 107064702.920 9        53.500    20373739.582 9  83427068.06249
        50.200    20373738.69949  20373735.695 7  79950925.807 7        43.600
  21244429.672 9 111640253.569 9        51.000    21244436.258 9  86992433.67149
        46.000    21244435.38749  21244432.813 7  83367693.218 7        41.300
  23755656.195 6 124836829.237 6        39.500                    97275459.84546
        24.800    23755659.66846
  23815229.086 4 125149898.721 4        34.800                    97519429.30845
        17.400    23815232.17245
  24491452.727 6 128703459.297 6        38.400                   100288410.12446
        20.100    24491455.98446
  25360543.609 6 133270553.743 6        40.200                   103847191.00346
        21.300    25360545.71546
  23350114.141 7 122705674.283 7        43.400                    95614827.72248
        30.600    23350115.94548
  21788535.594 9 114499546.390 9        48.600    21788541.754 9  89220460.66149
        40.800    21788541.75849  21788537.684 6  85502947.629 6        38.600
 19  2 12  0 56  0.0000000  0 12G01G32G11G18G08G27G14G20G28G16G22G10
  22511879.477 7 118300750.950 7        43.700    22511886.898 8  92182430.28948
        33.100    22511886.61748  22511882.191 5  88341463.451 5        36.900
  22910069.992 8 120393259.760 8        46.600    22910077.262 7  93812937.25549
        34.700    22910076.41049  22910073.238 4  89903994.427 4        34.600
  21672041.875 8 113887357.002 8        47.800                    88743419.37549
        38.000    21672044.52049
  20453700.492 9 107484946.623 9        49.800                    83754532.08449
        42.800    20453704.73849
  20374949.594 9 107071097.626 9        53.700    20374956.469 9  83432050.94749
        50.300    20374955.70349  20374952.301 7  79955701.058 7        42.900
  21257575.625 9 111709336.592 9        50.900    21257582.020 9  87046264.59449
        46.000    21257581.53149  21257578.609 7  83419281.197 7        41.400
  23739586.727 6 124752382.493 6        39.200                    97209657.20247
        25.300    23739590.21547
  23834588.914 5 125251632.53715        35.500                    97598702.45255
        18.600    23834591.17245
  24478468.891 6 128635228.843 6        39.000                   100235243.55746
        20.400    24478471.82046
  25381963.836 3 133383129.059 3        33.600                   103934912.03945
        18.600    25381968.86345
  23331654.594 7 122608666.724 7        43.900                    95539237.43648
        31.400    23331656.31648
  21801846.234 9 114569493.429 9        48.100    21801852.398 9  89274964.84649
        40.600    21801851.95749  21801848.188 6  85555180.773 6        38.900
 19  2 12  0 56 30.0000000  0 12G01G32G11G18G08G27G14G20G28G16G22G10
  22496416.273 8 118219491.965 8        45.100    22496423.926 8  92119111.60749
        35.500    22496423.45349  22496419.605 5  88280783.032 5        36.700
  22897428.508 8 120326826.873 8        46.000    22897435.664 8  93761171.38649
        34.800    22897434.59849  22897431.770 5  89854385.462 5        35.400
  21656496.859 8 113805665.837 8        47.600                    88679763.91849
        37.800    21656499.23849
  20444484.414 9 107436513.867 9        49.900                    83716792.27949
        43.400    20444488.22349
  20376263.773 9 107078003.963 9        53.900    20376270.832 9  83437432.50249
        50.200    20376269.68449  20376266.375 7  79960858.382 7        42.500
  21270798.430 9 111778822.952 9        50.800    21270805.090 9  87100409.80349
        45.700    21270804.28949  21270801.449 7  83471170.350 7        41.000
  23723557.438 6 124668147.639 6        39.400                    97144019.66447
        26.000    23723560.66047
  23853973.680 5 125353499.745 5        35.700                    97678079.50045
        19.000    23853975.98845
  24465555.211 6 128567367.329 6        39.200                   100182364.43146
        21.100    24465557.98446
  25403372.594 5 133495626.21015        37.800                   104022571.96755
        16.900    25403375.75045
  23313237.414 7 122511882.358 7        43.400                    95463821.06448
        31.800    23313238.69548
  21815225.344 9 114639801.674 9        48.300    21815231.652 9  89329750.49449
        41.000    21815231.47749  21815227.105 6  85607683.701 6        38.400
 19  2 12  0 57  0.0000000  0 12G01G32G11G18G08G27G14G20G28G16G22G10
  22480990.180 8 118138425.630 8        46.100    22480997.563 7  92055943.05349
        35.500    22480996.75049  22480993.090 5  88220246.533 5        37.100
  22884863.758 8 120260798.924 8        46.100    22884871.023 8  93709721.04149
        34.900    22884870.02349  22884867.031 5  89805078.859 5        35.500
  21641000.750 9 113724233.000 9        48.200                    88616309.75849
        39.200    21641003.37949
  20435335.633 9 107388437.729 9        50.000                    83679330.34949
        43.600    20435339.73049
  20377675.508 9 107085422.165 9        53.700    20377682.387 9  83443212.91649
        50.300    20377681.30949  20377677.957 7  79966397.946 7        42.500
  21284097.641 9 111848711.049 9        50.800    21284104.223 9  87154868.04549
        45.800    21284103.65649  21284100.910 6  83523359.489 6        40.600
  23707568.844 6 124584127.057 6        39.700                    97078549.08646
        23.900    23707572.21146
  23873383.313 5 125455497.56815        36.300                    97757558.31755
        19.000    23873386.31345
  24452712.500 6 128499876.716 6        40.400                   100129774.36546
        21.300    24452714.69546
  25424765.227 6 133608041.686 6        39.900                   104110168.71445
        18.300    25424766.85945
  23294862.531 7 122415322.305 7        43.900                    95388579.48148
        31.400    23294864.02348
  21828672.836 9 114710468.510 9        48.300    21828679.223 9  89384815.56449
        40.300    21828678.84849  21828674.723 6  85660454.389 6        38.500
 19  2 12  0 57 30.0000000  0 12G01G32G11G18G08G27G14G20G28G16G22G10
  22465600.656 8 118057553.071 8        45.900    22465607.559 8  91992925.48749
        35.100    22465607.25849  22465603.797 5  88159854.688 5        37.100
  22872376.977 8 120195178.929 8        46.000    22872383.816 8  93658588.58549
        34.800    22872382.93049  22872379.988 5  89756076.933 5        35.600
  21625553.203 8 113643060.720 8        47.600                    88553058.63549
        39.600    21625556.87149
  20426255.063 9 107340719.562 9        50.200                    83642147.37049
        43.100    20426259.28549
  20379184.586 9 107093352.880 9        53.500    20379191.672 9  83449392.68949
        50.200    20379190.48449  20379187.145 7  79972320.230 7        42.400
  21297473.031 9 111919000.100 9        51.000    21297479.727 9  87209638.72949
        45.800    21297479.30549  21297476.504 7  83575848.064 7        41.500
  23691621.563 6 124500323.911 6        39.900                    97013247.92647
        25.300    23691625.26647
  23892816.836 5 125557624.524 5        35.500                    97837137.71745
        17.800    23892820.36345
  24439940.016 5 128432759.373 5        37.700                   100077475.13646
        20.900    24439942.77346
  25446140.305 1 133720373.343 1        28.300                   104197699.79844
        14.800    25446144.39144
  23276530.508 7 122318988.627 7        43.800                    95313514.29648
        30.800    23276532.16848
  21842188.414 9 114781492.140 9        48.300    21842194.324 9  89440158.64549
        40.700    21842194.09449  21842190.223 6  85713491.515 6        38.400
 19  2 12  0 58  0.0000000  0 12G01G32G11G18G08G27G14G20G28G16G22G10
  22450247.891 8 117976875.252 8        45.300    22450255.031 8  91930059.66949
        35.600    22450254.46949  22450250.926 5  88099608.321 5        37.400
  22859968.242 8 120129969.713 8        45.900    22859974.797 8  93607776.22249
        35.300    22859973.98849  22859970.859 5  89707381.758 5        35.500
  21610157.336 9 113562150.755 9        48.000                    88490011.92349
        39.400    21610160.18049
  20417243.125 9 107293360.456 9        50.400                    83605244.17149
        43.200    20417247.02049
  20380791.547 9 107101797.349 9        53.600    20380798.387 9  83455972.78449
        50.200    20380797.24249  20380794.129 7  79978626.161 7        42.900
  21310925.008 9 111989689.109 9        51.300    21310931.422 9  87264721.06649
        45.700    21310930.93049  21310928.160 7  83628635.295 7        41.300
  23675715.859 6 124416741.478 6        39.400                    96948118.76846
        24.500    23675719.72746
  23912274.891 4 125659878.545 4        34.800                    97916816.17145
        16.900    23912278.43045
  24427239.016 6 128366017.377 6        38.000                   100025468.36845
        19.300    24427241.50045
  25467501.891 6 133832619.19216        38.700                   104285167.92456
        22.300    25467503.83246
  23258242.273 7 122222882.981 7        43.900                    95238626.79848
        31.900    23258244.05948
  21855771.086 8 114852870.517 8        47.900    21855777.816 8  89495778.15549
        40.400    21855776.91049  21855772.617 6  85766793.546 6        38.400
 19  2 12  0 58 30.0000000  0 13G01G32G11G18G03G08G27G14G20G28G16G22
                                G10
  22434932.438 8 117896392.315 8        45.700    22434939.852 8  91867345.71049
        35.600    22434939.25049  22434935.328 5  88039507.430 5        37.400
  22847637.281 8 120065173.233 8        45.500    22847644.418 8  93557285.46549
        35.700    22847643.87549  22847640.184 4  89658994.792 4        34.800
  21594810.633 9 113481504.590 9        48.200                    88427170.76949
        38.600    21594813.67649
  20408298.914 9 107246360.341 9        49.800                    83568620.71149
        43.100    20408303.14149
  25116115.555 5 131986078.90015        35.300    25116123.543 7 102846322.63056
        21.800    25116122.69546
  20382495.922 9 107110754.604 9        53.700    20382503.055 9  83462952.46049
        50.200    20382501.93449  20382498.820 7  79985314.999 7        42.600
  21324452.422 9 112060776.220 9        50.900    21324458.840 9  87320113.61249
        45.600    21324458.19549  21324455.715 7  83681719.820 7        41.400
  23659853.313 6 124333382.391 6        39.800                    96883163.64147
        25.300    23659857.03147
  23931757.375 3 125762257.18813        32.600                    97996591.79554
        14.800    23931759.84444
  24414610.844 6 128299652.202 6        38.900                    99973755.21646
        20.900    24414612.24646
  25488843.297 6 133944775.427 6        38.900                   104372562.47845
        16.300    25488845.75845
  23239997.609 7 122127006.311 7        43.400                    95163917.72048
        31.900    23239999.23848
  21869420.781 8 114924600.767 8        47.500    21869427.188 9  89551671.85849
        39.800    21869426.74249  21869422.727 6  85820358.343 6        38.300
 19  2 12  0 59  0.0000000  0 13G01G32G11G18G03G08G27G14G20G28G16G22
                                G10
  22419654.297 8 117816105.661 8        45.800    22419661.750 8  91804784.70649
        36.400    22419661.72749  22419657.758 5  87979553.167 5        37.100
  22835386.344 8 120000792.730 8        46.200    22835393.324 8  93507118.85649
        35.100    22835392.10249  22835389.301 5  89610918.471 5        35.100
  21579514.422 9 113401124.545 9        48.500                    88364536.95849
        39.000    21579517.58249
  20399423.961 9 107199720.641 9        49.800                    83532278.09249
        42.800    20399427.75849
  25094552.617 5 131872761.936 5        36.900    25094560.090 6 102758023.71246
        21.800    25094559.25046  25094557.895 1  98476411.53011        30.600
  20384298.484 9 107120226.144 9        53.700    20384305.348 9  83470332.88049
        50.300    20384304.37549  20384301.125 7  79992387.910 7        42.400
  21338055.336 9 112132260.850 9        50.800    21338062.090 9  87375815.90849
        45.400    21338061.19549  21338058.582 7  83735101.159 7        41.100
  23644033.258 6 124250249.142 6        39.500                    96818384.50147
        25.100    23644037.35547
  23951261.461 3                        33.000
        16.900    23951265.73845
  24402054.602 6 128233666.561 6        39.900                    99922337.82546
        20.100    24402055.39146
  25510166.742 1 134056841.610 1        29.600                   104459886.86645
        15.600    25510170.17245
  23221796.586 7 122031360.939 7        44.900                    95089388.87748
        32.300    23221798.34448
  21883137.586 8 114996681.287 8        47.900    21883143.742 9  89607838.49949
        39.900    21883143.25449  21883138.793 6  85874184.692 6        38.200
 19  2 12  0 59 30.0000000  0 12G01G32G11G18G03G08G27G14G20G28G22G10
  22404414.039 8 117736016.306 8        45.800    22404421.324 8  91742377.43549
        36.200    22404421.05549  22404417.074 5  87919746.183 5        37.300
  22823214.930 8 119936831.028 8        45.400    22823221.738 8  93457278.57449
        34.600    22823220.68849  22823217.383 5  89563154.869 5        35.300
  21564269.938 9 113321012.451 9        48.200                    88302111.96049
        38.600    21564272.97749
  20390617.273 9 107153442.469 9        49.900                    83496217.18249
        43.200    20390621.48049
  25073000.844 4 131759508.047 4        34.700    25073009.234 7 102669773.92346
        21.300    25073007.58246  25073005.855 1  98391838.82811        29.700
  20386198.820 9 107130212.783 9        53.500    20386205.664 9  83478114.66449
        50.100    20386204.66849  20386201.688 7  79999845.451 7        43.000
  21351734.125 9 112204141.936 9        51.000    21351740.578 9  87431827.13749
        45.300    21351739.85249  21351737.000 7  83788778.624 7        41.000
  23628257.953 6 124167345.376 6        40.200                    96753784.16047
        25.800    23628261.12547
  23970791.250 3 125967382.17713        32.200                    98156429.34855
        16.300    23970794.71145
  24389570.023 6 128168062.614 6        39.100                    99871217.84746
        20.600    24389572.12946
  23203640.336 7 121935948.718 7        43.800                    95015041.70248
        31.500    23203641.98048
  21896920.352 8 115069110.030 8        47.800    21896926.480 9  89664276.48249
        39.600    21896926.09049  21896921.758 6  85928271.104 6        38.100
 19  2 12  1  0  0.0000000  0 11G01G32G11G18G03G08G27G14G28G22G10
  22389210.898 8 117656124.311 8        45.300    22389218.348 8  91680123.95149
        35.900    22389217.60949  22389213.754 5  87860086.607 5        37.200
  22811123.695 8 119873290.016 8        46.000    22811130.367 8  93407766.10849
        35.500    22811129.71149  22811126.156 5  89515705.431 5        35.300
  21549076.641 9 113241169.388 9        48.100                    88239896.58849
        38.600    21549079.37549
  20381879.773 9 107107525.874 9        50.000                    83460438.01449
        43.000    20381883.96549
  25051461.805 5 131646318.385 5        36.000    25051469.266 6 102581574.22146
        22.200    25051468.61346  25051467.152 3  98307314.11813        32.100
  20388196.992 9 107140713.928 9        53.400    20388204.063 9  83486297.36949
        50.100    20388202.96949  20388200.012 7  80007687.208 7        42.800
  21365487.781 9 112276417.611 9        50.800    21365494.285 9  87488145.83949
        45.400    21365493.48849  21365490.633 6  83842750.708 6        40.800
  23612525.813 6 124084673.449 6        40.500                    96689364.47047
        26.700    23612529.61747
  24377158.852 6 128102841.664 6        39.100                    99820396.33746
        21.300    24377161.57046
  23185528.984 7 121840770.107 7        43.700                    94940876.57148
        32.000    23185530.14848
  21910769.047 9 115141884.134 9        48.000    21910774.563 9  89720983.56449
        40.100    21910774.44149  21910770.254 6  85982615.393 6        38.100
 19  2 12  1  0 30.0000000  0 12G01G32G11G18G03G08G27G14G20G28G22G10
  22374045.336 8 117576430.137 8        45.800    22374052.797 8  91618024.61349
        36.900    22374052.46549  22374048.777 5  87800574.726 5        36.900
  22799112.602 8 119810171.920 8        45.500    22799119.254 8  93358583.17349
        34.800    22799118.52749  22799115.082 5  89468571.804 5        35.300
  21533933.977 9 113161596.874 9        48.000                    88177892.03449
        39.100    21533937.25849
  20373211.086 9 107061971.525 9        50.000                    83424941.11849
        43.300    20373215.33649
  25029935.273 4 131533194.399 4        34.700    25029942.602 6 102493425.66145
        19.900    25029941.37945  25029939.711 1  98222838.395 1        29.000
  20390293.383 9 107151729.802 9        53.600    20390300.211 9  83494881.16049
        50.400    20390299.32049  20390296.234 7  80015913.340 7        43.000
  21379316.039 9 112349086.281 9        50.700    21379322.621 9  87544770.76049
        45.500    21379321.95349  21379319.125 7  83897016.262 7        41.200
  23596838.586 6 124002235.794 6        39.900                    96625127.34847
        25.600    23596841.78547
  24009915.273 1                        28.900

  24364821.234 6 128038005.521 6        39.900                    99769874.65746
        21.500    24364824.14546
  23167461.406 7 121745826.920 7        43.300                    94866894.87848
        32.100    23167463.10948
  21924682.727 9 115215000.961 9        48.100    21924688.531 9  89777957.71149
        40.400    21924688.19149  21924683.906 6  86037215.618 6        38.500
 19  2 12  1  1  0.0000000  0 11G01G32G11G18G03G08G27G14G28G22G10
  22358918.281 8 117496935.279 8        46.100    22358925.598 8  91556080.60349
        36.600    22358925.53549  22358921.680 5  87741211.718 5        37.200
  22787182.352 8 119747480.072 8        45.300    22787189.426 8  93309732.40349
        35.200    22787188.40249  22787185.164 5  89421756.440 5        35.400
  21518844.016 9 113082297.680 9        48.000                    88116100.46349
        39.200    21518846.93049
  20364611.508 9 107016780.990 9        49.900                    83389727.71149
        43.200    20364615.73049
  25008420.555 5 131420138.528 5        35.100    25008428.383 6 102405330.20446
        20.900    25008427.90646  25008426.086 1  98138413.57611        29.800
  20392487.734 9 107163261.082 9        53.400    20392494.699 9  83503866.56249
        50.100    20392493.76249  20392490.633 7  80024524.352 7        43.000
  21393219.070 9 112422147.435 9        50.500    21393225.668 9  87601701.52449
        45.300    21393224.98449  21393222.418 6  83951574.883 6        40.900
  23581195.797 6 123920035.964 6        39.900                    96561075.55547
        26.300    23581199.78547
  24352556.961 6 127973556.786 6        38.200                    99719654.87746
        21.500    24352559.69146
  23149439.305 7 121651121.246 7        43.600                    94793098.27448
        32.900    23149441.07448
  21938661.055 8 115288459.125 8        47.900    21938667.031 9  89835197.83749
        39.700    21938666.58649  21938662.480 6  86092070.752 6        38.100
 19  2 12  1  1 30.0000000  0 12G01G32G11G18G03G08G27G14G20G28G22G10
  22343829.164 8 117417639.993 8        45.900    22343835.914 8  91494292.07449
        37.000    22343835.77349  22343831.824 5  87681997.742 5        37.100
  22775333.766 8 119685216.441 8        45.500    22775340.836 8  93261215.29149
        35.100    22775340.03949  22775336.563 5  89375260.893 5        35.100
  21503806.359 9 113003272.672 9        48.200                    88054522.53649
        39.400    21503808.95349
  20356081.305 9 106971954.179 9        50.000                    83354797.74149
        43.600    20356085.41849
  24986921.234 5 131307152.036 5        35.200    24986927.891 6 102317288.84445
        19.000    24986927.72345  24986926.168 2  98054040.614 2        31.600
  20394780.258 9 107175307.992 9        53.500    20394787.066 9  83513253.76049
        50.100    20394786.09449  20394782.973 7  80033520.426 7        42.500
  21407196.563 9 112495599.207 9        50.700    21407203.094 9  87658936.65749
        45.100    21407202.31649  21407199.770 7  84006425.221 7        41.300
  23565599.859 7 123838076.274 7        41.700                    96497210.85147
        27.200    23565603.45347
  24049126.523 1                        30.500

  24340367.320 6 127909496.686 6        40.000                    99669737.91246
        20.400    24340369.14146
  23131463.180 7 121556653.868 7        44.300                    94719487.35148
        32.900    23131464.58248
  21952704.164 9 115362255.746 9        48.000    21952709.945 9  89892701.69549
        40.400    21952709.62149  21952705.777 6  86147178.593 6        38.300
 19  2 12  1  2  0.0000000  0 12G01G32G11G18G03G08G27G14G20G28G22G10
  22328777.133 8 117338545.773 8        45.600    22328784.898 8  91432660.21949
        35.800    22328784.71149  22328780.625 5  87622933.846 5        36.700
  22763567.805 8 119623384.271 8        45.900    22763574.375 8  93213034.39449
        35.700    22763573.74249  22763570.816 5  89329087.501 5        36.300
  21488820.531 9 112924524.465 9        48.100                    87993160.30049
        39.200    21488823.91449
  20347620.961 9 106927493.024 9        50.300                    83320152.69049
        44.000    20347624.79749
  24965433.766 5 131194237.397 5        35.400    24965441.320 7 102229303.39446
        20.900    24965440.46546  24965438.609 1  97969721.27811        28.000
  20397170.734 9 107187871.597 9        53.500    20397178.020 9  83523043.57449
        50.000    20397176.86349  20397173.789 7  80042902.322 7        42.900
  21421248.352 9 112569441.072 9        50.800    21421254.688 9  87716475.77549
        45.000    21421253.94149  21421251.254 6  84061566.889 6        40.800
  23550049.844 7 123756360.264 7        41.400                    96433536.05747
        26.700    23550053.43447
  24068764.266 3                        32.200

  24328250.281 6 127845828.546 6        38.700                    99620126.33546
        20.600    24328253.26646
  23113532.492 7 121462427.297 7        44.700                    94646064.05848
        32.700    23113533.90248
  21966811.320 8 115436389.311 8        47.900    21966817.250 9  89950468.12249
        40.600    21966816.98049  21966813.000 5  86202538.112 5        37.900
 19  2 12  1  2 30.0000000  0 12G01G32G11G18G03G08G27G14G20G28G22G10
  22313764.406 8 117259652.189 8        45.700    22313772.375 8  91371184.71749
        36.800    22313771.87549  22313767.676 5  87564019.855 5        36.800
  22751883.828 8 119561984.875 8        45.900    22751890.688 8  93165190.70749
        35.800    22751889.89849  22751886.746 5  89283237.305 5        35.200
  21473888.508 9 112846053.752 9        48.200                    87932014.29849
        39.200    21473891.33649
  20339229.563 9 106883396.629 9        50.000                    83285791.86449
        43.600    20339233.65249
  24943960.180 3 131081395.097 3        33.800    24943967.980 6 102141374.40245
        19.900    24943966.73045  24943965.172 2  97885455.97612        31.900
  20399659.781 9 107200950.947 9        53.400    20399666.824 9  83533235.27149
        50.000    20399665.71549  20399662.688 7  80052669.370 7        42.800
  21435373.352 9 112643670.522 9        50.500    21435380.270 9  87774316.89549
        45.100    21435379.22749  21435376.551 7  84116997.965 7        41.400
  23534546.414 7 123674889.543 7        41.500                    96370052.36347
        26.800    23534550.11747
  24088424.750 2                        31.300

  24316210.102 6 127782552.296 6        38.600                    99570820.16746
        21.500    24316212.91846
  23095647.211 7 121368441.545 7        43.400                    94572828.41648
        32.900    23095649.10948
  21980981.813 8 115510856.430 8        47.300    21980987.945 9  90008494.43749
        39.700    21980987.90649  21980983.684 5  86258146.626 5        37.600
 19  2 12  1  3  0.0000000  0 12G01G32G11G18G03G08G27G14G20G28G22G10
  22298790.250 8 117180960.201 8        46.300    22298797.211 8  91309866.31649
        36.500    22298797.25049  22298793.125 5  87505256.376 5        36.700
  22740282.953 8 119501020.969 8        45.900    22740290.020 8  93117686.37349
        35.100    22740288.85549  22740286.055 5  89237712.325 5        35.700
  21459009.023 9 112767862.339 9        48.300                    87871085.92349
        39.400    21459012.20349
  20330907.961 9 106839666.208 9        50.300                    83251716.20849
        43.600    20330912.04349
  24922501.922 5 130968627.306 5        35.900    24922508.414 6 102053503.33145
        19.600    24922507.42245  24922506.742 1  97801246.237 1        30.600
  20402247.125 9 107214546.296 9        53.500    20402253.855 9  83543829.04649
        50.100    20402252.85949  20402249.621 7  80062821.729 7        42.500
  21449572.500 9 112718286.431 9        50.500    21449579.059 9  87832459.15249
        44.800    21449578.46149  21449575.430 6  84172717.624 6        40.700
  23519089.617 7 123593667.278 7        42.000                    96306762.30947
        27.600    23519093.82447
  24108103.094 1                        30.500

  24304243.875 6 127719670.514 6        38.200                    99521821.36446
        21.700    24304246.74246
  23077808.836 7 121274698.616 7        43.700                    94499782.00548
        33.000    23077810.39548
  21995215.492 9 115585654.988 9        48.100    21995221.637 8  90066779.02749
        39.800    21995220.88349  21995217.156 6  86314002.707 6        38.300
 19  2 12  1  3 30.0000000  0 11G01G32G11G18G03G08G27G14G28G22G10
  22283854.672 8 117102472.429 8        46.600    22283861.539 8  91248707.02249
        37.300    22283861.26649  22283858.137 5  87446645.407 5        37.900
  22728765.766 8 119440496.834 8        46.000    22728772.445 8  93070524.71949
        36.200    22728771.69549  22728768.203 5  89192515.759 5        35.600
  21444183.477 9 112689954.071 9        48.100                    87810378.19049
        39.300    21444186.41849
  20322656.289 9 106796304.527 9        50.200                    83217927.88749
        43.400    20322660.51249
  24901055.867 3 130855937.306 3        32.300    24901065.332 7 101965693.03146
        20.100    24901064.07446  24901062.238 1  97717094.648 1        29.600
  20404932.773 9 107228660.000 9        53.600    20404939.703 9  83554826.72649
        50.300    20404938.55949  20404935.367 7  80073361.157 7        42.600
  21463845.094 9 112793289.315 9        50.500    21463851.559 9  87890902.95649
        44.900    21463851.00849  21463848.234 6  84228726.270 6        40.700
  23503682.469 7 123512698.118 7        41.700                    96243669.44747
        27.500    23503685.92247
  24292353.484 6 127657186.763 6        39.400                    99473132.73145
        19.900    24292356.22745
  23060017.164 7 121181201.805 7        44.300                    94426927.36948
        33.200    23060018.67648
  22009511.922 8 115660784.608 8        47.500    22009518.484 8  90125321.58449
        39.200    22009517.86349  22009513.652 5  86370105.954 5        37.700
 19  2 12  1  4  0.0000000  0 11G01G32G11G18G03G08G27G14G28G22G10
  22268957.555 8 117024188.615 8        46.600    22268964.938 8  91187706.66949
        37.100    22268964.50849  22268960.543 5  87388186.754 5        37.500
  22717331.852 8 119380413.870 8        46.500    22717338.844 8  93023706.83649
        35.500    22717338.09449  22717334.875 5  89147648.639 5        35.500
  21429411.852 9 112612329.471 9        48.100                    87749891.49549
        39.600    21429414.87149
  20314474.586 9 106753311.077 9        49.700                    83184426.51049
        43.500    20314479.04749
  24879628.578 5 130743326.132 5        35.000    24879635.336 6 101877944.03545
        19.600    24879634.77045  24879633.555 2  97633001.880 2        31.700
  20407716.914 9 107243291.228 9        53.500    20407723.988 9  83566227.68449
        50.000    20407722.92249  20407719.977 7  80084287.080 7        42.800
  21478190.828 9 112868676.742 9        50.500    21478197.484 9  87949646.40149
        45.600    21478196.78949  21478194.266 7  84285022.067 7        41.100
  23488322.867 7 123431983.943 7        42.200                    96180775.27647
        27.400    23488326.16447
  24280539.508 6 127595102.025 6        39.500                    99424755.00346
        21.100    24280541.19546
  23042271.828 7 121087951.235 7        44.600                    94354264.59548
        33.800    23042273.35248
  22023871.453 8 115736241.934 8        47.600    22023877.395 9  90184119.48749
        40.500    22023877.08649  22023872.746 5  86426453.972 5        37.400
 19  2 12  1  4 30.0000000  0 11G01G32G11G18G03G08G27G14G28G22G10
  22254098.922 8 116946108.631 8        46.400    22254106.852 8  91126865.14749
        36.900    22254106.51649  22254101.977 5  87329880.271 5        37.800
  22705982.844 8 119320773.706 8        46.300    22705989.664 8  92977233.99949
        35.100    22705988.75849  22705985.570 5  89103112.149 5        35.300
  21414694.750 9 112534989.598 9        48.600                    87689626.66149
        40.200    21414697.66849
  20306363.633 9 106710685.926 9        50.200                    83151212.10649
        43.700    20306367.62949
  24858213.664 5 130630794.353 5        35.300    24858221.879 6 101790256.97446
        20.900    24858220.25446  24858218.484 1  97548968.416 1        28.900
  20410599.680 9 107258439.328 9        53.800    20410606.402 9  83578031.38949
        50.100    20410605.51249  20410602.348 7  80095598.982 7        42.700
  21492609.320 9 112944446.542 9        50.400    21492615.938 9  88008687.80049
        45.100    21492615.25449  21492612.613 6  84341603.390 6        40.500
  23473012.266 6 123351526.683 6        40.700                    96118081.31247
        27.500    23473016.28947
  24268801.055 6 127533417.238 6        39.200                    99376688.93946
        22.300    24268803.41846
  23024573.875 7 120994947.965 7        44.400                    94281794.52648
        33.500    23024575.49248
  22038292.273 8 115812023.900 8        47.500    22038298.113 8  90243170.36649
        40.600    22038297.72749  22038293.895 5  86483044.388 5        37.300
 19  2 12  1  5  0.0000000  0 11G01G32G11G18G03G08G27G14G28G22G10
  22239279.938 8 116868234.777 8        46.400    22239287.738 8  91066184.23449
        37.000    22239287.54749  22239283.555 5  87271727.745 5        37.500
  22694719.039 8 119261580.267 8        46.300    22694725.520 8  92931109.25349
        35.600    22694724.38349  22694721.508 5  89058909.281 5        35.700
  21400032.586 9 112457937.812 9        48.500                    87629586.31049
        39.800    21400035.24649
  20298322.742 9 106668431.111 9        49.900                    83118286.28149
        43.700    20298327.04349
  24836815.469 4 130518345.456 4        34.600    24836822.445 5 101702634.40845
        18.300    24836822.34045  24836821.410 3  97464996.80313        32.500
  20413580.805 9 107274106.319 9        54.100    20413587.945 9  83590239.43049
        50.100    20413586.80549  20413583.719 7  80107298.338 7        42.900
  21507100.703 9 113020598.871 9        50.300    21507107.285 9  88068027.26449
        44.400    21507106.57849  21507103.664 6  84398470.383 6        40.400
  23457751.328 7 123271330.523 7        41.800                    96055590.82547
        27.300    23457755.52047
  24257139.117 6 127472135.952 6        39.700                    99328937.26546
        21.100    24257141.46946
  23006923.813 7 120902194.713 7        44.300                    94209519.28148
        33.700    23006925.17248
  22052774.492 8 115888129.749 8        47.200    22052780.301 8  90302473.63349
        38.900    22052780.19149  22052776.746 5  86539876.698 5        37.300
 19  2 12  1  5 30.0000000  0 11G01G32G11G18G03G08G27G14G28G22G10
  22224500.828 8 116790566.608 8        46.400    22224507.809 8  91005663.60249
        37.300    22224507.44949  22224503.844 5  87213728.779 5        37.500
  22683540.008 8 119202834.744 8        46.000    22683546.297 8  92885333.51049
        35.800    22683545.73449  22683542.887 5  89015040.888 5        35.600
  21385424.797 9 112381174.630 9        48.700                    87569770.84549
        39.900    21385428.01249
  20290352.773 9 106626546.413 9        50.300                    83085648.86049
        43.800    20290356.60949
  24815433.531 5 130405979.822 5        37.200    24815441.539 6 101615076.72046
        21.300    24815440.49246  24815438.547 1  97381087.51711        27.300
  20416660.719 9 107290290.635 9        53.600    20416667.508 9  83602850.58049
        50.100    20416666.56349  20416663.520 7  80119384.025 7        43.200
  21521663.953 9 113097131.095 9        50.500    21521670.719 9  88127662.75649
        44.700    21521670.11749  21521667.176 6  84455621.072 6        40.700
  23442540.734 7 123191397.218 7        42.000                    95993305.14547
        26.500    23442544.26647
  24245554.531 6 127411258.647 6        38.900                    99281500.43146
        21.700    24245557.93446
  22989321.313 8 120809691.892 8        45.000                    94137439.18849
        34.200    22989322.32849
  22067317.914 8 115964555.958 8        47.500    22067324.203 9  90362026.51849
        40.200    22067323.66049  22067319.473 5  86596948.185 5        37.300
 19  2 12  1  6  0.0000000  0 11G01G32G11G18G03G08G27G14G28G22G10
  22209759.969 8 116713105.060 8        47.000    22209767.500 8  90945303.96949
        37.900    22209767.17649  22209763.500 5  87155884.186 5        37.300
  22672446.430 8 119144539.713 8        45.800    22672453.289 8  92839908.83149
        35.000    22672452.63749  22672449.105 5  88971508.850 5        35.600
  21370872.492 9 112304701.853 9        48.700                    87510181.67649
        40.100    21370875.58649
  20282452.930 9 106585032.702 9        50.500                    83053300.51349
        44.100    20282456.68049
  24794067.477 5 130293699.394 5        35.800    24794074.473 6 101527585.59646
        20.100    24794074.37546
  20419838.938 9 107306992.878 9        53.700    20419846.125 9  83615865.30349
        50.200    20419845.02749  20419841.746 7  80131856.475 7        42.800
  21536299.820 9 113174042.006 9        50.400    21536306.402 9  88187593.33249
        44.700    21536305.88749  21536302.836 6  84513054.543 6        40.500
  23427380.242 7 123111729.677 7        43.000                    95931226.52947
        29.000    23427384.28547
  24234047.773 6 127350787.474 6        39.300                    99234380.04846
        21.100    24234050.46146
  22971766.055 8 120717441.148 8        45.300                    94065555.50249
        34.200    22971767.80549
  22081921.508 8 116041300.480 8        47.400    22081927.750 8  90421827.44449
        39.200    22081927.46949  22081923.461 5  86654257.408 5        37.300
 19  2 12  1  6 30.0000000  0 11G01G32G11G18G03G08G27G14G28G22G10
  22195059.438 8 116635851.627 8        47.600    22195066.785 8  90885106.51849
        37.900    22195066.34849  22195062.301 5  87098194.946 5        37.500
  22661439.305 8 119086698.289 8        45.700    22661446.406 8  92794837.60449
        35.200    22661445.86349  22661442.824 5  88928315.604 5        35.500
  21356376.008 9 112228522.284 9        48.400                    87450820.98049
        40.100    21356379.00449
  20274623.898 9 106543891.159 9        50.400                    83021242.17449
        43.800    20274627.58649
  24772717.570 4 130181506.748 4        34.700    24772725.336 6 101440162.50045
        19.300    24772722.93445  24772723.668 2  97213456.34812        31.200
  20423116.266 9 107324214.066 9        53.700    20423123.184 9  83629284.40649
        50.100    20423122.05949  20423118.695 7  80144716.461 7        42.200
  21551007.367 9 113251330.948 9        50.600    21551014.164 9  88247818.47249
        44.600    21551013.28549  21551010.840 6  84570770.281 6        40.400
  23412271.602 7 123032331.103 7        41.800                    95869357.52247
        26.800    23412275.37147
  24222618.023 6 127290724.951 6        39.600                    99187578.07246
        22.300    24222621.41446
  22954259.945 8 120625444.649 8        45.500                    93993869.93248
        33.900    22954261.33248
  22096586.273 8 116118361.761 8        47.400    22096592.293 8  90481875.19549
        39.300    22096591.91449  22096588.125 5  86711803.162 5        36.900
 19  2 12  1  7  0.0000000  0 11G01G32G11G18G03G08G27G14G28G22G10
  22180398.156 9 116558806.380 9        48.400    22180405.234 8  90825071.28249
        37.600    22180404.80949  22180400.984 5  87040661.180 5        37.300
  22650519.641 8 119029312.120 8        45.900    22650526.402 8  92750121.11749
        36.100    22650525.87549  22650523.121 5  88885462.351 5        35.800
  21341935.281 9 112152636.898 9        48.200                    87391689.51849
        40.200    21341938.13749
  20266865.813 9 106503122.254 9        50.500                    82989474.19149
        43.900    20266869.49649
  24751385.609 6 130069402.713 6        40.900    24751393.320 7 101352808.83347
        27.600    24751392.82047
  20426491.711 9 107341953.386 9        53.700    20426498.699 9  83643107.24949
        50.000    20426497.69549  20426494.531 7  80157963.340 7        42.600
  21565786.586 9 113328995.806 9        50.100    21565793.152 9  88308336.53849
        44.500    21565792.47349  21565789.914 6  84628766.773 6        40.300
  23397213.602 7 122953204.177 7        41.500                    95807700.17847
        27.500    23397218.20347
  24211267.195 6 127231072.186 6        39.600                    99141095.40946
        21.800    24211269.57046
  22936802.422 8 120533703.164 8        45.200                    93922383.07749
        34.100    22936803.37949
  22111310.156 8 116195736.817 8        47.300    22111316.211 9  90542167.44149
        38.500    22111316.17249  22111311.898 5  86769583.210 5        37.000
 19  2 12  1  7 30.0000000  0 11G01G32G11G18G03G08G27G14G28G22G10
  22165776.789 8 116481970.168 8        47.400    22165783.383 8  90765198.89749
        38.000    22165783.53949  22165779.930 5  86983283.444 5        37.700
  22639686.305 8 118972383.675 8        46.900    22639693.266 8  92705761.30349
        36.500    22639692.39549  22639689.402 5  88842950.841 5        35.700
  21327551.859 9 112077047.622 9        48.500                    87332788.78949
        40.200    21327554.00449
  20259178.586 9 106462726.642 9        50.500                    82957997.08449
        44.100    20259182.57049
  24730068.906 3 129957389.441 3        33.700    24730075.512 5 101265525.54045
        17.400    24730075.08245
  20429966.031 9 107360211.352 9        53.700    20429973.176 9  83657334.22349
        50.300    20429971.97749  20429968.824 7  80171597.528 7        42.600
  21580637.008 9 113407035.234 9        50.300    21580643.500 9  88369146.47049
        44.600    21580643.16049  21580640.188 6  84687042.959 6        40.800
  23382208.781 7 122874351.564 7        42.000                    95746256.59847
        28.300    23382212.85547
  24199993.148 6 127171831.316 6        39.200                    99094933.64746
        23.000    24199995.85246
  22919392.914 7 120442218.151 7        44.800                    93851096.07049
        34.800    22919394.37149
  22126093.453 8 116273423.504 8        47.000    22126099.387 8  90602702.51649
        38.200    22126099.23449  22126095.391 5  86827596.009 5        37.400
 19  2 12  1  8  0.0000000  0 11G01G32G11G18G03G08G27G14G28G22G10
  22151195.148 9 116405344.359 9        49.000    22151202.418 8  90705490.49149
        38.200    22151201.84449  22151198.598 5  86926062.973 5        37.800
  22628940.984 8 118915915.903 8        47.500    22628947.500 8  92661760.45149
        36.400    22628946.79749  22628943.438 5  88800783.328 5        35.600
  21313223.961 9 112001756.765 9        49.200                    87274120.58849
        39.900    21313226.76249
  20251562.727 9 106422705.598 9        50.000                    82926811.86449
        43.600    20251566.93049
  24708772.453 7 129845468.791 7        42.700    24708779.543 7 101178314.74147
        26.300    24708779.17247
  20433539.445 9 107378988.524 9        54.000    20433546.164 9  83671965.78149
        50.100    20433545.14849  20433542.168 7  80185619.429 7        43.000
  21595558.555 9 113485448.451 9        50.000    21595565.305 9  88430247.67249
        44.500    21595564.87149  21595561.840 6  84745598.278 6        40.400
  23367256.656 7 122795776.136 7        42.600                    95685029.00547
        26.900    23367260.73447
  24188798.414 6 127113004.205 6        39.900                    99049094.36046
        22.000    24188802.60946
  22902033.266 7 120350991.742 7        44.600                    93780010.57949
        34.200    22902034.60949
  22140935.781 8 116351420.154 8        46.800    22140941.891 8  90663479.12349
        37.900    22140941.39849  22140937.363 5  86885840.258 5        37.100
 19  2 12  1  8 30.0000000  0 11G01G32G11G18G03G08G27G14G28G22G10
  22136653.477 8 116328929.142 8        47.000    22136661.035 8  90645946.17749
        38.600    22136661.01249  22136656.973 5  86868999.639 5        37.600
  22618283.406 8 118859910.490 8        47.100    22618290.148 8  92618119.87549
        36.300    22618289.42649  22618285.738 5  88758961.149 5        35.900
  21298953.617 9 111926765.472 9        49.000                    87215685.81949
        40.500    21298956.71149
  20244018.117 9 106383059.118 9        50.200                    82895918.51049
        43.800    20244022.36749
  24687491.750 5 129733642.277 5        36.200    24687499.699 6 101091177.14746
        21.100    24687498.48446
  20437211.273 9 107398284.390 9        54.000    20437218.164 9  83687001.51549
        50.200    20437217.14549  20437213.996 7  80200028.674 7        43.000
  21610550.891 9 113564233.287 9        50.200    21610557.672 9  88491638.44949
        44.600    21610556.78549  21610553.941 6  84804431.097 6        39.900
  23352357.578 7 122717480.847 7        42.400                    95624019.68447
        27.500    23352361.44147
  24177683.766 6 127054592.744 6        39.200                    99003578.91246
        22.600    24177686.77046
  22884722.406 7 120260024.750 7        44.900                    93709127.21649
        34.700    22884724.42249
  22155836.086 8 116429723.891 8        46.800    22155842.574 8  90724495.02249
        38.600    22155842.25049  22155838.215 5  86944313.840 5        37.100
 19  2 12  1  9  0.0000000  0 12G01G32G11G18G03G08G27G14G20G28G22G10
  22122152.867 9 116252725.735 9        49.100    22122160.191 8  90586566.91749
        38.100    22122160.05549  22122156.375 5  86812094.516 5        37.800
  22607714.000 8 118804370.198 8        46.500    22607721.180 8  92574841.73749
        35.800    22607720.23449  22607717.422 5  88717486.274 5        35.900
  21284740.680 9 111852076.215 9        48.800                    87157486.39749
        39.900    21284743.56349
  20236545.250 9 106343788.716 9        50.200                    82865318.19249
        43.800    20236549.40649
  24666230.578 6 129621911.989 6        38.700    24666238.121 6 101004114.55746
        22.900    24666237.38746
  20440982.000 9 107418099.585 9        53.500    20440988.910 9  83702441.91749
        50.100    20440987.91049  20440984.648 7  80214825.723 7        42.700
  21625613.398 9 113643388.865 9        50.100    21625620.324 9  88553318.10949
        44.100    21625619.43049  21625616.602 6  84863540.765 6        40.900
  23337511.852 7 122639468.388 7        41.400                    95563230.77347
        27.100    23337515.90247
  24345693.414 2 127937526.67712        31.500

  24166648.688 6 126996598.841 6        40.900                    98958388.86246
        22.800    24166651.32446
  22867461.922 8 120169318.790 8        45.500                    93638447.26049
        34.500    22867463.67249
  22170795.344 8 116508332.867 8        46.900    22170801.500 8  90785748.77049
        38.400    22170800.85949  22170797.102 5  87003015.325 5        37.300
 19  2 12  1  9 30.0000000  0 12G01G32G11G18G03G08G27G14G20G28G22G10
  22107692.352 9 116176734.724 9        49.700    22107699.543 8  90527353.15349
        38.500    22107699.24249  22107695.184 5  86755347.992 5        37.900
  22597234.289 8 118749297.113 8        46.100    22597241.355 8  92531927.67149
        35.800    22597240.57049  22597237.250 5  88676360.280 5        35.800
  21270585.438 9 111777690.536 9        48.900                    87099523.53249
        40.700    21270588.39849
  20229143.992 9 106304894.589 9        50.400                    82835011.08049
        44.000    20229148.21949
  24644987.734 6 129510279.356 6        39.000    24644995.004 6 100917128.06046
        22.500    24644994.14146
  20444851.359 9 107438433.682 9        53.600    20444858.449 9  83718286.66449
        50.000    20444857.41849  20444854.227 7  80230010.285 7        42.900
  21640746.813 9 113722913.453 9        50.300    21640753.199 9  88615285.31449
        44.300    21640752.52049  21640749.996 6  84922926.006 6        40.300
  23322721.711 7 122561741.600 7        42.500                    95502664.44347
        28.100    23322725.12547
  24365603.750 3 128042149.11413        32.500

  24155691.883 6 126939023.908 6        39.400                    98913525.27546
        22.800    24155694.43046
  22850251.336 8 120078875.393 8        45.300                    93567971.89649
        35.100    22850252.81349
  22185811.602 8 116587244.670 8        46.800    22185817.922 8  90847238.48149
        38.100    22185817.68049  22185813.172 5  87061942.970 5        36.800
 19  2 12  1 10  0.0000000  0 12G01G32G11G18G03G08G27G14G20G28G22G10
  22093272.219 8 116100956.850 8        47.900    22093279.441 8  90468305.46449
        38.100    22093278.71549  22093275.207 6  86698760.638 6        38.000
  22586843.648 8 118694693.513 8        47.000    22586850.422 8  92489379.41849
        37.200    22586850.11349  22586846.715 5  88635584.871 5        36.100
  21256488.570 9 111703610.171 9        49.300                    87041798.58649
        40.700    21256491.60949
  20221814.469 9 106266377.757 9        50.500                    82804997.96649
        43.900    20221818.61749
  24623762.586 4 129398746.154 4        34.600    24623770.910 6 100830219.07745
        18.300    24623769.95345
  20448819.813 9 107459286.881 9        53.500    20448826.762 9  83734535.89549
        50.000    20448825.60949  20448822.273 7  80245582.469 7        42.800
  21655949.547 9 113802805.583 9        50.300    21655956.332 9  88677538.91349
        43.800    21655955.65249  21655953.094 6  84982585.704 6        40.900
  23307984.938 7 122484303.239 7        41.600                    95442322.87047
        29.100    23307988.99247
  24385527.211 3 128146851.27813        32.400

  24144816.242 6 126881869.808 6        38.700                    98868989.63246
        21.800    24144818.00846
  22833090.219 8 119988695.993 8        45.300                    93497702.23749
        34.600    22833092.23449
  22200885.445 8 116666456.954 8        47.200    22200891.527 9  90908962.33549
        38.300    22200891.34449  22200887.098 5  87121095.071 5        36.900
 19  2 12  1 10 30.0000000  0 11G01G32G11G18G03G08G27G14G28G22G10
  22078893.008 8 116025393.093 8        47.200    22078900.012 8  90409424.62549
        38.400    22078899.71149  22078895.887 5  86642333.158 5        37.500
  22576543.141 8 118640561.853 8        47.800    22576549.246 8  92447198.92449
        37.100    22576548.78549  22576545.609 5  88595161.906 5        36.000
  21242450.094 9 111629837.146 9        48.800                    86984313.11749
        40.600    21242452.98049
  20214557.203 9 106228238.843 9        50.300                    82775279.33149
        44.200    20214560.94549
  24602559.039 5 129287314.183 5        37.600    24602565.973 7 100743388.94846
        23.200    24602565.13746  24602563.996 1  96545691.90111        30.900
  20452886.656 9 107480659.468 9        53.700    20452893.629 9  83751189.85549
        50.000    20452892.53949  20452889.566 7  80261542.497 7        42.600
  21671222.516 9 113883063.988 9        50.100    21671228.801 9  88740077.92449
        44.200    21671228.25849  21671225.625 6  85042518.940 6        40.500
  23293304.555 7 122407156.447 7        41.700                    95382208.50847
        29.600    23293308.68447
  24134019.883 6 126825138.636 6        40.500                    98824783.49546
        22.300    24134022.16846
  22815980.289 8 119898781.843 8        45.500                    93427639.27349
        34.800    22815981.67649
  22216015.563 8 116745967.698 8        47.200    22216021.746 8  90970918.76349
        38.300    22216021.60249  22216017.578 5  87180469.917 5        37.300
 19  2 12  1 11  0.0000000  0 11G01G32G11G18G03G08G27G14G28G22G10
  22064554.086 8 115950044.100 8        47.200    22064561.566 8  90350711.13249
        38.500    22064561.41849  22064557.402 5  86586066.078 5        37.600
  22566332.492 8 118586904.250 8        47.000    22566338.730 8  92405387.81049
        37.400    22566338.26649  22566334.664 5  88555092.956 5        35.700
  21228470.305 9 111556373.254 9        49.100                    86927068.52449
        40.500    21228473.00449
  20207371.094 9 106190478.762 9        50.200                    82745855.89349
        44.200    20207375.62149
  24581373.297 5 129175985.281 5        37.300    24581380.094 6 100656639.12746
        22.500    24581379.24246  24581378.426 1  96462556.635 1        29.900
  20457052.695 9 107502551.271 9        54.400    20457059.641 9  83768248.39749
        50.000    20457058.39849  20457055.633 7  80277890.266 7        43.000
  21686564.406 9 113963686.994 9        49.900    21686571.137 9  88802901.03249
        43.900    21686570.46549  21686567.703 6  85102724.399 6        40.800
  23278680.242 7 122330303.488 7        41.800                    95322323.08947
        28.400    23278683.58647
  24123305.039 5 126768831.890 5        37.600                    98780908.09746
        22.000    24123306.90646
  22798920.789 8 119809134.597 8        45.700                    93357784.29449
        35.100    22798922.55949
  22231202.234 8 116825774.517 8        46.800    22231208.313 8  91033105.90149
        38.300    22231208.17249  22231204.227 5  87240065.926 5        36.500
 19  2 12  1 11 30.0000000  0 11G01G32G11G18G03G08G27G14G28G22G10
  22050256.688 9 115874910.805 9        48.700    22050264.121 8  90292165.73149
        38.300    22050263.85949  22050259.777 6  86529960.054 6        38.000
  22556211.922 8 118533723.034 8        46.400    22556219.047 8  92363947.90849
        36.600    22556217.78549  22556214.523 5  88515379.693 5        35.900
  21214549.539 9 111483220.429 9        49.700                    86870066.32149
        40.700    21214552.47349
  20200258.430 9 106153098.158 9        50.700                    82716728.16249
        43.800    20200262.29349
  24560208.344 5 129064761.009 5        36.600    24560216.070 7 100569970.86446
        22.900    24560214.93046  24560213.133 2  96379499.580 2        31.800
  20461317.172 9 107524962.160 9        54.100    20461324.020 9  83785711.41449
        50.000    20461323.14849  20461320.145 7  80294625.648 7        42.400
  21701975.820 9 114044673.258 9        50.200    21701982.477 9  88866007.21149
        44.000    21701981.67249  21701978.711 6  85163201.148 6        40.700
  23264111.625 7 122253747.140 7        43.200                    95262668.79147
        28.500    23264115.27747
  24112671.117 6 126712951.152 6        40.200                    98737364.64846
        22.300    24112674.14846
  22781912.953 8 119719755.612 8        46.400                    93288138.34149
        35.700    22781914.33249
  22246444.875 8 116905875.248 8        47.000    22246451.051 8  91095522.05949
        38.000    22246450.89849  22246446.477 5  87299881.396 5        36.600
 19  2 12  1 12  0.0000000  0 11G01G32G11G18G03G08G27G14G28G22G10
  22036000.984 8 115799993.873 8        47.600    22036007.867 8  90233788.91149
        38.600    22036007.53949  22036004.219 6  86474015.610 6        38.500
  22546182.727 8 118481020.354 8        46.000    22546189.805 8  92322880.89649
        36.600    22546188.69949  22546185.691 5  88476023.791 5        36.000
  21200688.844 9 111410380.390 9        49.500                    86813307.85249
        40.200    21200691.57049
  20193217.086 9 106116097.710 9        50.300                    82687896.64549
        43.900    20193221.29749
  24539062.289 4 128953643.220 4        34.700    24539069.969 6 100483385.54546
        21.700    24539069.18446  24539068.641 2  96296521.95312        31.800
  20465680.641 9 107547892.307 9        53.700    20465687.695 9  83803579.06049
        50.200    20465686.63349  20465683.703 7  80311748.803 7        42.700
  21717455.820 9 114126021.174 9        49.900    21717462.203 9  88929395.18949
        43.500    21717461.36349  21717458.641 6  85223947.974 6        39.900
  23249600.680 7 122177490.296 7        41.800                    95203247.86347
        28.200    23249604.41847
  24102119.055 6 126657498.328 6        39.500                    98694154.66146
        22.200    24102121.91846
  22764955.969 8 119630646.027 8        45.900                    93218702.30149
        35.200    22764957.26249
  22261743.047 8 116986267.566 8        46.500    22261749.227 8  91158165.41549
        37.700    22261749.18449  22261744.785 5  87359914.631 5        36.700
 19  2 12  1 12 30.0000000  0 11G01G32G11G18G03G08G27G14G28G22G10
  22021785.898 9 115725293.873 9        49.000    22021793.004 8  90175581.12849
        38.400    22021792.59849  22021788.781 5  86418233.144 5        37.200
  22536245.758 8 118428798.181 8        47.000    22536252.297 8  92282188.31849
        36.700    22536251.09849  22536248.086 5  88437026.720 5        35.700
  21186887.547 9 111337854.484 9        49.900                    86756794.15749
        40.800    21186890.47749
  20186248.359 9 106079477.749 9        50.500                    82659361.61149
        44.000    20186252.65649
  24517938.859 6 128842633.327 6        39.000    24517947.078 7 100396884.29647
        27.000    24517945.57847  24517944.672 3  96213624.961 3        32.700
  20470143.031 9 107571341.223 9        53.900    20470149.898 9  83821850.92949
        50.000    20470148.87949  20470145.758 7  80329259.342 7        42.200
  21733004.141 9 114207729.091 9        49.900    21733010.852 9  88993063.68849
        43.900    21733009.95349  21733007.152 6  85284963.600 6        40.100
  23235146.938 7 122101535.476 7        42.300                    95144062.30347
        28.600    23235151.06347
  24091648.688 7 126602475.149 7        41.000                    98651279.43146
        22.800    24091651.28946
  22748050.195 8 119541807.188 8        46.400                    93149477.25449
        35.100    22748051.56349
  22277096.156 8 117066949.031 8        46.500    22277102.695 8  91221034.08549
        37.300    22277102.03549  22277098.105 5  87420163.746 5        36.600
 19  2 12  1 13  0.0000000  0 11G01G32G11G18G03G08G27G14G28G22G10
  22007612.266 9 115650811.711 9        48.700    22007619.465 8  90117543.08949
        39.400    22007618.92649  22007614.707 5  86362613.369 5        37.800
  22526400.352 8 118377058.813 8        47.900    22526406.391 8  92241871.93749
        36.200    22526405.68049  22526402.273 5  88398390.215 5        36.000
  21173146.359 9 111265644.979 9        48.900                    86700527.00849
        41.000    21173149.56349
  20179352.977 9 106043239.167 9        50.500                    82631123.76349
        43.900    20179356.79349
  24496835.648 6 128731732.976 6        38.700    24496840.945 6 100310468.53546
        22.500    24496841.12946  24496840.461 2  96130809.73312        31.700
  20474703.930 9 107595309.285 9        53.400    20474710.914 9  83840527.33449
        49.900    20474709.69949  20474706.664 7  80347157.573 7        43.200
  21748620.844 9 114289795.455 9        49.700    21748627.559 9  89057011.49349
        43.800    21748626.91849  21748623.754 6  85346246.919 6        40.200
  23220751.242 7 122025885.398 7        43.800                    95085114.20247
        29.300    23220755.06347
  24081260.461 7 126547883.100 7        41.400                    98608740.19146
        22.600    24081262.59446
  22731196.547 8 119453240.504 8        45.100                    93080464.26949
        34.900    22731197.72349
  22292504.344 8 117147917.403 8        46.300    22292510.262 8  91284126.32849
        37.700    22292510.00849  22292505.734 5  87480627.165 5        36.200
 19  2 12  1 13 30.0000000  0 11G01G32G11G18G03G08G27G14G28G22G10
  21993480.508 8 115576548.635 8        47.400    21993487.543 8  90059675.75949
        38.600    21993487.32849  21993483.141 5  86307157.198 5        37.700
  22516646.734 8 118325804.888 8        47.000    22516653.496 8  92201933.82949
        37.000    22516652.56349  22516649.379 5  88360116.203 5        35.500
  21159465.891 9 111193753.945 9        48.900                    86644508.02049
        40.700    21159468.98449
  20172529.438 9 106007383.146 9        51.000                    82603184.00549
        44.300    20172533.69149
  24475750.578 3 128620944.592 3        33.300    24475761.559 7 100224139.87246
        22.000    24475760.18046  24475758.719 3  96048078.240 3        33.000
  20479363.695 9 107619796.507 9        53.900    20479370.668 9  83859608.27349
        49.900    20479369.53549  20479366.297 7  80365443.490 7        42.400
  21764305.805 9 114372219.233 9        49.900    21764312.070 9  89121237.81249
        43.600    21764311.41849  21764308.535 6  85407797.117 6        40.300
  23206413.953 7 121950543.288 7        43.500                    95026406.07547
        28.900    23206417.37147
  24070954.625 6 126493724.550 6        40.200                    98566538.72546
        22.500    24070956.70746
  22714395.172 8 119364947.989 8        47.000                    93011664.92149
        36.000    22714396.61749
  22307965.914 8 117229170.943 8        46.000    22307972.156 8  91347440.77749
        37.200    22307971.91849  22307967.980 5  87541303.492 5        36.100
 19  2 12  1 14  0.0000000  0 11G01G32G11G18G03G08G27G14G28G22G10
  21979390.492 9 115502505.241 9        49.300    21979397.684 8  90001979.62849
        39.300    21979397.35249  21979393.840 6  86251865.076 6        38.500
  22506985.922 8 118275038.304 8        47.700    22506993.039 8  92162375.45649
        36.900    22506992.19949  22506988.270 5  88322206.128 5        35.500
  21145846.539 9 111122183.214 9        49.700                    86588738.62349
        40.900    21145849.44549
  20165779.250 9 105971910.352 9        50.400                    82575542.86749
        44.400    20165783.21949
  24454691.828 6 128510269.60716        38.500    24454697.637 5 100137899.62856
        20.600    24454697.23846  24454696.555 2  95965431.29512        31.400
  20484122.023 9 107644802.961 9        53.700    20484129.215 9  83879093.81749
        49.900    20484128.09449  20484125.121 7  80384117.125 7        42.300
  21780057.945 9 114454998.703 9        49.500    21780064.488 9  89185741.28249
        43.800    21780063.74249  21780061.117 6  85469612.972 6        39.900
  23192136.086 7 121875511.795 7        43.000                    94967939.97247
        27.400    23192139.38747
  24060731.000 6 126440000.715 6        40.300                    98524675.98746
        23.000    24060733.55946
  22697646.352 8 119276930.802 8        45.900                    92943080.11249
        35.100    22697647.52749
  22323481.898 8 117310707.211 8        46.000    22323488.406 8  91410975.54049
        38.100    22323488.10949  22323483.723 5  87602190.991 5        35.800
 19  2 12  1 14 30.0000000  0 11G01G32G11G18G03G08G27G14G28G22G10
  21965342.352 9 115428682.321 9        48.900    21965349.715 8  89944455.29149
        39.000    21965349.62149  21965345.883 6  86196737.577 6        38.700
  22497418.508 8 118224761.252 8        47.300    22497425.324 8  92123198.55249
        37.200    22497424.41449  22497420.707 5  88284661.557 5        36.200
  21132288.500 9 111050934.497 9        50.200                    86533220.14249
        41.400    21132291.41049
  20159101.984 9 105936821.258 9        50.500                    82548200.71749
        44.500    20159106.11749
  24433653.813 6 128399709.670 6        40.200    24433661.168 7 100051749.08547
        26.500    24433660.24647  24433658.813 3  95882870.356 3        32.000
  20488979.617 9 107670328.219 9        54.500    20488986.559 9  83898983.62549
        50.000    20488985.31649  20488982.523 7  80403178.179 7        43.000
  21795877.742 9 114538132.316 9        49.300    21795884.430 9  89250520.71049
        43.500    21795883.54349  21795880.984 6  85531693.243 6        40.000
  23177917.531 7 121800793.473 7        42.500                    94909717.91547
        29.300    23177921.15647
  24050590.359 6 126386713.328 6        40.800                    98483153.32146
        22.500    24050593.17246
  22680949.258 8 119189190.094 8        46.600                    92874710.74449
        35.600    22680950.76649
  22339051.063 8 117392523.987 8        45.600    22339057.320 8  91474728.85649
        37.000    22339057.24649  22339052.859 5  87663287.919 5        35.700
 19  2 12  1 15  0.0000000  0 11G01G32G11G18G03G08G27G14G28G22G10
  21951336.813 9 115355080.862 9        49.600    21951343.996 8  89887103.52349
        39.700    21951343.75049  21951339.641 6  86141775.497 6        38.000
  22487944.367 8 118174976.012 8        47.300    22487951.723 8  92084404.88249
        36.500    22487950.60249  22487947.242 5  88247484.318 5        36.100
  21118792.234 9 110980009.870 9        49.300                    86477954.19749
        41.300    21118794.80949
  20152497.648 9 105902117.035 9        50.300                    82521158.46949
        44.900    20152502.30949
  24412636.953 5 128289266.703 5        37.300    24412643.918 6  99965689.57246
        22.300    24412642.05946  24412641.871 3  95800396.65513        32.200
  20493935.695 9 107696372.684 9        53.500    20493943.047 9  83919278.00049
        50.000    20493941.44149  20493938.691 7  80422626.955 7        42.600
  21811764.750 9 114621618.690 9        49.300    21811771.383 9  89315575.02249
        43.400    21811770.63349  21811768.184 6  85594036.954 6        40.200
  23163759.617 7 121726391.216 7        41.800                    94851742.14647
        29.400    23163762.87547
  24040533.867 7 126333864.087 7        41.400                    98441972.07046
        23.800    24040536.77046
  22664306.109 8 119101727.577 8        46.400                    92806558.14349
        35.800    22664307.31349
  22354673.242 8 117474619.173 8        45.800    22354679.336 8  91538699.12549
        36.800    22354678.99249  22354675.156 5  87724592.737 5        36.100
 19  2 12  1 15 30.0000000  0 12G01G32G11G18G03G08G27G14G20G28G22G10
  21937372.586 9 115281700.752 9        49.100    21937380.270 8  89829924.23149
        39.600    21937379.77349  21937375.949 6  86086978.659 6        38.000
  22478564.242 9 118125683.777 9        48.000    22478571.355 8  92045995.36749
        37.200    22478570.44549  22478567.414 5  88210675.191 5        36.300
  21105357.492 9 110909410.266 9        50.200                    86422941.51649
        41.800    21105360.39849
  20145967.047 9 105867797.059 9        50.300                    82494415.63749
        44.200    20145971.39849
  24391641.523 5 128178941.589 5        37.300    24391650.059 7  99879721.97846
        23.000    24391649.87946  24391646.938 1  95718011.080 1        29.800
  20498990.070 9 107722934.596 9        53.700    20498997.340 9  83939975.58649
        50.000    20498996.32449  20498993.059 7  80442462.130 7        42.600
  21827718.414 9 114705455.292 9        49.600    21827724.867 9  89380902.24549
        43.300    21827724.20749  21827721.426 6  85656642.210 6        40.100
  23149661.234 7 121652306.801 7        43.800                    94794014.03847
        28.100    23149665.01247
  24605597.453 2 129303304.83812        31.300

  24030560.500 6 126281454.005 6        40.700                    98401133.06046
        23.200    24030563.78546
  22647714.984 8 119014543.503 8        46.400                    92738622.51349
        35.700    22647716.98049
  22370347.789 8 117556989.594 8        45.900    22370354.195 8  91602883.88049
        37.500    22370353.83249  22370349.918 5  87786103.133 5        36.500
 19  2 12  1 16  0.0000000  0 12G01G32G11G18G03G08G27G14G20G28G22G10
  21923451.273 8 115208543.826 8        47.300    21923458.473 8  89772918.84749
        39.400    21923458.00449  21923454.047 6  86032348.497 6        38.100
  22469279.148 8 118076887.645 8        47.700    22469285.793 8  92007972.41049
        37.000    22469285.03149  22469281.828 5  88174236.522 5        36.400
  21091984.867 9 110839138.577 9        48.700                    86368184.35049
        41.700    21091988.07449
  20139509.813 9 105833863.367 9        50.200                    82467973.80149
        44.200    20139513.84049
  24370672.109 6 128068736.890 6        40.300    24370678.969 7  99793848.10847
        26.400    24370677.81647  24370677.281 3  95635715.26613        32.500
  20504143.563 9 107750015.687 9        53.500    20504150.559 9  83961077.72949
        49.800    20504149.62549  20504146.301 7  80462685.028 7        42.800
  21843738.508 9 114789641.650 9        49.500    21843744.953 9  89446501.99649
        43.000    21843744.37149  21843741.555 6  85719508.651 6        40.400
  23135624.555 7 121578544.182 7        41.700                    94736536.68147
        28.400    23135628.35947
  24625675.516 1                        28.300

  24020671.063 6 126229485.535 6        40.500                    98360638.15146
        22.800    24020673.69946
  22631178.086 8 118927640.081 8        46.100                    92670905.56849
        35.700    22631179.70349
  22386074.703 8 117639634.094 8        45.700    22386080.887 8  91667282.18249
        37.000    22386080.87549  22386076.473 5  87847818.168 5        36.100
 19  2 12  1 16 30.0000000  0 12G01G32G11G18G03G08G27G14G20G28G22G10
  21909572.469 9 115135610.961 9        50.200    21909579.859 8  89716088.04749
        39.400    21909579.57449  21909575.703 6  85977885.651 6        38.100
  22460088.664 9 118028589.803 9        48.600    22460095.082 8  91970337.73649
        37.300    22460094.60249  22460090.977 5  88138169.980 5        35.900
  21078675.695 9 110769196.741 9        50.000                    86313684.22549
        41.500    21078678.65249
  20133126.219 9 105800316.757 9        50.500                    82441833.58949
        44.400    20133130.20349
  24349723.664 6 127958654.429 6        40.200    24349729.586 6  99708069.64846
        24.200    24349729.21546  24349726.379 1  95553510.89111        27.800
  20509395.656 9 107777615.310 9        53.400    20509402.750 9  83982583.91949
        49.800    20509401.50049  20509398.449 7  80483295.147 7        42.400
  21859824.711 9 114874176.255 9        48.900    21859831.582 9  89512373.11049
        43.300    21859830.79349  21859828.102 6  85782635.135 6        39.400
  23121650.555 7 121505106.017 7        44.600                    94679312.13547
        28.700    23121653.37147
  24645763.578 1                        26.800

  24010866.883 7 126177960.417 7        42.100                    98320488.70046
        23.000    24010868.68846
  22614694.930 8 118841019.197 8        46.200                    92603408.79449
        35.700    22614696.41049
  22401853.242 8 117722550.515 8        46.400    22401859.367 8  91731892.37049
        37.100    22401859.33249  22401855.012 5  87909736.271 5        36.500
 19  2 12  1 17  0.0000000  0 11G01G32G11G18G03G08G27G14G28G22G10
  21895736.578 9 115062902.577 9        48.200    21895744.184 8  89659432.17349
        39.800    21895743.98449  21895739.793 5  85923590.419 5        37.900
  22450992.914 8 117980791.911 8        47.500    22450999.484 8  91933092.63249
        37.100    22450998.57049  22450995.207 5  88102476.739 5        36.500
  21065428.625 9 110699585.646 9        49.200                    86259441.81549
        41.700    21065432.05149
  20126815.969 9 105767157.397 9        50.700                    82415995.13249
        44.400    20126820.23049
  24328798.063 6 127848695.646 6        38.000    24328806.625 7  99622387.47046
        23.000    24328806.10246  24328804.770 2  95471398.83512        31.700
  20514746.445 9 107805733.292 9        53.700    20514753.168 9  84004494.02749
        49.800    20514752.38349  20514749.336 7  80504292.317 7        42.200
  21875977.016 9 114959057.116 9        49.200    21875983.625 9  89578514.03349
        42.600    21875982.85249  21875980.105 6  85846020.180 6        40.000
  23107737.188 7 121431994.324 7        43.800                    94622342.00647
        29.400    23107740.79347
  24001145.688 6 126126880.113 6        40.600                    98280685.83946
        23.200    24001148.74646
  22598265.156 8 118754681.452 8        46.400                    92536132.63749
        36.200    22598266.75449
  22417683.031 8 117805736.253 8        45.600    22417688.949 8  91796712.42849
        36.900    22417688.61349  22417684.457 5  87971855.473 5        36.300
 19  2 12  1 17 30.0000000  0 11G01G32G11G18G03G08G27G14G28G22G10
  21881943.945 9 114990419.558 9        50.600    21881950.742 8  89602951.90649
        40.300    21881950.57849  21881946.875 6  85869463.533 6        38.200
  22441992.320 8 117933496.027 8        47.900    22441999.402 8  91896238.70849
        37.100    22441998.40649  22441995.266 5  88067158.406 5        36.200
  21052246.086 9 110630308.011 9        50.000                    86205459.24149
        41.300    21052248.57449
  20120580.109 9 105734385.964 9        50.700                    82390458.95149
        44.500    20120583.82449
  24307896.398 5 127738862.248 5        37.900    24307904.457 6  99536802.97246
        21.700    24307903.40246  24307901.305 1  95389380.33311        30.000
  20520195.625 9 107834368.883 9        53.700    20520202.445 9  84026807.46249
        50.000    20520201.50849  20520198.320 7  80525676.029 7        43.100
  21892195.094 9 115044282.675 9        49.500    21892201.754 9  89644923.55249
        43.300    21892200.78149  21892197.914 6  85909662.621 6        39.800
  23093887.609 7 121359212.100 7        43.900                    94565628.57648
        30.200    23093891.34448
  23991510.305 7 126076245.712 7        41.300                    98241230.46346
        22.200    23991512.94946
  22581889.633 8 118668628.301 8        47.300                    92469078.24549
        35.800    22581891.46549
  22433563.547 8 117889189.112 8        46.000    22433569.754 8  91861740.62949
        36.900    22433569.16849  22433565.309 5  88034174.142 5        36.300
 19  2 12  1 18  0.0000000  0 11G01G32G11G18G03G08G27G14G28G22G10
  21868193.664 9 114918162.772 9        49.700    21868200.949 8  89546647.93149
        39.700    21868200.61749  21868196.711 6  85815505.530 6        38.300
  22433088.023 8 117886704.248 8        46.800    22433095.094 8  91859777.60249
        37.300    22433094.32849  22433091.090 5  88032216.516 5        36.300
  21039126.602 9 110561365.439 9        49.900                    86151737.76249
        41.400    21039129.45349
  20114417.781 9 105702003.168 9        50.800                    82365225.60949
        45.400    20114421.57049
  24287022.055 6 127629155.865 6        39.600    24287029.152 6  99451317.51747
        25.700    24287028.43047  24287027.199 2  95307456.804 2        31.600
  20525743.352 9 107863522.663 9        53.600    20525750.188 9  84049524.69149
        49.700    20525749.07849  20525746.219 7  80547446.689 7        42.600
  21908478.180 9 115129851.341 9        49.000    21908484.922 9  89711600.42549
        42.700    21908483.95349  21908481.375 6  85973561.298 6        39.700
  23080100.289 7 121286761.960 7        43.700                    94509173.94248
        30.200    23080104.15648
  23981960.109 6 126026059.184 6        40.500                    98202124.07146
        23.500    23981962.75846
  22565568.648 8 118582860.936 8        47.000                    92402246.55149
        36.400    22565570.35549
  22449494.102 8 117972906.877 8        45.800    22449500.527 8  91926975.25349
        37.100    22449500.21149  22449496.531 5  88096690.700 5        36.300
 19  2 12  1 18 30.0000000  0 11G01G32G11G18G03G08G27G14G28G22G10
  21854486.672 8 114846132.792 8        47.900    21854493.988 8  89490520.67949
        39.500    21854493.80949  21854489.488 6  85761716.921 6        38.400
  22424280.023 8 117840418.355 8        46.900    22424287.285 8  91823710.68949
        36.700    22424286.24249  22424283.078 5  87997652.408 5        36.200
  21026071.734 9 110492759.784 9        49.400                    86098278.81549
        40.800    21026074.21949
  20108329.367 9 105670009.601 9        50.900                    82340295.56149
        44.600    20108333.52349
  24266170.156 6 127519578.026 6        40.000    24266177.301 7  99365932.19147
        26.500    24266175.95347  24266174.211 2  95225629.17812        31.900
  20531389.461 9 107893193.410 9        53.900    20531396.145 9  84072644.74549
        49.900    20531395.26649  20531392.254 7  80569603.428 7        43.000
  21924826.117 9 115215761.356 9        49.600    21924833.156 9  89778543.29249
        43.600    21924832.41849  21924829.383 6  86037714.873 6        39.900
  23066377.563 7 121214646.265 7        42.800                    94452979.91447
        29.500    23066380.98847
  23972495.477 7 125976321.797 7        42.100                    98163367.66646
        22.200    23972497.27046
  22549302.258 8 118497380.673 8        46.600                    92335638.56649
        36.000    22549303.96149
  22465475.383 8 118056887.210 8        45.400    22465481.770 8  91992414.47549
        36.100    22465481.11349  22465477.020 5  88159403.273 5        36.000
 19  2 12  1 19  0.0000000  0 11G01G32G11G18G03G08G27G14G28G22G10
  21840823.750 9 114774330.632 9        48.900    21840830.816 8  89434570.95549
        39.600    21840830.52749  21840826.375 6  85708098.443 6        38.600
  22415568.984 8 117794640.528 8        46.800    22415575.957 8  91788039.67849
        36.900    22415574.73049  22415571.754 5  87963467.652 5        36.000
  21013080.445 9 110424492.780 9        49.500                    86045083.74249
        41.400    21013083.49649
  20102315.445 9 105638406.289 9        50.700                    82315669.61549
        44.600    20102319.55949
  24245342.516 6 127410130.634 6        38.700    24245349.340 6  99280648.55546
        22.800    24245348.30146  24245346.105 1  95143899.072 1        30.500
  20537134.016 9 107923381.421 9        54.200    20537140.996 9  84096167.85949
        49.600    20537139.92249  20537136.813 7  80592146.404 7        42.500
  21941238.906 9 115302011.259 9        48.900    21941245.695 9  89845750.99749
        42.600    21941245.09849  21941242.383 6  86102122.280 6        39.900
  23052718.719 7 121142868.025 7        44.300                    94397048.83547
        29.300    23052722.03147
  23963116.602 6 125927035.433 6        40.600                    98124962.70746
        24.900    23963119.53946
  22533090.711 8 118412188.903 8        46.700                    92269255.37549
        36.400    22533092.41449
  22481505.852 8 118141128.056 8        45.100    22481511.840 8  92058056.67349
        36.100    22481511.91449  22481507.113 5  88222310.392 5        35.700
 19  2 12  1 19 30.0000000  0 11G01G32G11G18G03G08G27G14G28G22G10
  21827203.484 9 114702757.136 9        48.300    21827210.781 9  89378799.41749
        39.900    21827210.53549  21827206.461 6  85654650.696 6        38.600
  22406955.219 8 117749372.714 8        46.900    22406961.828 8  91752766.06349
        37.600    22406960.85949  22406957.098 5  87929663.762 5        35.900
  21000154.250 9 110356566.463 9        49.200                    85992154.14849
        41.500    21000157.40649
  20096375.766 9 105607193.581 9        50.800                    82291348.03149
        44.600    20096379.93449
  24224539.938 6 127300815.437 6        38.100    24224548.086 7  99195467.87146
        24.200    24224547.72746  24224545.832 3  95062267.550 3        32.000
  20542977.070 9 107954086.526 9        53.800    20542984.023 9  84120093.91549
        49.600    20542982.96549  20542979.695 7  80615075.548 7        42.300
  21957716.297 9 115388599.406 9        49.100    21957722.914 9  89913222.27349
        42.400    21957722.25049  21957719.141 6  86166782.259 6        39.500
  23039124.430 7 121071429.853 7        43.500                    94341382.71648
        30.000    23039127.51248
  23953823.516 7 125878201.176 7        41.400                    98086910.05746
        22.800    23953826.99246
  22516934.953 8 118327287.185 8        46.200                    92203098.20349
        36.500    22516936.00449
  22497585.055 8 118225627.146 8        45.300    22497591.313 8  92123900.11349
        36.200    22497591.12549  22497587.121 5  88285410.376 5        36.200
 19  2 12  1 20  0.0000000  0 11G01G32G11G18G03G08G27G14G28G22G10
  21813626.898 8 114631413.103 8        47.900    21813634.535 8  89323206.67249
        39.900    21813633.84449  21813630.059 6  85601374.354 6        38.300
  22398437.930 8 117704616.857 8        47.300    22398445.043 8  91717891.36549
        37.600    22398443.94949  22398441.094 5  87896242.207 5        36.800
  20987293.953 9 110288982.709 9        49.300                    85939491.49249
        41.400    20987296.69549
  20090510.711 9 105576372.275 9        50.700                    82267331.42749
        44.900    20090514.85949
  24203763.633 6 127191634.106 6        39.500    24203771.055 7  99110391.46546
        23.600    24203769.63746  24203767.609 1  94980736.031 1        30.100
  20548918.414 9 107985308.297 9        53.400    20548925.332 9  84144422.55949
        49.600    20548924.41449  20548921.117 7  80638390.497 7        42.400
  21974257.539 9 115475524.116 9        48.900    21974264.305 9  89980955.81049
        42.100    21974263.29349  21974260.531 6  86231693.540 6        39.200
  23025595.523 7 121000334.334 7        43.900                    94285983.62348
        30.200    23025598.67248
  23944617.680 7 125829821.147 7        41.000                    98049211.32046
        23.800    23944620.40646
  22500833.844 8 118242676.508 8        47.500                    92137167.81449
        37.100    22500835.23049
  22513713.648 8 118310382.319 8        45.900    22513719.840 8  92189943.11949
        35.900    22513719.57449  22513715.789 5  88348701.576 5        36.500
 19  2 12  1 20 30.0000000  0 11G01G32G11G18G03G08G27G14G28G22G10
  21800094.453 9 114560299.180 9        49.800    21800101.375 9  89267793.23649
        40.000    21800101.46949  21800097.590 6  85548269.806 6        39.000
  22390018.703 8 117660374.729 8        46.300    22390025.855 8  91683416.98649
        37.000    22390024.99249  22390021.754 5  87863204.251 5        36.100
  20974498.648 9 110221743.056 9        49.300                    85887096.95549
        41.300    20974501.29749
  20084720.258 9 105545942.910 9        50.600                    82243620.24149
        45.000    20084724.34449
  24183013.078 6 127082588.054 6        39.300    24183020.324 7  99025420.54847
        26.700    24183019.64847  24183017.844 2  94899305.610 2        31.400
  20554957.898 9 108017046.128 9        53.500    20554964.852 9  84169153.32949
        49.700    20554963.78549  20554960.727 7  80662090.789 7        42.800
  21990862.375 9 115562783.648 9        48.800    21990869.160 9  90048950.24149
        42.200    21990868.41449  21990865.531 6  86296854.871 6        39.000
  23012132.141 7 120929584.120 7        42.900                    94230853.60548
        31.200    23012135.52348
  23935497.883 7 125781896.504 7        41.600                    98011867.44347
        25.300    23935500.31347
  22484788.695 8 118158357.978 8        47.000                    92071465.07649
        37.400    22484790.16449
  22529890.188 8 118395391.019 8        45.100    22529896.652 8  92256183.65649
        36.000    22529896.47349  22529892.172 5  88412182.048 5        36.400
 19  2 12  1 21  0.0000000  0 11G01G32G11G18G03G08G27G14G28G22G10
  21786605.789 9 114489416.416 9        50.000    21786612.945 9  89212559.92749
        39.700    21786612.65649  21786609.352 6  85495337.889 6        38.900
  22381698.219 8 117616648.408 8        47.400    22381705.199 8  91649344.55249
        37.500    22381704.32049  22381700.805 5  87830551.494 5        36.200
  20961768.727 9 110154849.598 9        50.300                    85834972.18849
        41.800    20961772.09049
  20079004.484 9 105515906.432 9        50.800                    82220215.18949
        45.000    20079008.73049
  24162288.914 6 126973679.232 6        39.600    24162295.871 7  98940556.57347
        27.000    24162294.92247  24162293.582 2  94817977.57712        31.600
  20561095.438 9 108049299.990 9        54.100    20561102.656 9  84194286.19749
        49.700    20561101.41849  20561098.660 7  80686176.496 7        42.600
  22007530.953 9 115650376.480 9        49.000    22007537.512 9  90117204.39049
        42.700    22007536.96549  22007534.211 6  86362265.088 6        39.500
  22998734.617 7 120859181.907 7        44.300                    94175994.74947
        29.400    22998738.59847
  23926464.398 7 125734428.784 7        41.700                    97974879.59946
        24.700    23926467.55946
  22468798.984 8 118074333.201 8        45.700                    92005991.24049
        37.500    22468800.66449
  22546115.039 8 118480651.577 8        45.400    22546121.086 8  92322620.45149
        35.400    22546121.15249  22546116.434 5  88475850.625 5        35.500
 19  2 12  1 21 30.0000000  0 11G01G32G11G18G03G08G27G14G28G22G10
  21773161.578 9 114418765.648 9        48.800    21773168.738 9  89157507.38649
        40.100    21773168.49649  21773164.453 6  85442579.223 6        39.200
  22373475.672 8 117573439.909 8        46.200    22373482.641 8  91615675.60749
        37.300    22373482.15249  22373479.074 5  87798285.454 5        36.700
  20949105.828 9 110088304.371 9        49.700                    85783118.76849
        42.100    20949108.90249
  20073363.805 9 105486263.403 9        50.800                    82197116.72749
        44.800    20073367.76649
  24141589.828 6 126864909.377 6        38.700    24141597.613 7  98855800.85147
        25.800    24141596.44147  24141594.098 1  94736753.341 1        30.800
  20567331.398 9 108082069.689 9        53.400    20567338.520 9  84219821.02049
        49.500    20567337.31649  20567334.223 7  80710647.346 7        42.400
  22024262.516 9 115738301.060 9        48.900    22024268.824 9  90185717.04249
        42.300    22024268.32049  22024265.629 6  86427923.070 6        39.900
  22985404.563 7 120789130.244 7        43.600                    94121409.04348
        30.400    22985408.20348
  23917519.656 7 125687419.444 7        41.900                    97938248.96347
        25.900    23917522.33247
  22452865.711 8 117990603.466 8        46.600                    91940747.30849
        37.600    22452867.62149
  22562387.391 7 118566161.713 7        44.600    22562393.313 8  92389251.71749
        36.300    22562393.18449  22562389.125 5  88539705.611 5        35.100
 19  2 12  1 22  0.0000000  0 11G01G32G11G18G03G08G27G14G28G22G10
  21759761.914 9 114348347.498 9        50.300    21759768.730 8  89102636.10749
        40.800    21759768.31349  21759764.359 6  85389994.212 6        38.300
  22365352.563 8 117530750.773 8        47.000    22365359.367 8  91582411.36649
        37.500    22365358.49649  22365355.484 5  87766407.207 5        37.000
  20936509.516 9 110022108.757 9        50.100                    85731537.77549
        42.200    20936512.47749
  20067797.859 9 105457014.101 9        50.700                    82174325.06849
        44.900    20067801.89549
  24120918.133 6 126756279.898 6        39.700    24120926.121 7  98771154.52147
        26.300    24120925.44947  24120923.980 3  94655633.958 3        32.800
  20573665.555 9 108115354.523 9        53.500    20573672.410 9  84245757.24749
        49.500    20573671.27749  20573668.047 7  80735502.881 7        42.000
  22041056.563 9 115826555.427 9        48.700    22041063.215 9  90254486.67449
        42.400    22041062.41049  22041059.813 6  86493827.265 6        39.200
  22972141.172 7 120719431.528 7        44.300                    94067098.35248
        30.100    22972144.71948
  23908661.117 7 125640869.836 7        41.400                    97901976.52046
        24.700    23908664.39846
  22436989.070 8 117907169.699 8        46.700                    91875734.00349
        37.700    22436990.44149
  22578706.398 7 118651918.917 7        44.700    22578712.152 8  92456075.50549
        35.200    22578711.85549  22578707.824 5  88603745.084 5        35.500
 19  2 12  1 22 30.0000000  0 11G01G32G11G18G03G08G27G14G28G22G10
  21746406.047 9 114278163.157 9        50.000    21746412.742 9  89047947.00549
        40.100    21746412.49649  21746408.605 6  85337583.829 6        39.000
  22357328.328 8 117488583.292 8        47.300    22357334.891 8  91549553.61149
        37.400    22357334.21149  22357330.926 5  87734918.515 5        36.600
  20923979.648 9 109956265.098 9        50.300                    85680231.03449
        41.800    20923982.81649
  20062307.063 9 105428159.969 9        50.900                    82151841.32949
        44.800    20062311.04749
  24100274.500 6 126647792.877 6        39.300    24100282.051 7  98686619.18446
        23.800    24100280.98846  24100278.977 3  94574620.903 3        32.000
  20580097.250 9 108149154.555 9        53.900    20580104.379 9  84272094.92149
        49.400    20580103.15649  20580100.191 7  80760743.177 7        42.600
  22057913.359 9 115915138.286 9        48.800    22057920.035 9  90323512.27349
        42.300    22057919.20349  22057916.648 6  86559976.801 6        39.000
  22958945.789 7 120650088.758 7        43.000                    94013065.03048
        30.500    22958949.65648
  23899891.141 7 125594781.731 7        41.800                    97866063.72846
        24.500    23899893.60546
  22421168.852 8 117824033.657 8        47.000                    91810952.67149
        38.100    22421170.13749
  22595072.094 7 118737921.451 7        44.500    22595078.098 8  92523090.46049
        34.600    22595077.71549  22595073.957 5  88667967.788 5        35.700
 19  2 12  1 23  0.0000000  0 11G01G32G11G18G03G08G27G14G28G22G10
  21733094.875 9 114208213.121 9        49.800    21733101.582 8  88993440.48749
        40.700    21733101.44149  21733098.090 6  85285348.430 6        39.000
  22349403.844 8 117446938.902 8        47.200    22349410.531 8  91517103.44049
        37.500    22349409.39149  22349406.117 5  87703820.435 5        36.300
  20911517.242 9 109890774.590 9        50.300                    85629199.47449
        41.700    20911520.12149
  20056891.523 9 105399700.852 9        50.500                    82129665.39949
        44.700    20056895.54749
  24079656.938 6 126539449.568 6        39.700    24079664.559 6  98602195.80547
        25.600    24079663.70347  24079662.445 3  94493715.222 3        32.700
  20586627.039 9 108183468.861 9        53.700    20586634.043 9  84298833.33349
        49.500    20586633.06649  20586629.965 7  80786367.480 7        42.600
  22074832.250 9 116004047.594 9        48.700    22074838.910 9  90392792.23349
        42.500    22074838.32849  22074835.438 6  86626370.098 6        39.400
  22945818.313 7 120581104.139 7        44.100                    93959310.80048
        31.000    22945821.85948
  23891208.570 7 125549156.126 7        41.800                    97830511.29647
        26.000    23891211.50447
  22405405.117 8 117741195.987 8        46.800                    91746403.84949
        37.900    22405406.98849
  22611483.898 8 118824166.714 8        45.200    22611489.629 8  92590294.56849
        35.500    22611489.38349  22611485.684 5  88732371.656 5        35.700
 19  2 12  1 23 30.0000000  0 11G01G32G11G18G03G08G27G14G28G22G10
  21719828.664 9 114138498.421 9        50.100    21719835.676 9  88939117.34149
        41.100    21719835.14149  21719831.512 6  85233288.761 6        38.800
  22341578.484 8 117405819.666 8        46.900    22341585.523 8  91485062.48649
        37.300    22341584.61349  22341581.480 5  87673114.540 5        36.300
  20899122.680 9 109825640.025 9        50.200                    85578445.26749
        42.200    20899125.43849
  20051551.219 9 105371637.836 9        50.600                    82107798.11449
        44.600    20051555.03149
  24059067.609 6 126431251.949 6        40.100    24059075.008 6  98517885.99446
        24.400    24059074.38346  24059073.230 3  94412918.292 3        32.800
  20593254.656 9 108218297.525 9        53.900    20593261.855 9  84325972.54749
        49.300    20593260.61749  20593257.648 7  80812375.889 7        42.500
  22091812.953 9 116093281.878 9        48.700    22091819.613 9  90462325.43849
        42.500    22091819.30949  22091816.137 6  86693006.106 6        39.000
  22932759.555 7 120512480.523 7        43.700                    93905837.86148
        30.300    22932763.35548
  23882614.391 6 125503994.689 6        40.500                    97795320.58046
        23.900    23882617.20346
  22389698.734 8 117658658.344 8        46.900                    91682088.81949
        37.700    22389700.50849
  22627941.750 7 118910652.807 7        44.800    22627947.656 8  92657686.33749
        35.500    22627947.50049  22627942.777 5  88796955.465 5        35.400
 19  2 12  1 24  0.0000000  0 11G01G32G11G18G03G08G27G14G28G22G10
  21706606.914 9 114069019.600 9        49.500    21706614.211 9  88884977.99649
        40.200    21706613.80549  21706609.930 6  85181405.235 6        39.200
  22333854.195 8 117365227.068 8        47.700    22333861.109 8  91453431.90149
        37.500    22333860.19549  22333856.656 5  87642801.913 5        36.900
  20886795.836 9 109760862.568 9        49.900                    85527969.32949
        41.700    20886798.59849
  20046286.336 9 105343971.348 9        50.800                    82086239.81649
        44.700    20046290.42249
  24038506.945 6 126323201.304 6        39.800    24038513.848 6  98433690.66246
        24.500    24038512.92646  24038511.504 2  94332231.147 2        31.600
  20599980.008 9 108253639.452 9        53.900    20599987.051 9  84353511.70449
        49.300    20599986.05949  20599983.059 7  80838767.572 7        43.100
  22108855.063 9 116182839.138 9        48.800    22108862.023 9  90532110.30549
        42.200    22108861.27349  22108858.547 6  86759883.263 6        38.800
  22919770.242 7 120444220.131 7        43.900                    93852647.94648
        31.100    22919773.74248
  23874108.859 7 125459298.838 7        42.900                    97760492.62746
        24.500    23874112.17246
  22374049.883 8 117576421.572 8        46.700                    91618008.23749
        37.900    22374051.23449
  22644444.375 7 118997377.183 7        44.400    22644450.719 8  92725263.75549
        34.800    22644450.64849  22644446.531 5  88861717.125 5        36.000
 19  2 12  1 24 30.0000000  0 11G01G32G11G18G03G08G27G14G28G22G10
  21693431.219 9 113999777.932 9        49.200    21693438.320 9  88831023.45249
        41.000    21693437.94149  21693433.754 6  85129698.779 6        38.700
  22326230.430 8 117325163.263 8        46.800    22326237.113 8  91422213.36849
        37.300    22326236.14849  22326233.418 5  87612884.161 5        36.400
  20874537.813 9 109696444.656 9        49.500                    85477773.55749
        41.500    20874540.44949
  20041097.453 9 105316702.405 9        50.700                    82064991.29349
        44.900    20041101.25849
  24017973.367 6 126215299.741 6        39.500    24017980.750 6  98349611.56246
        23.800    24017979.29746  24017978.387 2  94251655.341 2        31.600
  20606803.055 9 108289494.659 9        53.800    20606810.184 9  84381450.81049
        49.300    20606808.90649  20606805.910 7  80865542.571 7        42.300
  22125958.516 9 116272718.062 9        48.400    22125965.289 9  90602145.82449
        41.400    22125964.42249  22125961.793 6  86827000.613 6        39.100
  22906850.367 7 120376326.100 7        43.000                    93799743.51248
        30.900    22906853.59048
  23865692.844 7 125415070.005 7        41.300                    97726028.60246
        24.000    23865695.48046
  22358458.000 8 117494487.415 8        47.400                    91554163.44749
        38.300    22358459.53149
  22660992.273 7 119084338.081 7        44.300    22660998.852 8  92793025.49949
        34.500    22660998.41449  22660994.695 5  88926655.478 5        36.000
 19  2 12  1 25  0.0000000  0 11G01G32G11G18G03G08G27G14G28G22G10
  21680299.727 9 113930773.976 9        49.800    21680307.137 9  88777254.13049
        40.400    21680307.00449  21680302.883 6  85078169.830 6        39.300
  22318707.266 8 117285629.804 8        47.500    22318714.383 8  91391408.08349
        37.700    22318713.43049  22318710.504 5  87583362.431 5        36.800
  20862348.180 9 109632387.765 9        50.200                    85427859.09349
        42.500    20862350.90649
  20035983.969 9 105289831.317 9        50.800                    82044052.78349
        45.500    20035987.91849
  23997470.117 6 126107548.641 6        40.500    23997476.547 7  98265649.67347
        27.200    23997475.53147  23997474.188 3  94171191.841 3        32.200
  20613723.688 9 108325862.521 9        53.600    20613730.727 9  84409789.39449
        49.200    20613729.58249  20613726.512 7  80892700.351 7        42.400
  22143122.852 9 116362916.688 9        48.500    22143129.363 9  90672430.46149
        41.800    22143128.60249  22143125.875 6  86894356.759 6        38.600
  22894000.148 7 120308800.431 7        43.800                    93747126.11948
        31.400    22894004.20748
  23857365.367 7 125371309.478 7        42.200                    97691929.51747
        25.800    23857368.85547
  22342924.430 8 117412856.739 8        46.800                    91490555.13449
        37.900    22342925.79749
  22677585.336 7 119171533.146 7        44.300    22677591.492 8  92860969.69149
        34.200    22677591.16049  22677586.891 4  88991768.637 4        34.600
 19  2 12  1 25 30.0000000  0 11G01G32G11G18G03G08G27G14G28G22G10
  21667214.453 9 113862008.615 9        49.100    21667221.625 9  88723670.75049
        40.600    21667221.20349  21667217.379 6  85026819.101 6        38.800
  22311285.578 8 117246628.436 8        47.700    22311292.426 8  91361017.41249
        37.300    22311291.65249  22311288.250 5  87554238.033 5        36.700
  20850227.477 9 109568693.638 9        49.900                    85378227.31549
        42.400    20850230.22749
  20030946.414 9 105263358.666 9        50.800                    82023424.74449
        45.200    20030950.29349
  23976993.914 6 125999949.721 6        39.700    23977001.609 7  98181806.38247
        26.500    23977000.39847  23976997.035 1  94090842.002 1        30.300
  20620741.906 9 108362742.827 9        53.400    20620748.684 9  84438527.29049
        49.300    20620747.81649  20620744.676 7  80920240.846 7        42.100
  22160347.578 9 116453433.328 9        48.300    22160354.246 9  90742962.90649
        41.400    22160353.55549  22160351.039 6  86961950.314 6        39.000
  22881221.352 7 120241645.760 7        43.500                    93694797.81048
        30.900    22881225.21548
  23849128.469 7 125328018.575 7        43.000                    97658196.34247
        25.800    23849130.02347
  22327448.438 8 117331530.705 8        47.200                    91427184.21749
        38.100    22327450.03149
  22694222.406 8 119258960.200 8        45.100    22694228.590 8  92929094.66549
        34.800    22694228.18849  22694223.555 5  89057055.097 5        35.000
 19  2 12  1 26  0.0000000  0 11G01G32G11G18G03G08G27G14G28G22G10
  21654174.352 9 113793482.760 9        49.500    21654181.426 9  88670273.98249
        40.400    21654181.09849  21654177.379 6  84975647.207 6        39.700
  22303965.703 8 117208160.897 8        47.200    22303972.109 8  91331042.72749
        37.200    22303971.35249  22303968.055 5  87525512.318 5        36.100
  20838176.344 9 109505364.456 9        49.600                    85328879.90049
        42.000    20838179.13349
  20025984.719 9 105237285.099 9        50.800                    82003107.68149
        44.900    20025988.82849
  23956547.945 6 125892504.702 6        39.800    23956555.180 7  98098082.99347
        26.500    23956553.87947  23956552.434 2  94010607.13112        31.700
  20627857.227 9 108400134.757 9        53.200    20627864.266 9  84467663.84749
        49.100    20627863.15649  20627860.164 7  80948163.378 7        42.400
  22177632.336 9 116544266.326 9        48.800    22177639.313 9  90813741.84649
        41.500    22177638.64849  22177635.555 6  87029780.117 6        39.000
  22868513.313 7 120174864.558 7        43.100                    93642760.52348
        31.300    22868517.07848
  23840979.703 7 125285198.545 7        42.100                    97624830.07147
        26.500    23840981.84847
  22312030.914 8 117250510.692 8        47.000                    91364051.75049
        38.400    22312032.28149
  22710902.836 7 119346617.115 7        44.500    22710908.910 8  92997398.74849
        34.700    22710908.59449  22710904.992 5  89122513.195 5        35.500
 19  2 12  1 26 30.0000000  0 11G01G32G11G18G03G08G27G14G28G22G10
  21641179.703 9 113725197.075 9        49.300    21641186.938 9  88617064.36549
        41.600    21641186.44549  21641183.172 6  84924654.665 6        38.800
  22296747.438 8 117170228.746 8        47.500    22296754.027 8  91301485.22749
        37.500    22296753.21149  22296750.066 5  87497186.322 5        36.300
  20826195.000 9 109442401.768 9        51.000                    85279818.06649
        42.700    20826197.63749
  20021098.930 9 105211611.219 9        50.600                    81983102.06749
        45.200    20021103.27349
  23936131.422 6 125785215.030 6        39.600    23936138.660 7  98014480.67047
        26.200    23936137.92647  23936135.863 3  93930488.245 3        32.200
  20635069.789 9 108438037.738 9        54.100    20635076.953 9  84497198.63949
        49.300    20635075.99249  20635073.016 7  80976467.548 7        41.900
  22194977.445 9 116635413.665 9        48.600    22194984.098 9  90884765.74549
        41.300    22194983.23449  22194980.426 6  87097844.707 6        39.000
  22855876.867 7 120108459.587 7        43.200                    93591016.40148
        31.500    22855880.68048
  23832920.852 7 125242850.946 7        42.100                    97591831.93447
        25.400    23832923.84847
  22296671.961 8 117169797.559 8        47.000                    91301158.40549
        37.900    22296673.21149
  22727626.672 7 119434501.541 7        44.400    22727632.953 7  93065880.12148
        33.500    22727632.33248  22727628.453 4  89188141.156 4        34.800
 19  2 12  1 27  0.0000000  0 11G01G32G11G18G03G08G27G14G28G22G10
  21628231.484 9 113657152.519 9        50.300    21628238.734 9  88564042.63749
        40.900    21628238.18449  21628234.402 6  84873842.161 6        39.000
  22289631.344 8 117132833.785 8        46.800    22289637.777 8  91272346.30549
        37.700    22289637.16449  22289633.668 5  87469261.532 5        36.700
  20814283.328 9 109379807.469 9        50.000                    85231043.28249
        42.200    20814286.19149
  20016289.875 9 105186337.808 9        50.800                    81963408.49449
        45.800    20016293.87549
  23915744.328 6 125678082.484 6        38.800    23915751.898 7  97931000.76147
        26.800    23915751.07047  23915749.551 3  93850486.608 3        32.000
  20642379.828 9 108476451.098 9        53.600    20642386.863 9  84527131.11249
        49.100    20642385.72349  20642382.781 7  81005152.829 7        42.700
  22212381.766 9 116726873.809 9        48.000    22212388.242 9  90956033.38649
        40.900    22212387.39849  22212384.449 6  87166142.865 6        39.000
  22843312.461 7 120042433.097 7        43.600                    93539567.18448
        31.300    22843316.52348
  23824952.852 7 125200976.783 7        41.000                    97559202.71947
        26.000    23824955.27747
  22281371.375 8 117089392.632 8        47.200                    91238505.21549
        38.300    22281372.61349
  22744393.500 7 119522611.523 7        43.900    22744399.793 8  93134537.24549
        34.100    22744399.35949  22744395.090 4  89253937.537 4        34.900
 19  2 12  1 27 30.0000000  0 11G01G32G11G18G03G08G27G14G28G22G10
  21615329.078 9 113589350.257 9        50.400    21615336.168 9  88511209.71349
        41.600    21615335.96549  21615331.891 6  84823210.625 6        39.600
  22282617.680 8 117095977.924 8        47.100    22282624.691 8  91243627.45849
        38.100    22282623.69949  22282620.543 5  87441739.322 5        36.600
  20802442.781 9 109317583.894 9        50.100                    85182557.37849
        42.300    20802445.60249
  20011556.828 9 105161465.783 9        51.000                    81944027.69449
        45.800    20011560.72749
  23895388.852 6 125571109.006 6        39.400    23895395.602 7  97847644.83047
        26.400    23895394.39847  23895393.320 3  93770603.848 3        32.700
  20649786.703 9 108515374.949 9        53.900    20649793.754 9  84557461.37849
        49.200    20649792.73449  20649789.719 7  81034219.360 7        41.800
  22229845.086 9 116818645.281 9        48.200    22229851.781 9  91027543.61549
        41.300    22229851.08249  22229848.020 6  87234673.508 6        38.900
  22830820.789 7 119976787.988 7        44.100                    93488415.16148
        31.900    22830824.27348
  23817074.211 7 125159577.585 7        41.600                    97526943.60147
        26.300    23817077.53947
  22266129.625 8 117009297.536 8        47.000                    91176093.46449
        38.600    22266130.85949
  22761202.742 8 119610945.164 8        45.000    22761209.109 8  93203368.64849
        34.000    22761208.55549  22761204.418 5  89319901.003 5        35.100
 19  2 12  1 28  0.0000000  0 11G01G32G11G18G03G08G27G14G28G22G10
  21602472.875 9 113521790.880 9        50.200    21602480.047 9  88458566.05149
        41.600    21602479.69549  21602475.797 6  84772760.444 6        39.000
  22275707.250 8 117059662.546 8        47.300    22275714.277 8  91215329.77549
        38.100    22275712.87149  22275710.125 5  87414620.722 5        36.800
  20790672.859 9 109255732.532 9        50.700                    85134361.51449
        42.500    20790675.79349
  20006900.266 9 105136995.456 9        51.200                    81924959.90949
        45.000    20006904.33649
  23875062.273 6 125464295.915 6        38.800    23875069.609 7  97764413.86847
        25.600    23875068.48847  23875066.992 3  93690840.872 3        32.400
  20657290.719 9 108554808.509 9        53.700    20657297.746 9  84588188.81449
        49.100    20657296.55149  20657293.539 7  81063666.478 7        42.300
  22247367.672 9 116910726.051 9        48.200    22247374.301 9  91099294.84849
        41.100    22247373.66449  22247370.844 6  87303435.102 6        38.800
  22818401.578 7 119911526.513 7        43.600                    93437562.06448
        31.900    22818405.43848
  23809287.266 7 125118654.611 7        42.100                    97495055.56647
        27.000    23809290.44947
  22250946.727 8 116929513.015 8        47.000                    91113923.71949
        38.100    22250948.68049
  22778053.953 7 119699500.050 7        44.900    22778060.313 8  93272372.45448
        33.900    22778059.85248  22778056.246 5  89386029.630 5        35.100
 19  2 12  1 28 30.0000000  0 11G01G32G11G18G03G08G27G14G28G22G10
  21589663.336 9 113454475.084 9        49.700    21589670.215 9  88406112.19449
        42.100    21589669.84049  21589666.168 6  84722492.171 6        39.200
  22268899.516 8 117023889.205 8        47.000    22268906.148 8  91187454.44849
        37.900    22268905.27349  22268902.410 5  87387906.836 5        36.700
  20778974.078 9 109194255.158 9        50.800                    85086457.07149
        42.600    20778977.12949
  20002320.242 9 105112927.006 9        51.100                    81906205.27249
        45.300    20002324.13349
  23854767.453 6 125357644.827 6        39.900    23854774.461 7  97681309.13847
        25.600    23854773.57847  23854772.152 2  93611198.837 2        31.800
  20664891.469 9 108594750.988 9        53.800    20664898.355 9  84619312.82149
        49.100    20664897.40249  20664894.637 7  81093493.637 7        41.800
  22264948.656 9 117003114.250 9        48.200    22264955.223 9  91171285.64949
        40.500    22264954.31349  22264951.813 6  87372426.268 6        39.200
  22806056.344 7 119846650.870 7        44.100                    93387009.62848
        32.100    22806060.32448
  23801590.438 7 125078208.931 7        41.400                    97463539.45947
        27.000    23801593.80147
  22235824.078 8 116850040.407 8        47.200                    91051997.02449
        38.900    22235825.31349
  22794947.625 8 119788273.903 8        45.100    22794953.492 8  93341546.88448
        33.900    22794953.28548  22794948.555 4  89452321.819 4        34.600
 19  2 12  1 29  0.0000000  0 11G01G32G11G18G03G08G27G14G28G22G10
  21576899.750 9 113387404.044 9        50.200    21576907.258 9  88353849.05349
        41.500    21576906.89149  21576903.094 6  84672406.680 6        39.000
  22262195.680 8 116988659.678 8        46.800    22262202.789 8  91160002.88549
        38.100    22262201.70349  22262198.195 5  87361599.106 5        36.600
  20767347.148 9 109133153.946 9        50.500                    85038845.73949
        42.500    20767349.73049
  19997816.781 9 105089261.877 9        51.300                    81887764.91349
        45.300    19997820.91849
  23834503.594 6 125251157.579 6        39.000    23834510.602 7  97598332.05947
        26.700    23834509.81347  23834508.469 3  93531679.171 3        32.400
  20672589.102 9 108635201.825 9        54.500    20672596.137 9  84650832.94249
        48.800    20672595.03549  20672591.938 7  81123700.433 7        42.300
  22282587.969 9 117095808.367 9        48.200    22282594.336 9  91243514.82949
        40.900    22282593.30949  22282590.680 6  87441645.908 6        38.400
  22793785.328 7 119782164.028 7        43.800                    93336760.15448
        32.500    22793788.79748
  23793985.125 7 125038242.136 7        42.200                    97432396.48047
        25.100    23793987.92247
  22220760.516 8 116770880.873 8        47.300                    90990314.27649
        38.200    22220761.69949
  22811881.703 7 119877264.953 7        44.100    22811887.703 8  93410890.55349
        34.000    22811887.42649  22811883.332 4  89518776.128 4        34.600
 19  2 12  1 29 30.0000000  0 11G01G32G11G18G03G08G27G14G28G22G10
  21564183.430 9 113320578.453 9        49.800    21564190.645 9  88301777.18149
        41.600    21564190.41449  21564186.227 6  84622504.459 6        39.700
  22255595.547 8 116953975.435 8        46.400    22255602.215 8  91132976.22249
        38.600    22255601.37549  22255598.066 5  87335698.563 5        36.900
  20755791.625 9 109072430.603 9        50.000                    84991528.85249
        42.200    20755794.46549
  19993390.164 9 105066000.201 9        51.200                    81869638.93049
        45.200    19993394.33249
  23814270.891 6 125144835.695 6        39.600    23814278.000 7  97515483.84147
        26.500    23814277.24647  23814275.875 3  93452282.965 3        32.700
  20680383.305 9 108676160.608 9        54.300    20680390.363 9  84682748.87449
        48.900    20680389.20749  20680385.996 7  81154286.519 7        42.200
  22300284.211 8 117188806.443 8        47.600    22300291.164 9  91315980.85249
        40.500    22300290.52749  22300287.602 6  87511092.499 6        38.100
  22781587.688 7 119718068.104 7        43.600                    93286815.29348
        31.000    22781591.60948
  23786470.516 6 124998755.304 6        40.800                    97401627.52147
        25.600    23786473.61747
  22205756.328 8 116692035.224 8        47.000                    90928876.12449
        38.600    22205757.85549
  22828856.953 7 119966470.819 7        44.300    22828863.109 8  93480401.61548
        33.500    22828862.96548  22828858.973 4  89585390.873 4        34.700
 19  2 12  1 30  0.0000000  0 11G01G32G11G18G03G08G27G14G28G22G10
  21551513.648 9 113253998.975 9        50.100    21551521.070 9  88249897.08149
        41.400    21551520.73049  21551516.801 6  84572786.036 6        39.500
  22249099.602 8 116919837.938 8        46.500    22249106.094 8  91106375.58349
        38.400    22249105.30149  22249102.293 5  87310206.297 5        37.000
  20744308.063 9 109012086.590 9        49.800                    84944507.54549
        42.300    20744311.24649
  19989040.516 9 105043142.523 9        50.800                    81851827.75749
        45.100    19989044.80549
  23794070.945 6 125038680.553 6        39.800    23794076.945 7  97432765.56147
        27.500    23794076.89847  23794074.664 3  93373011.331 3        32.000
  20688273.813 9 108717625.828 9        54.000    20688280.777 9  84715059.42449
        48.900    20688279.73849  20688276.961 7  81185250.798 7        42.700
  22318039.008 8 117282106.547 8        47.600    22318045.660 9  91388682.22149
        40.900    22318044.94549  22318042.074 6  87580764.646 6        38.700
  22769465.461 7 119654365.425 7        44.100                    93237176.85948
        31.800    22769469.35948
  23779048.695 7 124959749.417 7        42.100                    97371233.31647
        26.400    23779050.96947
  22190812.320 8 116613504.634 8        47.200                    90867683.47249
        38.800    22190814.15649
  22845873.227 7 120055889.249 7        43.900    22845878.676 7  93550078.31348
        32.600    22845878.60548  22845874.813 5  89652164.429 5        35.400
 19  2 12  1 30 30.0000000  0 11G01G32G11G18G03G08G27G14G28G22G10
  21538891.547 9 113187666.700 9        51.000    21538898.191 9  88198209.61849
        41.500    21538898.06349  21538893.930 6  84523252.227 6        39.400
  22242707.500 8 116886248.698 8        46.900    22242714.609 8  91080202.16549
        38.400    22242713.27349  22242710.656 5  87285123.424 5        36.100
  20732897.859 9 108952124.120 9        49.900                    84897783.54949
        42.100    20732900.83249
  19984767.766 9 105020689.411 9        51.000                    81834331.82749
        45.400    19984771.94149
  23773901.750 6 124932694.057 6        39.400    23773909.195 7  97350178.70047
        26.700    23773908.78147  23773906.281 2  93293865.551 2        31.700
  20696260.820 9 108759597.499 9        54.500    20696267.789 9  84747764.61849
        49.000    20696266.72349  20696263.656 7  81216593.277 7        41.800
  22335850.484 8 117375707.040 8        47.600    22335856.922 9  91461617.65149
        40.700    22335856.46949  22335853.719 6  87650661.122 6        38.400
  22757419.031 7 119591058.748 7        44.300                    93187846.97548
        31.900    22757422.17648
  23771717.953 7 124921225.749 7        41.400                    97341214.88447
        25.100    23771720.37947
  22175928.492 8 116535290.327 8        47.300                    90806737.27549
        38.900    22175930.50449
  22862928.781 7 120145518.291 7        43.600    22862934.930 7  93619919.11548
        32.700    22862934.25048  22862930.004 4  89719095.193 4        34.600
 19  2 12  1 31  0.0000000  0 11G01G32G11G18G03G08G27G14G28G22G10
  21526315.750 9 113121582.718 9        50.000    21526322.910 9  88146715.61749
        42.200    21526322.44949  21526318.672 6  84473903.795 6        39.400
  22236420.500 8 116853209.575 8        47.100    22236427.285 8  91054457.40849
        38.900    22236426.52349  22236423.137 5  87260451.376 5        36.900
  20721560.391 9 108892545.396 9        49.500                    84851358.58349
        42.500    20721563.44149
  19980572.398 9 104998641.970 9        50.800                    81817152.00349
        45.200    19980576.49649
  23753766.031 6 124826878.023 6        39.400    23753772.883 7  97267724.66647
        27.900    23753772.49247  23753771.164 2  93214847.07312        31.800
  20704344.125 9 108802075.410 9        54.100    20704351.027 9  84780864.27149
        48.800    20704350.04349  20704346.996 7  81248313.784 7        42.100
  22353719.313 9 117469606.378 9        48.100    22353725.512 9  91534785.96549
        40.100    22353724.76649  22353722.371 6  87720780.748 6        38.800
  22745447.563 7 119528150.500 7        44.000                    93138827.56548
        32.000    22745451.45348
  23764478.820 7 124883185.734 7        42.100                    97311573.31347
        25.600    23764482.20747
  22161105.242 8 116457393.261 8        47.100                    90746038.28049
        38.400    22161107.24649
  22880024.180 7 120235356.088 7        43.800    22880030.770 8  93689922.59448
        33.600    22880030.39848  22880026.051 4  89786181.851 4        34.500
 19  2 12  1 31 30.0000000  0 11G01G32G11G18G03G08G27G14G28G22G10
  21513787.883 9 113055747.437 9        50.000    21513794.871 9  88095415.40949
        42.300    21513794.28549  21513790.703 6  84424741.099 6        39.100
  22230238.266 8 116820721.651 8        47.000    22230244.961 8  91029142.15349
        38.800    22230244.27349  22230240.930 5  87236190.904 5        36.500
  20710296.516 9 108833351.660 9        49.900                    84805233.59449
        43.100    20710299.28149
  19976453.789 9 104977000.171 9        50.500                    81800288.26549
        45.100    19976458.25449
  23733662.758 6 124721233.644 6        40.000    23733669.242 7  97185404.36547
        27.600    23733668.41047  23733666.770 3  93135956.767 3        32.600
  20712523.406 9 108845058.054 9        54.700    20712530.242 9  84814357.23349
        48.800    20712529.38749  20712526.207 7  81280411.198 7        42.500
  22371644.133 9 117563802.322 9        48.100    22371650.473 9  91608185.40249
        40.500    22371649.85549  22371647.059 6  87791121.868 6        38.500
  22733553.234 7 119465642.643 7        43.800                    93090120.15248
        32.700    22733556.75848
  23757332.844 7 124845630.304 7        41.700                    97282309.29747
        25.600    23757335.64147
  22146342.859 8 116379814.649 8        47.800                    90685587.42249
        39.600    22146344.40249
  22897158.500 7 120325400.107 7        43.600    22897165.066 8  93760086.74848
        33.400    22897165.14148  22897161.180 4  89853422.513 4        34.400
