     2.10           Observation data    G (GPS)             RINEX VERSION / TYPE
sbf2rin                                 (16-JAN-07 00:59)   PGM / RUN BY / DATE 
LLI: only bit 0 (loss of lock bit) supported                COMMENT             
OBET                                                        MARKER NAME         
Unknown                                                     MARKER NUMBER       
Unknown             Unknown                                 OBSERVER / AGENCY   
1209                SEPT POLARX2        2.6.0               REC # / TYPE / VERS 
Unknown             Unknown                                 ANT # / TYPE        
  4186742.6132   834904.1438  4723618.0139                  APPROX POSITION XYZ 
        0.0000        0.0000        0.0000                  ANTENNA: DELTA H/E/N
     1     1                                                WAVELENGTH FACT L1/2
     5    C1    L1    L2    P2    P1                        # / TYPES OF OBSERV 
    30.000                                                  INTERVAL            
  2007     1    15     0     0    0.0000000     GPS         TIME OF FIRST OBS   
  2007     1    15    23    59   30.0000000     GPS         TIME OF LAST OBS    
                                                            COMMENT             
                                                            END OF HEADER       
 07  1 15  0  0  0.0000000  0  9G08G13G24G29G10G28G26G21G27
  20471905.60109 -26472889.89009 -20587662.65609  20471905.58109  20471904.30109
  24649751.57807  -2672290.63907  -1854367.13706  24649751.27606  24649750.75806
  24174406.86008  -6099130.53508  -4673048.66607  24174408.39407  24174405.81507
  21982660.30409 -15925238.67809 -12356949.84209  21982660.23509  21982659.63909
  20675932.22509 -22828446.25809 -17755080.31309  20675932.66409  20675930.59409
  22058187.36209 -16860591.54209 -13088292.22209  22058186.66909  22058186.18009
  22602335.16309 -11632984.48909  -9031529.58409  22602335.87609  22602334.77209
  25095135.72807  -1086274.46907   -819213.70506  25095134.46806  25095134.05806
  22374459.33109 -14013855.66709 -10891834.04909  22374460.28809  22374457.98309
 07  1 15  0  0 30.0000000  0  9G08G13G24G29G10G28G26G21G27
  20477897.07309 -26441404.37609 -20563128.48809  20477897.12209  20477895.83309
  24668299.85207  -2574821.00207  -1778416.77406  24668298.42606  24668298.10406
  24188585.23608  -6024623.09108  -4614990.93508  24188586.78908  24188583.72208
  21969408.77409 -15994876.23709 -12411212.86909  21969408.54909  21969408.07009
  20679415.66909 -22810140.62309 -17740816.19209  20679416.12809  20679414.10609
  22045053.58109 -16929609.21709 -13142072.22709  22045053.05309  22045052.49609
  22584853.49209 -11724851.44909  -9103114.21509  22584854.09809  22584852.66209
  25086785.46807  -1130149.58307   -853402.11806  25086784.90106  25086784.92106
  22387380.76709 -13945953.77509 -10838923.49609  22387381.81209  22387379.08609
 07  1 15  0  1  0.0000000  0  9G08G13G24G29G10G28G26G21G27
  20483969.36009 -26409493.96509 -20538263.23309  20483969.50709  20483968.13909
  24686863.52107  -2477265.06107  -1702399.20606  24686862.97406  24686862.38806
  24202812.20008  -5949861.89808  -4556735.49608  24202814.23208  24202811.04808
  21956193.79709 -16064321.43409 -12465326.00609  21956193.61109  21956192.94709
  20683011.40009 -22791244.85609 -17726092.22909  20683011.94709  20683009.82809
  22031997.01809 -16998222.50909 -13195537.12009  22031996.19809  22031995.82709
  22567406.07908 -11816537.78708  -9174558.09009  22567406.98709  22567405.24909
  25078530.85007  -1173529.30907   -887204.50106  25078529.61906  25078529.87306
  22400334.73109 -13877880.93109 -10785879.73409  22400335.40509  22400333.10009
 07  1 15  0  1 30.0000000  0  9G08G13G24G29G10G28G26G21G27
  20490122.26609 -26377159.73909 -20513067.73209  20490122.47109  20490121.21109
  24705443.33707  -2379623.19707  -1626314.61606  24705443.78606  24705442.95606
  24217086.39508  -5874849.73708  -4498284.53708  24217089.00308  24217085.79908
  21943015.45209 -16133572.97309 -12519288.24409  21943015.60809  21943014.70009
  20686719.58609 -22771759.01809 -17710908.47009  20686719.95709  20686718.02309
  22019017.69509 -17066428.94909 -13248684.99609  22019016.77709  22019016.48409
  22549993.58808 -11908041.77108  -9245859.87609  22549994.19409  22549992.66009
  25070370.60507  -1216412.09907   -920619.70306  25070369.92106  25070369.84306
  22413321.02009 -13809638.19809 -10732703.58909  22413321.58609  22413319.07609
 07  1 15  0  2  0.0000000  0 10G08G13G24G29G10G28G26G19G21G27
  20496355.80009 -26344403.07009 -20487543.05209  20496355.88809  20496354.49109
  24724040.94107  -2281896.29107  -1550163.78006  24724040.33506  24724039.88606
  24231408.47408  -5799589.18508  -4439640.01208  24231410.96508  24231407.30208
  21929874.68609 -16202629.76809 -12573098.72809  21929874.40309  21929873.74809
  20690539.79609 -22751683.57609 -17695265.27509  20690540.07909  20690538.25209
  22006116.27509 -17134226.68109 -13301514.40309  22006115.39509  22006114.94609
  22532615.70608 -11999362.25508  -9317018.68109  22532616.65409  22532615.22809
  25253799.57308    -25159.79308     -7017.45707  25253794.60107  25253798.67407
  25062304.66407  -1258797.01007   -953646.92106  25062304.98606  25062304.41006
  22426339.26009 -13741226.87109 -10679396.07109  22426339.86609  22426337.88309
 07  1 15  0  2 30.0000000  0 10G08G13G24G29G10G28G26G19G21G27
  20502669.19109 -26311225.29909 -20461690.24509  20502669.45509  20502667.98909
  24742653.58807  -2184085.06407  -1473947.24106  24742653.21706  24742653.00206
  24245776.36708  -5724083.55908  -4380804.50308  24245778.90708  24245775.63408
  21916770.98109 -16271490.80209 -12626756.67309  21916770.73709  21916769.90709
  20694471.98009 -22731018.92109 -17679162.95109  20694472.35209  20694470.67109
  21993293.05009 -17201613.66309 -13354023.73209  21993292.32709  21993291.90709
  22515273.36208 -12090497.68208  -9388033.28809  22515274.27109  22515272.64909
  25247177.34408    -59958.79108    -34133.61708  25247174.05208  25247175.69308
  25054334.64907  -1300682.46007   -986284.96406  25054334.35606  25054333.22306
  22439389.70809 -13672648.11209 -10625958.08709  22439389.95209  22439387.71509
 07  1 15  0  3  0.0000000  0 10G08G13G24G29G10G28G26G19G21G27
  20509062.51709 -26277627.83709 -20435510.40609  20509062.80009  20509061.34409
  24761282.95907  -2086190.03807  -1397665.42106  24761282.47106  24761282.73506
  24260190.52308  -5648335.25308  -4321779.86408  24260193.18008  24260190.51308
  21903704.63109 -16340154.95809 -12680261.21009  21903704.28909  21903703.55709
  20698516.50209 -22709765.16809 -17662601.59509  20698516.81509  20698514.96809
  21980548.37409 -17268587.24309 -13406210.93409  21980547.67009  21980547.35809
  22497966.10609 -12181446.71109  -9458902.63409  22497967.26909  22497965.46209
  25240641.79008    -94301.51708    -60894.17008  25240639.43608  25240640.14908
  25046459.18207  -1342067.42607  -1018532.99406  25046459.15306  25046458.03906
  22452471.34609 -13603903.01709 -10572390.48909  22452471.39409  22452469.75309
 07  1 15  0  3 30.0000000  0 10G08G13G24G29G10G28G26G19G21G27
  20515535.58209 -26243611.80109 -20409004.40709  20515535.88509  20515534.31209
  24779926.67007  -1988212.01707  -1321318.91306  24779926.11306  24779928.10606
  24274650.95208  -5572347.25108  -4262568.47808  24274653.12108  24274650.34608
  21890675.79209 -16408621.04209 -12733611.40309  21890675.84009  21890674.93209
  20702672.84309 -22687922.99209 -17645581.72709  20702673.33109  20702671.44609
  21967882.75309 -17335145.90409 -13458074.82609  21967881.93209  21967881.76609
  22480695.09108 -12272207.81308  -9529625.55809  22480696.18509  22480694.47609
  25234192.52106   -128186.10006    -87297.72407  25234192.00307  25234191.50507
  25038679.77807  -1382950.40607  -1050389.89306  25038678.50806  25038678.32206
  22465584.33009 -13534993.02509 -10518694.40309  22465584.68209  22465583.21709
 07  1 15  0  4  0.0000000  0 10G08G13G24G29G10G28G26G19G21G27
  20522087.92709 -26209178.64509 -20382173.37809  20522088.29909  20522086.67709
  24798588.27707  -1890151.66707  -1244908.25906  24798586.65506  24798588.95106
  24289155.74008  -5496122.41208  -4203172.56108  24289158.34808  24289154.97808
  21877685.15609 -16476888.00009 -12786806.43709  21877685.04909  21877684.12109
  20706941.16809 -22665493.00909 -17628103.82909  20706941.63709  20706939.49809
  21955296.46109 -17401287.71809 -13509613.90409  21955295.87509  21955295.28909
  22463459.84809 -12362779.46509  -9600200.86009  22463460.45409  22463459.07609
  25227833.23806   -161611.19106   -113342.99706  25227830.93306  25227829.32106
  25030995.69407  -1423330.39807  -1081854.85006  25030993.74006  25030994.62906
  22478728.79809 -13465919.40209 -10464870.81509  22478728.66209  22478727.30409
 07  1 15  0  4 30.0000000  0 10G08G13G24G29G10G28G26G19G21G27
  20528719.51409 -26174329.75709 -20355018.40209  20528719.86609  20528718.17609
  24817263.05207  -1792009.65907  -1168433.94506  24817262.08406  24817264.77106
  24303706.15508  -5419663.39608  -4143594.14007  24303707.21007  24303703.72307
  21864732.33409 -16544954.65709 -12839845.39009  21864732.36409  21864731.65109
  20711321.21509 -22642475.49309 -17610168.11809  20711321.65509  20711319.65209
  21942789.80209 -17467010.42509 -13560826.39809  21942789.01009  21942789.03009
  22446260.87509 -12453160.25909  -9670627.45709  22446261.46109  22446260.26909
  25221560.73808   -194574.54108   -139028.64808  25221558.75508  25221557.97308
  25023407.88707  -1463205.75307  -1112926.57606  25023405.85506  25023406.61706
  22491903.79309 -13396683.26009 -10410920.58409  22491904.06609  22491903.08009
 07  1 15  0  5  0.0000000  0 10G08G13G24G29G10G28G26G19G21G27
  20535429.78609 -26139066.76809 -20327540.75109  20535430.22509  20535428.51609
  24835954.35407  -1693786.95307  -1091896.80906  24835953.10406  24835955.16506
  24318298.34107  -5342973.64707  -4083835.91207  24318300.86107  24318297.47107
  21851818.02909 -16612820.14909 -12892727.58709  21851817.89309  21851817.10109
  20715813.07109 -22618871.13309 -17591775.12109  20715813.64809  20715811.37209
  21930363.36009 -17532312.15409 -13611710.86209  21930362.62809  21930362.19809
  22429098.62109 -12543348.86109  -9740904.28809  22429099.32409  22429097.94709
  25215376.34908   -227074.83208   -164353.55508  25215374.21908  25215374.57108
  25015916.49407  -1502575.00807  -1143603.90306  25015914.45306  25015915.04906
  22505109.75309 -13327286.04509 -10356844.84109  22505109.38209  22505108.69809
 07  1 15  0  5 30.0000000  0 10G08G13G24G29G10G28G26G19G21G27
  20542218.85909 -26103390.63509 -20299741.17009  20542219.15209  20542217.57009
  24854661.34508  -1595484.09008  -1015297.18706  24854659.70406  24854661.75506
  24332935.61707  -5266055.38707  -4023899.64007  24332937.85407  24332933.94707
  21838942.25109 -16680482.91709 -12945451.81909  21838942.07509  21838941.48909
  20720416.38509 -22594680.23609 -17572925.08309  20720416.93209  20720414.96909
  21918017.07909 -17597190.58909 -13662265.48109  21918016.55109  21918015.77009
  22411973.27209 -12633343.57509  -9811030.04209  22411973.89709  22411972.58909
  25209279.86508   -259109.87808   -189315.99507  25209277.14007  25209278.05807
  25008520.94907  -1541437.12707  -1173886.15206  25008519.05406  25008520.06106
  22518346.21109 -13257728.85509 -10302644.44209  22518345.75109  22518345.33109
 07  1 15  0  6  0.0000000  0 10G08G13G24G29G10G28G26G19G21G27
  20549086.04109 -26067302.90209 -20271620.86009  20549086.40209  20549084.89809
  24873382.25607  -1497102.19607   -938635.91406  24873381.07406  24873383.44806
  24347615.52307  -5188911.75807  -3963787.75407  24347617.87707  24347613.28607
  21826105.04809 -16747942.10409 -12998017.41909  21826104.88209  21826104.38409
  20725131.34209 -22569903.53709 -17553618.57509  20725131.74209  20725129.74009
  21905751.89409 -17661643.97809 -13712488.89609  21905751.25909  21905750.62409
  22394885.07309 -12723143.14109  -9881003.72409  22394885.83509  22394884.53609
  25203272.59708   -290678.38908   -213914.95207  25203268.79707  25203270.41907
  25001221.86807  -1579792.03707  -1203773.09706  25001221.12506  25001220.92006
  22531612.73509 -13188013.00209 -10248320.41309  22531612.38309  22531611.74809
 07  1 15  0  6 30.0000000  0 10G08G13G24G29G10G28G26G19G21G27
  20556031.29109 -26030805.17809 -20243181.07309  20556031.68209  20556030.16809
  24892118.56207  -1398641.45007   -861913.28806  24892118.23906  24892120.02706
  24362338.30208  -5111545.60908  -3903502.49407  24362340.40207  24362336.20207
  21813307.22209 -16815196.56309 -13050423.49309  21813306.71409  21813306.41109
  20729957.57109 -22544541.56609 -17533856.01109  20729957.98109  20729956.03709
  21893568.38309 -17725670.22809 -13762379.47609  21893567.36709  21893567.23109
  22377834.16909 -12812746.10809  -9950824.20809  22377834.68709  22377833.49509
  25197353.54707   -321778.93807   -238149.16107  25197350.33307  25197352.29707
  24994020.43107  -1617637.68107  -1233263.20406  24994019.45406  24994019.23906
  22544909.26809 -13118139.49409 -10193873.52909  22544908.69209  22544908.30109
 07  1 15  0  7  0.0000000  0 10G08G13G24G29G10G28G26G19G21G27
  20563054.48409 -25993898.84509 -20214422.88909  20563054.71809  20563053.28209
  24910869.61807  -1300102.99207   -785130.06406  24910870.03806  24910870.55506
  24377102.35308  -5033959.86708  -3843046.11707  24377104.02307  24377101.23007
  21800548.18609 -16882245.04109 -13102669.06509  21800547.90209  21800547.37509
  20734895.10109 -22518594.80909 -17513637.77209  20734895.52109  20734893.55709
  21881466.05809 -17789267.44309 -13811935.74809  21881465.36409  21881465.06109
  22360820.79609 -12902151.02709 -10020490.37109  22360821.20609  22360820.17109
  25191522.97906   -352409.56306   -262017.17206  25191522.10006  25191523.06706
  24986915.87707  -1654973.25407  -1262355.89106  24986914.48006  24986915.12506
  22558235.29209 -13048109.49809 -10139304.70709  22558234.79409  22558234.39309
 07  1 15  0  7 30.0000000  0 10G08G13G24G29G10G28G26G19G21G27
  20570155.15009 -25956584.94909 -20185347.12409  20570155.29609  20570153.91909
  24929636.31307  -1201487.34107   -708286.70406  24929636.01006  24929636.13706
  24391908.40808  -4956157.03008  -3782420.56207  24391909.60907  24391906.56207
  21787828.81909 -16949086.45409 -13154753.28809  21787828.61409  21787827.93009
  20739943.68809 -22492063.68209 -17492964.17409  20739944.15709  20739942.11509
  21869445.99209 -17852433.55709 -13861156.09209  21869445.40609  21869445.07409
  22343845.74409 -12991356.18109 -10090000.87709  22343846.34009  22343844.83509
  25185785.01607   -382568.61707   -285517.55706  25185784.64506  25185782.34906
  24979908.51907  -1691797.23607  -1291049.90606  24979907.20006  24979907.50306
  22571591.22709 -12977924.06309 -10084614.76609  22571590.89509  22571590.30809
 07  1 15  0  8  0.0000000  0 10G08G13G24G29G10G28G26G19G21G27
  20577332.95709 -25918865.09309 -20155955.02609  20577333.14209  20577331.70609
  24948417.06507  -1102795.10307   -631383.69506  24948417.49506  24948416.73306
  24406754.21108  -4878140.14308  -3721628.19607  24406755.97907  24406753.55607
  21775148.80909 -17015719.49609 -13206675.13709  21775148.71209  21775148.04709
  20745103.60509 -22464948.97709 -17471835.84309  20745103.90809  20745102.08109
  21857508.31309 -17915166.42609 -13910038.84909  21857507.78509  21857507.12109
  22326908.83809 -13080360.19209 -10159354.64809  22326909.31609  22326908.06609
  25180137.58708   -412254.34808   -308649.20408  25180135.73108  25180134.97808
  24972998.83507  -1728108.81807  -1319344.66206  24972996.97906  24972998.02406
  22584976.08609 -12907584.67109 -10029804.85709  22584976.27109  22584975.57809
 07  1 15  0  8 30.0000000  0 10G08G13G24G29G10G28G26G19G21G27
  20584587.91509 -25880740.35109 -20126247.43109  20584588.01209  20584586.70309
  24967211.55107  -1004027.21907   -554421.67705  24967211.61005  24967211.13105
  24421640.81608  -4799912.15608  -3660671.35608  24421642.26208  24421640.36708
  21762508.75209 -17082143.11909 -13258433.80109  21762508.80109  21762508.27409
  20750374.15009 -22437251.57809 -17450253.46309  20750374.60009  20750372.68509
  21845653.49909 -17977464.57209 -13958582.85409  21845652.95209  21845652.44409
  22310010.45809 -13169161.65009 -10228550.59009  22310010.96609  22310009.75509
  25174578.96208   -441465.41008   -331411.03108  25174577.14508  25174577.82808
  24966186.24907  -1763906.34307  -1347238.82906  24966185.15506  24966185.74106
  22598390.53309 -12837092.34609  -9974875.77809  22598390.10309  22598389.19509
 07  1 15  0  9  0.0000000  0 10G08G13G24G29G10G28G26G19G21G27
  20591919.52509 -25842212.20109 -20096225.49209  20591919.56409  20591918.34309
  24986019.63507   -905184.43407   -477401.31806  24986020.40706  24986020.19206
  24436566.53408  -4721476.03008  -3599552.32907  24436567.93107  24436566.56307
  21749908.88309 -17148356.24709 -13310028.44609  21749908.90209  21749907.95509
  20755755.78109 -22408972.06909 -17428217.48709  20755756.01609  20755754.08209
  21833881.60009 -18039325.92809 -14006786.50409  21833881.03309  21833880.41809
  22293150.86909 -13257758.88809 -10297587.38909  22293151.64009  22293150.15609
  25169111.01708   -470200.25708   -353801.76808  25169108.78008  25169110.17708
  24959472.78407  -1799189.03507  -1374731.82506  24959470.97606  24959471.77706
  22611833.44609 -12766448.24109  -9919828.42809  22611833.71909  22611832.61509
 07  1 15  0  9 30.0000000  0 10G08G13G24G29G10G28G26G19G21G27
  20599327.54509 -25803282.39509 -20065890.57509  20599327.75909  20599326.47009
  25004843.35907   -806267.68907   -400323.27906  25004843.21206  25004843.39806
  24451531.92108  -4642834.49608  -3538273.25007  24451533.15207  24451531.48207
  21737349.18109 -17214357.54209 -13361458.01909  21737349.30809  21737348.56509
  20761247.71709 -22380111.01409 -17405728.35809  20761248.08909  20761246.36009
  21822193.37709 -18100748.48609 -14054648.23109  21822192.74209  21822192.15609
  22276330.49009 -13346150.56809 -10366464.01309  22276330.92909  22276330.02109
  25163733.57607   -498457.16507   -375820.12407  25163730.61607  25163732.93107
  24952856.65007  -1833955.84907  -1401822.84406  24952855.36106  24952855.16506
  22625305.29209 -12695653.49309  -9864663.69409  22625305.63409  22625303.95409
 07  1 15  0 10  0.0000000  0 10G08G13G24G29G10G28G26G19G21G27
  20606811.81609 -25763952.14209 -20035243.61909  20606811.98209  20606810.65309
  25023681.88107   -707277.28907   -323187.93706  25023680.94306  25023680.61106
  24466535.66908  -4563990.55508  -3476836.44407  24466536.65607  24466534.81907
  21724830.15409 -17280145.97209 -13412721.72509  21724830.06609  21724829.47109
  20766850.32009 -22350669.20509 -17382786.69409  20766850.69109  20766848.88409
  21810588.88809 -18161730.26109 -14102166.49309  21810588.50809  21810587.47209
  22259549.49709 -13434335.05309 -10435179.18709  22259550.40509  22259549.11609
  25158446.97207   -526234.70807   -397464.96306  25158444.30506  25158445.81906
  24946339.30507  -1868206.81307  -1428511.93006  24946337.66406  24946337.21406
  22638805.40909 -12624709.52409  -9809382.69109  22638805.40909  22638804.49109
 07  1 15  0 10 30.0000000  0 10G08G13G24G29G10G28G26G19G21G27
  20614372.13409 -25724222.62109 -20004285.54809  20614372.22209  20614370.85509
  25042533.23907   -608214.10607   -245995.84806  25042532.15506  25042532.21306
  24481577.28008  -4484947.07108  -3415244.16607  24481578.57907  24481576.09807
  21712351.78409 -17345720.31209 -13463818.60509  21712351.84309  21712350.97309
  20772563.21709 -22320647.60609 -17359393.24709  20772563.66709  20772561.78109
  21799068.72109 -18222269.65909 -14149340.04409  21799068.01809  21799067.18709
  22242808.45709 -13522310.96409 -10503731.83209  22242809.00409  22242807.67509
  25153252.35707   -553531.30407   -418735.07106  25153248.71406  25153250.65706
  24939919.64407  -1901940.24507  -1454797.72106  24939918.33506  24939917.90506
  22652333.85409 -12553617.40709  -9753986.24309  22652334.31309  22652332.47609
 07  1 15  0 11  0.0000000  0 10G08G13G24G29G10G28G26G19G21G27
  20622007.83509 -25684095.77609 -19973017.87009  20622008.19709  20622006.67309
  25061397.64807   -509079.04907   -168747.76706  25061397.24706  25061397.18906
  24496655.78508  -4405706.62808  -3353498.36808  24496657.70008  24496654.77908
  21699914.40209 -17411079.42009 -13514747.77209  21699914.39209  21699913.68909
  20778386.46809 -22290046.78109 -17335548.45309  20778386.74209  20778384.88609
  21787632.92309 -18282364.49709 -14196167.17709  21787632.48409  21787631.79009
  22226106.98909 -13610076.71909 -10572120.71709  22226107.54609  22226106.46109
  25148148.13906   -580345.71106   -439629.37505  25148143.89005  25148146.41005
  24933599.32707  -1935154.63607  -1480679.04806  24933597.27606  24933597.90106
  22665890.15809 -12482378.11209  -9698475.11209  22665890.54909  22665888.89809
 07  1 15  0 11 30.0000000  0 10G08G13G24G29G10G28G26G19G21G27
  20629719.10509 -25643572.59909 -19941441.36709  20629719.37909  20629717.83509
  25080276.27907   -409872.53107    -91443.99506  25080274.76506  25080276.35706
  24511771.77208  -4326272.28508  -3291601.52407  24511773.91207  24511770.40507
  21687518.11609 -17476222.02109 -13565508.22909  21687518.00909  21687517.15909
  20784319.55509 -22258867.45709 -17311252.88409  20784319.95609  20784318.09009
  21776282.16909 -18342013.25109 -14242646.71809  21776281.42709  21776280.89009
  22209446.04009 -13697630.74709 -10640344.63109  22209446.52909  22209445.35609
  25143138.11807   -606676.00907   -460146.45806  25143134.73806  25143135.42206
  24927377.56407  -1967849.48907  -1506155.56006  24927375.68806  24927376.78206
  22679474.42909 -12410992.69709  -9642850.11709  22679474.80009  22679472.72909
 07  1 15  0 12  0.0000000  0 10G08G13G24G29G10G28G26G19G21G27
  20637505.53309 -25602654.72509 -19909557.31309  20637505.81609  20637504.26309
  25099167.85407   -310595.54607    -14085.22906  25099165.85106  25099168.60606
  24526923.72708  -4246646.87108  -3229555.78607  24526925.90507  24526922.42707
  21675163.30609 -17541146.97109 -13616099.08809  21675163.20909  21675162.65209
  20790362.96709 -22227110.50709 -17286507.22009  20790363.12309  20790361.27709
  21765016.60609 -18401214.15009 -14288777.28309  21765016.08809  21765015.19909
  22192825.33709 -13784971.54409 -10708402.37909  22192826.33409  22192824.54609
  25138221.90208   -632520.98608   -480285.34607  25138218.29807  25138218.76707
  24921255.64407  -2000023.71207  -1531226.38306  24921253.63106  24921253.80706
  22693086.20809 -12339462.52709  -9587112.32509  22693086.63809  22693084.50909
 07  1 15  0 12 30.0000000  0 10G08G13G24G29G10G28G26G19G21G27
  20645366.81609 -25561343.39809 -19877366.66909  20645367.04109  20645365.48709
  25118071.90307   -211248.76207     63327.82306  25118071.51206  25118072.47906
  24542111.77508  -4166833.38608  -3167363.49307  24542114.05107  24542110.12407
  21662850.01209 -17605853.18709 -13666519.50909  21662850.00309  21662849.21109
  20796515.69709 -22194776.76409 -17261312.10609  20796516.01909  20796514.16309
  21753836.58409 -18459964.91909 -14334557.09809  21753836.01709  21753835.34309
  22176246.10109 -13872097.68609 -10776292.87009  22176246.76509  22176245.32909
  25133396.98208   -657879.13108   -500044.96408  25133393.74908  25133394.54008
  24915231.80807  -2031676.47907  -1555890.86006  24915229.84406  24915230.20606
  22706725.32909 -12267788.69509  -9531262.59809  22706725.78809  22706723.44409
 07  1 15  0 13  0.0000000  0 10G08G13G24G29G10G28G26G19G21G27
  20653302.90509 -25519639.94009 -19844870.47009  20653302.90509  20653301.52809
  25136990.91707   -111832.98807    140794.60605  25136990.12605  25136990.65305
  24557335.04908  -4086834.66508  -3105026.84007  24557337.12907  24557333.41707
  21650578.77209 -17670339.30709 -13716768.42409  21650578.73309  21650578.20509
  20802778.27209 -22161867.07609 -17235668.20209  20802778.53609  20802776.77809
  21742742.63209 -18518264.21509 -14379985.11809  21742742.38709  21742741.48909
  22159707.66809 -13959007.49709 -10844014.79109  22159708.18609  22159706.83709
  25128663.62208   -682749.17208   -519424.19608  25128661.57108  25128662.07908
  24909307.75707  -2062806.17707  -1580147.77106  24909306.51606  24909306.48706
  22720391.61609 -12195972.34509  -9475301.82509  22720392.18309  22720390.04309
 07  1 15  0 13 30.0000000  0 10G08G13G24G29G10G28G26G19G21G27
  20661313.34209 -25477546.19009 -19812070.14709  20661313.12709  20661311.86709
  25155922.17107    -12348.87907    218314.75106  25155921.11606  25155921.73106
  24572592.52107  -4006653.66407  -3042548.14707  24572595.21707  24572590.83107
  21638349.59409 -17734604.23809 -13766844.97909  21638349.30009  21638348.77309
  20809150.33209 -22128382.26509 -17209576.15109  20809150.49809  20809148.75009
  21731734.93409 -18576110.13509 -14425059.85609  21731734.61209  21731733.77209
  22143210.61309 -14045699.50509 -10911566.99009  22143211.19909  22143209.79309
  25124024.75107   -707129.52107   -538421.85808  25124022.00608  25124022.87608
  24903483.08907  -2093412.93707  -1603997.20106  24903482.19006  24903482.38606
  22734084.61909 -12124014.74209  -9419230.96409  22734085.38109  22734082.83209
 07  1 15  0 14  0.0000000  0 10G08G13G24G29G10G28G26G19G21G27
  20669397.49209 -25435063.47309 -19778966.73509  20669397.39409  20669396.19209
  25174864.45307     87202.74807    295887.38406  25174865.96706  25174865.58606
  24587884.00807  -3926293.33407  -2979929.74307  24587887.28007  24587882.85507
  21626162.68309 -17798646.68409 -13816748.17609  21626162.60509  21626161.89209
  20815631.32009 -22094323.32209 -17183036.72409  20815631.70109  20815629.85409
  21720813.92209 -18633500.70109 -14469779.77809  21720813.40409  21720812.74009
  22126755.39709 -14132172.22809 -10978948.32909  22126756.12009  22126754.87909
  25119477.87907   -731019.09207   -557037.08708  25119476.03308  25119476.49208
  24897758.60607  -2123496.23207  -1627438.73406  24897758.23506  24897757.84406
  22747804.42709 -12051917.00109  -9363050.91209  22747805.45309  22747802.58109
 07  1 15  0 14 30.0000000  0 10G08G13G24G29G10G28G26G19G21G27
  20677555.48009 -25392193.12209 -19745561.26709  20677555.38309  20677554.30809
  25193822.85307    186820.57507    373511.66405  25193822.45305  25193822.65805
  24603210.27907  -3845756.46407  -2917173.78807  24603213.06307  24603208.61907
  21614018.26609 -17862465.67709 -13866477.25309  21614018.31509  21614017.53309
  20822221.69409 -22059691.22709 -17156050.68809  20822221.97709  20822220.35509
  21709979.78009 -18690434.33509 -14514143.64809  21709979.25309  21709978.44209
  22110342.25309 -14218424.05109 -11046157.53909  22110342.64409  22110341.42309
  25115023.60207   -754416.30007   -575268.62607  25115023.53407  25115023.65107
  24892134.25007  -2153054.46707  -1650471.14606  24892132.17906  24892132.72606
  22761550.74709 -11979680.11109  -9306762.44309  22761551.22509  22761549.20309
 07  1 15  0 15  0.0000000  0  9G08G24G29G10G28G26G19G21G27
  20685786.88809 -25348936.72009 -19711854.97709  20685786.83009  20685785.67709
  24618568.77707  -3765045.89907  -2854282.45307  24618571.63907  24618566.96007
  21601916.65309 -17926059.71809 -13916031.04409  21601916.60409  21601916.13609
  20828920.85809 -22024486.75509 -17128618.64709  20828921.36609  20828919.40309
  21699233.11409 -18746909.13509 -14558149.98809  21699232.45009  21699232.00109
  22093971.49509 -14304453.44409 -11113193.42409  22093972.00309  22093970.59609
  25110665.66107   -777319.85907   -593115.52306  25110664.22506  25110664.37206
  24886609.39407  -2182087.11707  -1673093.97606  24886607.44006  24886608.31906
  22775323.43109 -11907305.01809  -9250366.27509  22775324.08609  22775321.89709
 07  1 15  0 15 30.0000000  0  9G08G24G29G10G28G26G19G21G27
  20694091.32509 -25305295.57109 -19677848.88809  20694091.48109  20694090.33909
  24633960.01807  -3684164.56007  -2791258.03806  24633962.22606  24633958.75806
  21589858.22709 -17989427.64809 -13965408.64809  21589858.16809  21589857.48509
  20835728.74609 -21988710.77409 -17100741.27809  20835729.14609  20835727.30009
  21688573.92509 -18802923.37509 -14601797.45109  21688573.32909  21688572.25409
  22077643.32609 -14390258.81109 -11180054.74409  22077643.63909  22077642.31009
  25106402.37607   -799728.24107   -610576.58106  25106399.33806  25106400.21706
  24881184.95807  -2210592.98307  -1695306.37906  24881183.46306  24881184.02006
  22789121.99209 -11834792.99609  -9193863.41509  22789122.55909  22789120.77109
 07  1 15  0 16  0.0000000  0  9G08G24G29G10G28G26G19G21G27
  20702468.91709 -25261271.13709 -19643544.13409  20702469.10309  20702467.78409
  24649382.91907  -3603115.29907  -2728102.78806  24649385.02906  24649382.00006
  21577843.03609 -18052568.21209 -14014609.08809  21577842.79109  21577842.46909
  20842645.23809 -21952364.36009 -17072419.41009  20842645.62909  20842643.65609
  21678002.54309 -18858475.38309 -14645084.72509  21678002.02509  21678001.05809
  22061357.79709 -14475838.47109 -11246740.19509  22061358.45109  22061357.22109
  25102232.71207   -821640.38507   -627650.98806  25102229.69306  25102231.42206
  24875860.64807  -2238570.77507  -1717107.27906  24875859.40706  24875859.46606
  22802946.36109 -11762145.19509  -9137254.74609  22802946.57609  22802945.05209
 07  1 15  0 16 30.0000000  0  9G08G24G29G10G28G26G19G21G27
  20710918.93309 -25216865.08709 -19608942.02009  20710919.34309  20710917.80009
  24664837.96707  -3521901.23407  -2664819.16007  24664839.88207  24664837.30307
  21565871.17709 -18115480.44309 -14063631.60409  21565870.80609  21565870.50309
  20849670.11109 -21915448.83909 -17043654.08309  20849670.59009  20849668.53809
  21667519.42909 -18913563.74309 -14688010.71809  21667518.98909  21667518.03209
  22045115.75709 -14561191.03409 -11313248.68209  22045116.14709  22045114.91709
  25098158.16207   -843054.98907   -644337.68907  25098154.78207  25098156.22807
  24870637.47907  -2266021.24007  -1738497.27106  24870636.14106  24870635.93606
  22816796.46009 -11689362.76609  -9080541.17309  22816796.90909  22816795.21909
 07  1 15  0 17  0.0000000  0  9G08G24G29G10G28G26G19G21G27
  20719441.44909 -25172078.87309 -19574043.67509  20719441.80109  20719440.01309
  24680322.83907  -3440525.01807  -2601409.11107  24680325.28107  24680323.06307
  21553943.08109 -18178162.98109 -14112475.14209  21553942.91509  21553942.35809
  20856803.07109 -21877965.06809 -17014445.96509  20856803.46209  20856801.52809
  21657125.04109 -18968186.51509 -14730573.91209  21657124.86509  21657123.55709
  22028917.20509 -14646315.01609 -11379579.06009  22028917.89909  22028916.33609
  25094178.01408   -863970.83308   -660635.75208  25094176.19708  25094176.86108
  24865514.25207  -2292943.09507  -1759475.36906  24865513.28506  24865513.05106
  22830671.78109 -11616446.69009  -9023723.45909  22830671.89809  22830670.47209
 07  1 15  0 17 30.0000000  0  9G08G24G29G10G28G26G19G21G27
  20728035.80209 -25126914.08409 -19538850.33709  20728036.49609  20728034.39609
  24695839.51608  -3358989.67308  -2537875.12007  24695840.85407  24695839.33007
  21542058.96209 -18240614.61009 -14161138.74809  21542058.71809  21542058.29809
  20864043.94309 -21839914.07309 -16984795.85209  20864044.30509  20864042.35109
  21646819.61509 -19022342.20709 -14772773.14909  21646819.15509  21646818.28609
  22012762.61209 -14731208.70109 -11445729.98409  22012763.01209  22012761.76209
  25090292.83507   -884386.61607   -676544.13307  25090291.10607  25090291.73107
  24860491.49307  -2319335.60207  -1780040.96506  24860491.18006  24860490.43806
  22844572.50009 -11543397.92609  -8966802.36309  22844572.58809  22844571.55209
 07  1 15  0 18  0.0000000  0  9G08G24G29G10G28G26G19G21G27
  20736702.49109 -25081371.88009 -19503362.91009  20736702.82309  20736700.73209
  24711385.26407  -3277298.05407  -2474219.37607  24711386.73907  24711384.73707
  21530218.94709 -18302833.97309 -14209621.36809  21530218.92809  21530218.39109
  20871392.64809 -21801296.74909 -16954704.44409  20871392.95109  20871391.07609
  21636603.36409 -19076028.75409 -14814606.82009  21636602.97309  21636602.11309
  21996651.83909 -14815870.46909 -11511700.18509  21996652.36709  21996651.18509
  25086504.03007   -904300.72907   -692061.59107  25086501.93007  25086502.06707
  24855570.68607  -2345198.06107  -1800193.57606  24855569.35806  24855569.20106
  22858498.08909 -11470217.41209  -8909778.58809  22858498.58709  22858497.16109
 07  1 15  0 18 30.0000000  0  9G08G24G29G10G28G26G19G21G27
  20745440.32209 -25035453.61409 -19467582.44909  20745440.77209  20745438.67209
  24726959.26308  -3195452.97908  -2410444.03907  24726961.24607  24726959.09607
  21518423.40809 -18364819.99309 -14257922.16609  21518423.36909  21518422.87109
  20878848.84509 -21762114.46709 -16924172.81009  20878849.14809  20878847.21409
  21626476.82609 -19129244.99409 -14856074.01709  21626476.35709  21626475.59509
  21980585.62109 -14900298.77609 -11577488.46909  21980586.19709  21980584.99509
  25082809.02207   -923712.47907   -707187.59307  25082807.88907  25082807.61607
  24850749.77107  -2370529.70307  -1819932.54806  24850749.30306  24850748.71606
  22872448.74409 -11396906.47309  -8852653.19609  22872448.88109  22872447.62109
 07  1 15  0 19  0.0000000  0  9G08G24G29G10G28G26G19G21G27
  20754249.60009 -24989160.91609 -19431510.22209  20754250.02009  20754248.09609
  24742563.30908  -3113457.31708  -2346551.35207  24742564.99907  24742562.41007
  21506672.66809 -18426571.35909 -14306040.11309  21506672.56009  21506671.95409
  20886412.31909 -21722368.24709 -16893201.74509  20886412.68009  20886410.66809
  21616439.91309 -19181989.15609 -14897173.36209  21616439.21909  21616438.94609
  21964564.23909 -14984492.07309 -11643093.63009  21964564.80509  21964563.55509
  25079211.19107   -942620.62707   -721921.16007  25079209.64707  25079208.92407
  24846030.99507  -2395329.80207  -1839257.33706  24846029.92106  24846029.87206
  22886423.54609 -11323466.30909  -8795427.10609  22886423.79109  22886422.91209
 07  1 15  0 19 30.0000000  0  9G08G24G29G10G28G26G19G21G27
  20763129.79709 -24942495.25909 -19395147.37209  20763130.31409  20763128.34109
  24758194.73508  -3031314.24608  -2282543.77907  24758196.19107  24758193.72007
  21494966.77309 -18488086.80609 -14353974.22509  21494966.44109  21494965.90409
  20894082.76609 -21682059.32209 -16861792.20409  20894083.24509  20894081.26209
  21606493.34809 -19234259.16309 -14937903.24109  21606492.80109  21606492.11709
  21948588.17309 -15068448.82509 -11708514.47009  21948588.15309  21948587.31309
  25075708.76707   -961023.94307   -736261.34407  25075707.80007  25075706.54907
  24841412.66707  -2419597.89507  -1858167.54206  24841411.36806  24841411.60306
  22900423.42409 -11249897.99709  -8738101.15509  22900424.19609  22900421.87109
 07  1 15  0 20  0.0000000  0  9G08G24G29G10G28G26G19G21G27
  20772080.78509 -24895458.56909 -19358495.41009  20772081.07809  20772079.24109
  24773853.48508  -2949026.43308  -2218423.45007  24773855.30207  24773852.57607
  21483305.65709 -18549365.21309 -14401723.63209  21483305.60909  21483304.96409
  20901860.16809 -21641188.52909 -16829944.84209  20901860.71509  20901858.59509
  21596637.05309 -19286054.29909 -14978263.08709  21596636.26209  21596635.85209
  21932656.80709 -15152167.40109 -11773749.72009  21932657.48109  21932655.94709
  25072302.63007   -978921.45907   -750207.39207  25072301.88807  25072300.61807
  24836896.14607  -2443333.16607  -1876662.60206  24836894.67106  24836895.40406
  22914447.55709 -11176202.66009  -8680676.23909  22914447.46009  22914445.82809
 07  1 15  0 20 30.0000000  0  9G08G24G29G10G28G26G19G21G27
  20781101.88109 -24848051.92109 -19321555.16509  20781102.29109  20781100.66009
  24789539.18508  -2866596.95108  -2154192.73607  24789541.27507  24789538.26707
  21471690.13109 -18610405.14909 -14449287.21709  21471690.01409  21471689.48609
  20909744.38709 -21599757.13109 -16797660.64909  20909744.85609  20909742.65809
  21586871.44809 -19337372.43209 -15018251.24309  21586870.76409  21586870.35409
  21916771.44009 -15235645.99309 -11838797.96209  21916771.91909  21916770.63909
  25068993.09307   -996311.78507   -763758.27607  25068992.42907  25068991.21807
  24832481.26507  -2466535.51707  -1894742.39506  24832479.80906  24832480.15106
  22928494.90009 -11102380.99409  -8623152.87509  22928495.40809  22928493.98209
 07  1 15  0 21  0.0000000  0  9G08G24G29G10G28G26G19G21G27
  20790193.01609 -24800276.96609 -19284327.92709  20790193.56309  20790191.90309
  24805251.44507  -2784028.67907  -2089853.83507  24805253.23307  24805249.89207
  21460120.17409 -18671205.56309 -14496664.16309  21460119.93909  21460119.53909
  20917734.76009 -21557766.62109 -16764940.77609  20917735.32709  20917733.31409
  21577197.00209 -19388212.41409 -15057866.81609  21577196.15209  21577195.64409
  21900931.66309 -15318883.32709 -11903658.21409  21900932.15209  21900931.18509
  25065780.61507  -1013193.95407   -776913.20507  25065779.63907  25065779.15007
  24828167.31107  -2489203.91707  -1912406.08706  24828166.10006  24828166.11006
  22942566.42009 -11028434.14009  -8565531.96909  22942567.06409  22942565.40409
 07  1 15  0 21 30.0000000  0  9G08G24G29G10G28G26G19G21G27
  20799354.14209 -24752134.97809 -19246814.69209  20799354.65009  20799353.05809
  24820989.71907  -2701324.32207  -2025408.93407  24820991.48707  24820987.84307
  21448596.18709 -18731765.18509 -14543853.48109  21448595.96209  21448595.43509
  20925831.46209 -21515218.03809 -16731786.05109  20925831.97909  20925830.05509
  21567613.50009 -19438572.37109 -15097108.34009  21567612.84509  21567612.15209
  21885138.46209 -15401877.58109 -11968329.04909  21885138.97009  21885137.74909
  25062665.44107  -1029566.81407   -789671.25707  25062663.50607  25062663.41907
  24823955.47607  -2511338.40907  -1929653.76107  24823954.69507  24823954.16707
  22956661.90109 -10954363.31109  -8507814.45709  22956662.34109  22956660.75809
 07  1 15  0 22  0.0000000  0  9G08G24G29G10G28G26G19G21G27
  20808584.76109 -24703627.54609 -19209016.69709  20808585.14209  20808583.53009
  24836752.27707  -2618486.78607  -1960860.19306  24836754.94406  24836750.75306
  21437118.19009 -18792082.53409 -14590854.01809  21437117.99409  21437117.42809
  20934034.23909 -21472112.55609 -16698197.38209  20934034.70709  20934032.84209
  21558121.95709 -19488450.54809 -15135974.44409  21558121.40009  21558120.88309
  21869391.92409 -15484627.32109 -12032809.36309  21869392.33409  21869391.02509
  25059647.08107  -1045429.12907   -802031.49107  25059644.73607  25059644.67707
  24819844.71507  -2532938.23607  -1946484.83106  24819844.10906  24819843.85506
  22970780.28909 -10880169.47309  -8450001.09409  22970780.87509  22970779.27309
 07  1 15  0 22 30.0000000  0  9G08G24G29G10G28G26G19G21G27
  20817884.38409 -24654756.08309 -19170935.04309  20817885.10609  20817883.37709
  24852540.41807  -2535518.71507  -1896209.71607  24852543.14407  24852538.85507
  21425686.54309 -18852156.48909 -14637664.89909  21425686.34809  21425685.69409
  20942342.68009 -21428451.50409 -16664175.80009  20942343.21809  20942341.28309
  21548722.39409 -19537846.03109 -15174464.42909  21548721.73009  21548721.21209
  21853691.82509 -15567130.69709 -12097097.70309  21853692.31309  21853691.23909
  25056725.97507  -1060780.27807   -813993.41507  25056723.47407  25056723.81607
  24815836.45407  -2554002.68407  -1962898.70806  24815835.10606  24815835.13506
  22984922.01409 -10805853.59909  -8392092.63909  22984922.94209  22984921.28209
 07  1 15  0 23  0.0000000  0  9G08G24G29G10G28G26G19G21G27
  20827253.46909 -24605522.01509 -19132570.83709  20827253.92809  20827252.15109
  24868353.32307  -2452423.18007  -1831459.99907  24868355.80407  24868351.34007
  21414301.19909 -18911985.84109 -14684285.17109  21414301.28709  21414300.49609
  20950756.73809 -21384236.13509 -16629722.28609  20950757.10009  20950755.14609
  21539415.12309 -19586757.09509 -15212576.94609  21539414.29209  21539413.73509
  21838039.39609 -15649386.36709 -12161193.02809  21838039.70909  21838038.31209
  25053902.23107  -1075619.08807   -825556.11307  25053899.72007  25053900.85307
  24811929.80307  -2574531.40307  -1978895.10106  24811928.82606  24811928.59206
  22999086.98809 -10731416.67009  -8334089.84709  22999087.72109  22999086.18709
 07  1 15  0 23 30.0000000  0  9G08G24G29G10G28G26G19G21G27
  20836691.12909 -24555926.87809 -19093925.28209  20836691.49109  20836689.76209
  24884188.78207  -2369203.14907  -1766613.20206  24884191.24406  24884187.57106
  21402962.92009 -18971569.27109 -14730713.81709  21402962.85109  21402962.19709
  20959275.92309 -21339467.78209 -16594837.86909  20959276.16809  20959274.25309
  21530200.14309 -19635182.14109 -15250310.74709  21530199.39109  21530199.03909
  21822433.85609 -15731392.46409 -12225093.87709  21822434.32409  21822433.37709
  25051175.97507  -1089944.48807   -836718.76907  25051173.92407  25051174.43207
  24808125.71107  -2594523.97007  -1994473.74206  24808124.19706  24808124.04106
  23013274.57609 -10656859.79309  -8275993.60309  23013275.66009  23013273.45209
 07  1 15  0 24  0.0000000  0  9G08G24G29G10G28G26G19G21G27
  20846197.18809 -24505972.55709 -19054999.84509  20846197.53009  20846195.76109
  24900048.95607  -2285862.00307  -1701672.07607  24900050.56807  24900047.24707
  21391671.68509 -19030905.55509 -14776949.88409  21391671.60709  21391670.75709
  20967900.09009 -21294147.82409 -16559523.63909  20967900.34409  20967898.53709
  21521077.89509 -19683119.89709 -15287664.84509  21521077.15309  21521076.71309
  21806876.41509 -15813147.50909 -12288799.10009  21806876.94209  21806875.57409
  25048547.24807  -1103755.50707   -847480.58707  25048545.92907  25048546.03607
  24804423.56307  -2613980.10007  -2009634.38606  24804421.69706  24804421.59006
  23027485.07009 -10582183.83109  -8217804.57609  23027486.28209  23027484.20109
 07  1 15  0 24 30.0000000  0  9G08G24G29G10G28G26G19G21G27
  20855771.13609 -24455660.27109 -19015795.47109  20855771.64409  20855769.84709
  24915930.05407  -2202402.20507  -1636638.53407  24915933.39507  24915929.59507
  21380427.66009 -19089993.24809 -14822992.24409  21380427.44609  21380426.87909
  20976628.86609 -21248277.52909 -16523780.56709  20976629.26709  20976627.22509
  21512048.79909 -19730568.88809 -15324638.08409  21512047.88109  21512047.44109
  21791367.05409 -15894649.75209 -12352307.33009  21791367.63009  21791366.19409
  25046017.89407  -1117051.20207   -857840.85007  25046015.97007  25046015.54007
  24800822.35107  -2632898.95507  -2024376.36206  24800821.48206  24800821.61806
  23041717.73009 -10507390.24109  -8159523.87209  23041718.20809  23041716.96809
 07  1 15  0 25  0.0000000  0  9G08G24G29G10G28G26G19G21G27
  20865413.43509 -24404991.66809 -18976313.45209  20865413.66909  20865411.89109
  24931834.35107  -2118826.42907  -1571514.58106  24931837.58506  24931833.58906
  21369231.01309 -19148831.27809 -14868840.06309  21369231.06209  21369230.26109
  20985462.17409 -21201858.32209 -16487609.77509  20985462.43809  20985460.60209
  21503112.79609 -19777527.45109 -15361229.17009  21503112.21909  21503111.58409
  21775906.08609 -15975897.76209 -12415617.46509  21775906.61309  21775905.27509
  25043586.01007  -1129830.85007   -867798.98707  25043583.92907  25043583.14807
  24797324.83107  -2651280.70007  -2038699.79106  24797323.56106  24797323.51206
  23055972.80709 -10432479.96909  -8101152.25209  23055973.64709  23055971.83009
 07  1 15  0 25 30.0000000  0  9G08G24G29G10G28G26G19G21G27
  20875122.80309 -24353968.13309 -18936554.86009  20875123.16509  20875121.50409
  24947759.93408  -2035137.50608  -1506302.46407  24947763.06007  24947759.78807
  21358082.42609 -19207418.16709 -14914492.17909  21358082.35809  21358081.43009
  20994399.71109 -21154891.37609 -16451012.17309  20994400.07309  20994398.16809
  21494270.46209 -19823994.22609 -15397437.04209  21494269.70909  21494269.08409
  21760493.65709 -16056889.46309 -12478727.87609  21760494.25309  21760493.13909
  25041252.41507  -1142093.02207   -877353.89207  25041250.51007  25041249.97307
  24793929.37107  -2669123.94207  -2052603.61806  24793928.05306  24793928.18906
  23070250.01009 -10357453.38709  -8042690.00509  23070250.86009  23070248.85809
 07  1 15  0 26  0.0000000  0  9G08G24G29G10G28G26G19G21G27
  20884899.53409 -24302591.42509 -18896521.06509  20884899.88609  20884898.21609
  24963706.51907  -1951338.46007  -1441004.51707  24963709.23507  24963705.91407
  21346981.43109 -19265752.87709 -14959947.79809  21346981.47009  21346980.77609
  21003441.04809 -21107378.40009 -16413989.09009  21003441.42809  21003439.44509
  21485521.90409 -19869968.30509 -15433260.99709  21485521.32809  21485520.77109
  21745130.66609 -16137623.52809 -12541637.53309  21745131.03709  21745130.00109
  25039016.49507  -1153837.55307   -886505.45807  25039015.80107  25039015.13707
  24790636.41107  -2686429.89607  -2066088.79906  24790635.42506  24790635.12206
  23084548.90909 -10282311.95909  -7984138.24609  23084549.61209  23084547.85409
 07  1 15  0 26 30.0000000  0  9G08G24G29G10G28G26G19G21G27
  20894743.28709 -24250862.43909 -18856212.77309  20894743.53109  20894742.06609
  24979674.21407  -1867432.31707  -1375623.13307  24979676.40207  24979673.12007
  21335929.18009 -19323833.95509 -15005205.78309  21335929.15009  21335928.40809
  21012586.14409 -21059320.54609 -16376541.42909  21012586.63209  21012584.53209
  21476867.60209 -19915447.99509 -15468699.71409  21476866.72309  21476866.31309
  21729816.62409 -16218098.45309 -12604345.26809  21729817.14209  21729816.18509
  25036880.79807  -1165063.20407   -895252.69207  25036879.16707  25036878.65907
  24787446.11807  -2703197.27007  -2079154.31006  24787444.68206  24787444.66206
  23098869.37609 -10207056.49109  -7925497.64209  23098870.22609  23098868.58509
 07  1 15  0 27  0.0000000  0  9G08G24G29G10G28G26G19G21G27
  20904653.52309 -24198783.19409 -18815631.54909  20904653.97209  20904652.43809
  24995660.24407  -1783422.10707  -1310160.61807  24995663.09607  24995659.74607
  21324925.45809 -19381660.09609 -15050265.11709  21324925.14609  21324924.38409
  21021834.62909 -21010719.33609 -16338670.37409  21021835.18509  21021833.14409
  21468307.26309 -19960432.04009 -15503752.21609  21468306.44209  21468306.09009
  21714552.72409 -16298312.37209 -12666849.61609  21714553.01709  21714552.04009
  25034843.08907  -1175769.29207   -903595.09207  25034842.04407  25034841.66307
  24784357.19107  -2719426.28707  -2091800.29706  24784356.90706  24784356.74106
  23113211.70609 -10131687.93009  -7866768.91109  23113212.74109  23113210.86509
 07  1 15  0 27 30.0000000  0  9G08G24G29G10G28G26G19G21G27
  20914630.14509 -24146355.04209 -18774778.44409  20914630.62409  20914629.14809
  25011666.46507  -1699310.31907  -1244619.02007  25011668.88807  25011665.62507
  21313970.16809 -19439230.09609 -15095124.86009  21313969.94409  21313969.13309
  21031186.26809 -20961576.19109 -16300377.02909  21031186.80509  21031184.69509
  21459841.67609 -20004918.86009 -15538417.27009  21459840.86609  21459840.66009
  21699338.57409 -16378263.59209 -12729149.25909  21699338.76909  21699337.80209
  25032904.83107  -1185954.65407   -911531.70607  25032904.06007  25032903.73707
  24781372.03307  -2735116.56107  -2104026.46406  24781370.76306  24781370.92906
  23127575.45709 -10056207.60809  -7807953.09909  23127575.36909  23127573.93309
 07  1 15  0 28  0.0000000  0  9G08G24G29G10G28G26G19G21G27
  20924672.92809 -24093579.80309 -18733654.88509  20924673.30909  20924671.78609
  25027690.99208  -1615100.19108  -1179000.75307  25027693.55107  25027689.94707
  21303063.93609 -19496542.74409 -15139784.06609  21303063.70109  21303062.78309
  21040640.75909 -20911892.83309 -16261662.73609  21040641.28609  21040639.02009
  21451470.83409 -20048907.53009 -15572694.15109  21451470.27709  21451469.53509
  21684174.69309 -16457950.71109 -12791243.11609  21684174.77109  21684173.92109
  25031065.78207  -1195618.72107   -919062.13107  25031065.23507  25031065.11807
  24778488.76007  -2750268.07307  -2115832.87106  24778487.01206  24778487.35406
  23141959.89709  -9980616.50309  -7749050.95409  23141960.63009  23141958.87209
 07  1 15  0 28 30.0000000  0  9G08G24G29G10G28G26G19G21G27
  20934781.53209 -24040458.76909 -18692261.88009  20934781.84409  20934780.28109
  25043733.94307  -1530794.24607  -1113307.80107  25043736.20907  25043732.96607
  21292206.70109 -19553596.62809 -15184241.64209  21292206.81809  21292205.77309
  21050197.59409 -20861670.59009 -16222528.53809  21050198.19909  21050196.11909
  21443195.10709 -20092396.35509 -15606581.54509  21443194.42309  21443193.85609
  21669061.13809 -16537372.03009 -12853129.85509  21669061.37209  21669060.64009
  25029325.69607  -1204760.77307   -926185.79807  25029325.65707  25029325.53007
  24775708.04607  -2764880.16107  -2127218.92706  24775706.75706  24775706.75706
  23156365.34009  -9904915.45009  -7690063.14309  23156366.10209  23156364.52009
 07  1 15  0 29  0.0000000  0  9G08G24G29G10G28G26G19G21G27
  20944955.82709 -23986992.89709 -18650600.16909  20944956.02309  20944954.48909
  25059794.54408  -1446395.34408  -1047542.40807  25059796.08807  25059793.53807
  21281399.11009 -19610390.51809 -15228496.61509  21281399.19809  21281398.32809
  21059856.89909 -20810911.06609 -16182975.67009  21059857.42609  21059855.18009
  21435014.88509 -20135384.38209 -15640078.70609  21435014.33809  21435013.47809
  21653998.90609 -16616525.53609 -12914807.91009  21653998.77009  21653998.21309
  25027686.73307  -1213380.00307   -932902.06807  25027685.01407  25027684.75007
  24773029.88107  -2778952.10407  -2138184.09206  24773029.34306  24773028.96306
  23170791.74609  -9829105.15609  -7630990.20309  23170791.90209  23170790.47609
 07  1 15  0 29 30.0000000  0  9G08G24G29G10G28G26G19G21G27
  20955194.99509 -23933184.41909 -18608671.48409  20955195.42509  20955193.76409
  25075871.88007  -1361906.51607   -981706.95707  25075874.13607  25075871.01007
  21270641.44509 -19666923.11509 -15272547.98909  21270641.42509  21270640.63409
  21069618.22509 -20759615.71809 -16143005.28309  21069618.42109  21069616.57409
  21426930.05209 -20177870.31309 -15673184.62009  21426929.52509  21426928.66509
  21638987.67609 -16695410.12309 -12976276.42009  21638987.51009  21638986.95309
  25026145.20007  -1221475.69307   -939210.38207  25026144.31107  25026143.94007
  24770454.89907  -2792484.76507  -2148729.01206  24770453.78506  24770454.10806
  23185238.52909  -9753186.71409  -7571832.99609  23185239.29109  23185237.50309
 07  1 15  0 30  0.0000000  0  9G08G24G29G10G28G26G19G21G27
  20965499.53309 -23879034.57909 -18566476.80709  20965499.81609  20965498.19509
  25091966.58308  -1277330.92908   -915803.90606  25091967.82406  25091965.60606
  21259933.62809 -19723193.01509 -15316394.66509  21259933.58909  21259932.82709
  21079480.81109 -20707786.13709 -16102618.60509  21079481.39709  21079479.51209
  21418941.09609 -20219852.36709 -15705897.90009  21418940.59809  21418939.68909
  21624028.02209 -16774023.67509 -13037533.73109  21624027.85609  21624027.28009
  25024705.14107  -1229047.27107   -945110.29707  25024703.16807  25024703.46107
  24767982.85707  -2805477.71907  -2158853.43506  24767981.57706  24767981.79206
  23199705.62009  -9677161.29209  -7512592.43009  23199706.05909  23199704.65309
 07  1 15  0 30 30.0000000  0  9G08G24G29G10G28G26G19G21G27
  20975868.73809 -23824545.06009 -18524017.44409  20975868.97209  20975867.43809
  25108076.91607  -1192671.13307   -849835.27406  25108078.28306  25108075.75306
  21249275.98209 -19779198.87509 -15360035.58909  21249275.99109  21249275.07309
  21089445.31109 -20655423.85609 -16061816.83809  21089445.48609  21089443.56209
  21411048.27109 -20261330.08209 -15738218.18809  21411047.62609  21411047.05009
  21609120.12209 -16852364.55209 -13098578.56509  21609120.34709  21609119.52609
  25023364.38807  -1236093.73207   -950600.97807  25023362.00507  25023363.09907
  24765612.86507  -2817930.77607  -2168557.11106  24765611.89806  24765611.68306
  23214193.16609  -9601029.54309  -7453269.00109  23214194.00609  23214192.31609
 07  1 15  0 31  0.0000000  0  9G08G24G29G10G28G26G19G21G27
  20986302.00409 -23769717.42209 -18481294.60909  20986302.29709  20986300.81209
  25124202.68307  -1107929.98607   -783803.22306  25124204.35306  25124201.36406
  21238668.77909 -19834939.53709 -15403469.86809  21238668.92609  21238667.93009
  21099510.48309 -20602530.56709 -16020601.29909  21099510.83509  21099508.77409
  21403251.47909 -20302301.89409 -15770144.26709  21403250.91209  21403250.43309
  21594264.53109 -16930431.30609 -13159409.79809  21594264.55109  21594263.90609
  25022123.55607  -1242614.65207   -955682.16807  25022120.22507  25022122.45207
  24763345.88107  -2829843.80107  -2177839.99206  24763344.24006  24763344.46506
  23228700.89409  -9524792.46709  -7393863.50609  23228701.63609  23228699.41909
 07  1 15  0 31 30.0000000  0  9G08G24G29G10G28G26G19G21G27
  20996799.55509 -23714552.89409 -18438309.26609  20996799.86809  20996798.45209
  25140342.91707  -1023110.48107   -717710.09407  25140344.89007  25140341.80307
  21228112.25609 -19890413.64809 -15446696.44109  21228112.55909  21228111.39609
  21109676.35909 -20549107.76109 -15978973.14409  21109676.95509  21109674.73709
  21395551.41309 -20342766.86709 -15801675.40709  21395550.68109  21395550.21209
  21579461.43609 -17008222.05309 -13220025.96609  21579461.65109  21579460.74309
  25020982.82107  -1248609.24307   -960353.25107  25020980.10507  25020981.80507
  24761181.91507  -2841216.83307  -2186702.09906  24761180.06906  24761180.60606
  23243228.20709  -9448451.07709  -7334376.72409  23243228.06109  23243227.34809
 07  1 15  0 32  0.0000000  0  9G08G24G29G10G28G26G19G21G27
  21007360.79709 -23659052.75409 -18395062.39909  21007361.31509  21007359.82009
  25156497.80307   -938215.11807   -651557.85606  25156499.94306  25156496.30906
  21217607.00609 -19945619.83809 -15489714.24509  21217607.29009  21217606.10809
  21119942.92709 -20495156.90109 -15936933.52309  21119943.42509  21119941.45209
  21387947.74309 -20382723.43809 -15832810.38609  21387947.15709  21387946.79509
  21564711.15909 -17085735.11709 -13280425.75009  21564711.34409  21564710.67009
  25019942.05607  -1254076.76107   -964613.66507  25019940.10207  25019941.11807
  24759120.89807  -2852049.51907  -2195143.13406  24759118.86606  24759119.42306
  23257774.78409  -9372006.38909  -7274809.44509  23257775.89809  23257773.83609
 07  1 15  0 32 30.0000000  0  9G08G24G29G10G28G26G19G21G27
  21017985.78809 -23603219.12709 -18351555.67309  21017986.00309  21017984.44009
  25172666.59007   -853247.20307   -585349.08907  25172669.44307  25172665.38907
  21207152.79709 -20000556.91209 -15532522.34809  21207153.02209  21207151.97609
  21130309.54309 -20440680.21109 -15894484.16309  21130309.95309  21130308.00909
  21380441.23809 -20422170.72109 -15863548.52009  21380440.43709  21380440.14409
  21550014.18809 -17162968.99309 -13340607.98409  21550014.10009  21550013.39609
  25019002.78407  -1259016.87407   -968463.11007  25019000.46907  25019000.78107
  24757162.02907  -2862342.23007  -2203163.44206  24757160.34906  24757160.84706
  23272341.41509  -9295459.39409  -7215162.46309  23272342.03109  23272340.18409
 07  1 15  0 33  0.0000000  0  9G08G24G29G10G28G26G19G21G27
  21028673.51109 -23547053.65809 -18307790.36809  21028674.02909  21028672.44609
  25188849.04307   -768209.40807   -519085.88306  25188851.66106  25188847.65606
  21196750.21409 -20055223.48409 -15575119.66909  21196750.46809  21196749.30509
  21140775.93309 -20385679.08609 -15851626.15309  21140776.50009  21140774.36109
  21373031.81309 -20461107.64109 -15893888.96509  21373031.03109  21373030.68909
  21535370.43509 -17239922.03509 -13400571.38009  21535370.42509  21535369.72209
  25018163.69707  -1263429.13507   -971901.22907  25018161.25507  25018161.30407
  24755305.22107  -2872095.02907  -2210763.00706  24755304.92806  24755304.30206
  23286926.87009  -9218810.89109  -7155436.35609  23286927.50509  23286925.68809
 07  1 15  0 33 30.0000000  0  9G08G24G29G10G28G26G19G21G27
  21039424.11309 -23490557.30509 -18263767.23409  21039424.80709  21039423.13709
  25205044.19507   -683104.42407   -452770.29506  25205046.66706  25205042.13406
  21186399.15909 -20109618.16009 -15617505.12209  21186399.46109  21186398.34809
  21151341.79609 -20330155.04809 -15808360.67709  21151342.21609  21151340.31109
  21365719.70009 -20499533.00409 -15923830.80309  21365718.79109  21365718.42009
  21520780.64309 -17316592.37309 -13460314.49109  21520780.54509  21520779.79309
  25017424.09207  -1267312.65207   -974927.31707  25017421.68907  25017422.57807
  24753551.73307  -2881307.57907  -2217941.59506  24753551.12706  24753551.04906
  23301531.68609  -9142061.77309  -7095631.86809  23301533.12209  23301530.63109
 07  1 15  0 34  0.0000000  0  9G08G24G29G10G28G26G19G21G27
  21050237.82009 -23433731.63209 -18219487.49409  21050238.45509  21050236.53009
  25221250.31707   -597935.33907   -386404.74906  25221253.98006  25221248.89106
  21176100.33509 -20163739.65009 -15659677.70509  21176100.41309  21176099.26109
  21162006.83709 -20274109.78109 -15764689.05109  21162007.29609  21162005.28409
  21358505.20309 -20537445.61509 -15953373.08909  21358504.50909  21358503.86409
  21506244.69409 -17392978.16909 -13519835.88509  21506244.92809  21506244.13709
  25016785.33607  -1270666.92707   -977541.01907  25016782.97207  25016784.18307
  24751901.35007  -2889980.00407  -2224699.32606  24751900.95006  24751900.50106
  23316155.59008  -9065212.77908  -7035749.55609  23316156.33209  23316154.44709
 07  1 15  0 34 30.0000000  0  9G08G24G29G10G28G26G19G21G27
  21061113.46809 -23376578.50009 -18174952.59009  21061114.37609  21061112.45209
  25237469.69507   -512704.87707   -319991.38206  25237473.08506  25237467.75106
  21165853.79209 -20217586.66109 -15701636.41309  21165853.67509  21165852.64009
  21172770.89009 -20217545.26609 -15720612.82009  21172771.29109  21172769.28809
  21351388.25309 -20574844.63309 -15982515.16909  21351387.61809  21351386.87509
  21491763.42909 -17469078.04409 -13579134.48109  21491763.65409  21491762.66709
  25016248.12207  -1273491.69607   -979742.13207  25016245.65107  25016246.17807
  24750354.17107  -2898112.01707  -2231035.97706  24750353.92706  24750352.85206
  23330797.89709  -8988265.28609  -6975790.48209  23330798.97109  23330797.05709
 07  1 15  0 35  0.0000000  0  9G08G24G29G10G28G26G19G21G27
  21072051.62409 -23319099.10309 -18130163.45709  21072052.22009  21072050.34409
  25253698.91907   -427416.07807   -253532.54506  25253702.44606  25253697.89306
  21155659.34409 -20271157.92109 -15743380.24909  21155659.32509  21155658.38709
  21183633.19509 -20160463.06709 -15676133.19609  21183633.83009  21183631.52409
  21344369.38709 -20611728.87909 -16011256.12609  21344368.76209  21344368.03009
  21477336.93509 -17544890.10809 -13638208.80909  21477337.13109  21477336.23209
  25015811.85507  -1275786.33207   -981530.13107  25015808.57307  25015809.26707
  24748910.39107  -2905704.24107  -2236951.97306  24748908.24206  24748907.91906
  23345459.32108  -8911219.81608  -6915755.06409  23345460.22909  23345458.34409
 07  1 15  0 35 30.0000000  0  9G08G24G29G10G28G26G19G21G27
  21083051.36909 -23261295.09309 -18085121.37409  21083052.15109  21083050.23609
  25269939.92407   -342071.48507   -187030.24706  25269942.49306  25269938.74206
  21145518.11509 -20324452.01009 -15784908.11609  21145517.78309  21145516.86409
  21194593.65209 -20102864.95209 -15631251.55909  21194594.32609  21194592.13809
  21337448.61709 -20648097.20109 -16039595.07109  21337448.12809  21337447.44409
  21462965.38909 -17620412.72509 -13697057.59809  21462965.62309  21462964.58809
  25015475.73407  -1277550.41007   -982904.73907  25015473.25307  25015473.88807
  24747567.96706  -2912756.79706  -2242447.42506  24747566.52106  24747566.36506
  23360139.43208  -8834077.35408  -6855644.07909  23360139.87109  23360137.71209
 07  1 15  0 36  0.0000000  0  9G08G24G29G10G28G26G19G21G27
  21094113.00809 -23203168.05609 -18039827.58709  21094113.27209  21094111.55209
  25286190.67807   -256674.01607   -120486.73206  25286193.25706  25286189.63306
  21135429.30209 -20377467.73509 -15826219.07409  21135429.27309  21135428.30609
  21205651.98809 -20044752.73809 -15585969.32609  21205652.69209  21205650.63109
  21330626.24309 -20683948.76909 -16067531.34809  21330625.99909  21330625.19809
  21448649.29809 -17695644.23509 -13755679.55309  21448649.53209  21448648.63309
  25015241.30207  -1278783.44307   -983865.52107  25015238.38107  25015239.32907
  24746328.42407  -2919269.63807  -2247522.37206  24746326.84206  24746327.54506
  23374837.27209  -8756838.67209  -6795458.09409  23374837.46809  23374836.32509
 07  1 15  0 36 30.0000000  0  9G08G24G29G10G28G26G19G21G27
  21105235.41509 -23144719.28009 -17994283.08709  21105235.73809  21105234.32109
  25302451.03407   -171226.65907    -53904.34706  25302452.80206  25302450.02806
  21125393.87409 -20430203.52909 -15867311.89809  21125394.00109  21125392.94609
  21216808.03809 -19986128.19409 -15540287.87509  21216808.63409  21216806.61209
  21323902.63709 -20719282.41809 -16095064.05009  21323902.12009  21323901.44609
  21434389.01309 -17770582.82609 -13814073.25509  21434389.13109  21434388.15409
  25015107.98307  -1279484.79407   -984412.03507  25015104.66107  25015105.67707
  24745191.63607  -2925242.74107  -2252176.76906  24745190.35606  24745190.26806
  23389553.86808  -8679504.43108  -6735197.66109  23389554.38609  23389551.96309
 07  1 15  0 37  0.0000000  0  9G08G24G29G10G28G26G19G21G27
  21116418.67109 -23085950.69709 -17948489.38509  21116419.02209  21116417.73309
  25318719.40007    -85732.16107     12714.77206  25318721.69606  25318719.28306
  21115412.25109 -20482658.25009 -15908185.71009  21115412.12409  21115411.34209
  21228061.07909 -19926993.34609 -15494208.78209  21228061.55809  21228059.39909
  21317277.48809 -20754097.33109 -16122192.54409  21317276.95109  21317276.53109
  21420184.66309 -17845226.97209 -13872237.51809  21420185.05409  21420183.76409
  25015075.02407  -1279654.38107   -984544.17807  25015072.54307  25015072.95307
  24744157.68907  -2930676.55107  -2256410.90606  24744156.87806  24744156.70206
  23404287.81308  -8602075.96608  -6674863.82309  23404287.84209  23404286.95309
 07  1 15  0 37 30.0000000  0  9G08G24G29G10G28G26G19G21G27
  21127662.52909 -23026863.79109 -17902447.64009  21127662.97809  21127661.78609
  25334997.18307      -192.90407     79368.77406  25334999.26406  25334997.05606
  21105484.29509 -20534830.56809 -15948839.46509  21105484.23609  21105483.12309
  21239410.81709 -19867349.76709 -15447733.27109  21239411.17909  21239409.31309
  21310751.51709 -20788392.32209 -16148915.90509  21310750.88209  21310750.46209
  21406036.55009 -17919574.87509 -13930170.94309  21406036.99909  21406035.92409
  25015144.45807  -1279291.71507   -984261.60807  25015141.43007  25015141.97707
  24743226.75907  -2935571.27307  -2260225.00406  24743225.52906  24743225.48906
  23419039.68208  -8524554.08708  -6614457.16709  23419039.92609  23419038.46109
 07  1 15  0 38  0.0000000  0  9G08G24G29G10G28G26G19G21G27
  21138966.83409 -22967459.65009 -17856158.70009  21138967.27409  21138965.94509
  25351283.08307     85387.93107    146055.15006  25351284.55806  25351282.65406
  21095610.24109 -20586719.03009 -15989272.03309  21095610.07509  21095609.18609
  21250856.91109 -19807199.25009 -15400862.74309  21250857.52609  21250855.61209
  21304324.55909 -20822166.57309 -16175233.50109  21304323.76709  21304323.58209
  21391945.24909 -17993624.80609 -13987872.18409  21391945.75709  21391944.62409
  25015314.50607  -1278396.39607   -983563.94506  25015311.34106  25015312.04506
  24742397.82207  -2939926.81507  -2263618.93906  24742397.15806  24742397.10906
  23433809.41808  -8446939.75908  -6553978.49209  23433810.16109  23433807.92409
 07  1 15  0 38 30.0000000  0  9G08G24G29G10G28G26G19G21G27
  21150331.05909 -22907740.11409 -17809624.00309  21150331.51809  21150330.21809
  25367576.38807    171007.44707    212771.67306  25367577.42406  25367575.42106
  21085790.39209 -20638322.40709 -16029482.46109  21085790.47009  21085789.44509
  21262399.41909 -19746543.84309 -15353598.79909  21262399.90709  21262397.89509
  21297996.70109 -20855419.33709 -16201144.74109  21297995.96809  21297995.52909
  21377911.23009 -18067375.07109 -14045339.92409  21377911.42609  21377910.46909
  25015585.52107  -1276968.12007   -982450.96606  25015582.55206  25015583.89006
  24741671.22807  -2943744.04007  -2266593.40906  24741670.50506  24741670.21206
  23448595.81908  -8369233.64708  -6493428.28409  23448596.59109  23448595.13509
 07  1 15  0 39  0.0000000  0  8G08G29G10G28G26G19G21G27
  21161754.94909 -22847706.72309 -17762844.74309  21161755.54409  21161753.83509
  21076024.99209 -20689639.48109 -16069469.79009  21076024.90409  21076023.98609
  21274037.63709 -19685385.47509 -15305942.93709  21274037.94009  21274035.92809
  21291768.37309 -20888149.61709 -16226648.84809  21291767.63109  21291767.20109
  21363934.46509 -18140824.03809 -14102572.88809  21363934.63109  21363933.75109
  25015959.58307  -1275006.76507   -980922.59006  25015955.74406  25015956.93606
  24741047.58407  -2947022.97207  -2269148.44006  24741046.39206  24741046.92906
  23463400.52608  -8291436.68108  -6432807.28909  23463401.32709  23463399.09009
 07  1 15  0 39 30.0000000  0  8G08G29G10G28G26G19G21G27
  21173238.25009 -22787361.04509 -17715822.14309  21173238.88509  21173237.18509
  21066314.57909 -20740668.64909 -16109232.78209  21066314.54909  21066313.50409
  21285770.93209 -19623725.94009 -15257896.55709  21285771.54709  21285769.30109
  21285639.58609 -20920356.51209 -16251745.12509  21285638.70709  21285638.51109
  21350015.24409 -18213969.86009 -14159569.62909  21350015.31309  21350014.37509
  25016433.70207  -1272512.01307   -978978.57406  25016430.62506  25016432.37406
  24740526.54707  -2949763.61207  -2271284.02006  24740524.97406  24740525.17906
  23478221.55608  -8213549.74608  -6372116.18609  23478222.71809  23478220.83309
 07  1 15  0 40  0.0000000  0  8G08G29G10G28G26G19G21G27
  21184780.79709 -22726704.43809 -17668557.26609  21184781.28509  21184779.75209
  21056658.98609 -20791408.77509 -16148770.54509  21056658.92709  21056658.03809
  21297599.40009 -19561567.16509 -15209461.16009  21297599.85909  21297597.85709
  21279610.53409 -20952039.06009 -16276432.82409  21279609.63509  21279609.22509
  21336153.99009 -18286810.74909 -14216328.76009  21336154.09709  21336153.24709
  25017009.69607  -1269483.43607   -976618.62706  25017006.92206  25017008.82706
  24740106.31007  -2951966.50907  -2273000.56506  24740105.48906  24740105.84106
  23493060.54008  -8135573.49908  -6311355.50109  23493061.02909  23493059.00709
 07  1 15  0 40 30.0000000  0  8G08G29G10G28G26G19G21G27
  21196382.49209 -22665738.18109 -17621051.10109  21196382.74609  21196381.12409
  21047058.78909 -20841858.30409 -16188081.87009  21047058.70109  21047057.87109
  21309522.48509 -19498910.93709 -15160638.13509  21309523.14009  21309520.85409
  21273681.41309 -20983196.27109 -16300711.16709  21273680.71909  21273680.03509
  21322350.97509 -18359345.11609 -14272849.04209  21322351.26809  21322350.34909
  25017687.76107  -1265920.81407   -973842.56307  25017685.91507  25017685.94407
  24739789.68607  -2953631.75007  -2274298.16406  24739788.23106  24739788.75806
  23507915.12508  -8057508.91908  -6250525.97009  23507916.59009  23507914.90009
 07  1 15  0 41  0.0000000  0  8G08G29G10G28G26G19G21G27
  21208042.77709 -22604463.81509 -17573304.85209  21208042.89409  21208041.49709
  21037514.06709 -20892016.03709 -16227165.82309  21037514.08709  21037513.15909
  21321539.79609 -19435759.35609 -15111429.12709  21321540.33309  21321538.49709
  21267852.37909 -21013827.88109 -16324579.94809  21267851.50909  21267851.12809
  21308606.98009 -18431571.18609 -14329129.09209  21308607.14609  21308606.20809
  25018468.05207  -1261824.03607   -970650.27806  25018465.58006  25018465.15006
  24739575.16207  -2954759.86407  -2275177.24306  24739573.79506  24739573.99006
  23522787.58508  -7979357.01008  -6189628.41509  23522788.15209  23522786.08109
 07  1 15  0 41 30.0000000  0  8G08G29G10G28G26G19G21G27
  21219761.21409 -22542883.22409 -17525319.98309  21219761.26309  21219760.03209
  21028025.15209 -20941880.57009 -16266021.30609  21028025.15209  21028024.15609
  21333650.92309 -19372114.40009 -15061835.66409  21333651.48009  21333649.38009
  21262123.69509 -21043932.66609 -16348038.22009  21262122.74809  21262122.31809
  21294921.77209 -18503487.23209 -14385167.57009  21294921.99609  21294921.09809
  25019348.99607  -1257192.71707   -967041.44007  25019347.13007  25019346.25107
  24739462.55207  -2955351.26707  -2275638.06706  24739461.04806  24739461.35006
  23537675.28508  -7901118.29208  -6128663.19009  23537675.84109  23537674.64009
 07  1 15  0 42  0.0000000  0  8G08G29G10G28G26G19G21G27
  21231537.61709 -22480997.87209 -17477097.63509  21231537.67509  21231536.53209
  21018592.35709 -20991450.60709 -16304647.30509  21018592.32809  21018591.36109
  21345855.70009 -19307978.02609 -15011859.28309  21345856.23709  21345854.31309
  21256495.14809 -21073509.91809 -16371085.42809  21256494.42509  21256493.92709
  21281296.06309 -18575091.71909 -14440963.27709  21281296.19009  21281295.22309
  25020332.46007  -1252026.70407   -963015.97907  25020330.07607  25020330.06607
  24739452.76407  -2955406.43307  -2275681.06606  24739450.99606  24739451.09406
  23552580.55708  -7822793.76908  -6067631.12109  23552581.23109  23552578.62309
 07  1 15  0 42 30.0000000  0  8G08G29G10G28G26G19G21G27
  21243371.60409 -22418809.29909 -17428639.00809  21243371.76009  21243370.83209
  21009215.63209 -21040724.86309 -16343042.82709  21009215.86709  21009214.63609
  21358153.70609 -19243352.29609 -14961501.58209  21358154.19409  21358152.16309
  21250967.31309 -21102559.03209 -16393721.09509  21250966.72709  21250966.12209
  21267729.82409 -18646382.71009 -14496514.69609  21267729.93209  21267729.05209
  25021417.35907  -1246326.24307   -958574.03507  25021414.99507  25021414.95607
  24739542.96607  -2954925.88507  -2275306.60206  24739542.02806  24739542.52606
  23567501.18608  -7744384.39208  -6006532.93209  23567501.67409  23567500.07209
 07  1 15  0 43  0.0000000  0  8G08G29G10G28G26G19G21G27
  21255263.14709 -22356318.71309 -17379945.04709  21255263.21509  21255262.22909
  20999895.64309 -21089701.87709 -16381206.73209  20999895.77909  20999894.69509
  21370544.28709 -19178239.16009 -14910764.08209  21370544.66809  21370542.91009
  21245540.16109 -21131079.07209 -16415944.50009  21245539.40909  21245538.99909
  21254223.34909 -18717358.56109 -14551820.55009  21254223.73909  21254222.49909
  25022603.95707  -1240090.88207   -953715.29207  25022601.87607  25022601.22107
  24739736.47807  -2953909.88807  -2274514.91006  24739735.57906  24739735.61806
  23582438.21608  -7665890.92608  -5945369.19809  23582438.02009  23582436.45709
 07  1 15  0 43 30.0000000  0  8G08G29G10G28G26G19G21G27
  21267211.90309 -22293527.92609 -17331017.17009  21267212.12809  21267210.69209
  20990632.45609 -21138380.31809 -16419137.98309  20990632.45609  20990631.58709
  21383027.36609 -19112640.36409 -14859648.14509  21383027.84509  21383025.80309
  21240213.80009 -21159069.28409 -16437755.04909  21240213.05709  21240212.67609
  21240777.39809 -18788017.29609 -14606879.29809  21240777.81809  21240776.55809
  25023892.41007  -1233320.66107   -948439.78907  25023889.88007  25023889.62607
  24740031.90407  -2952358.81207  -2273306.29906  24740030.65306  24740031.03406
  23597390.90408  -7587313.77508  -5884140.28109  23597391.11909  23597389.59509
 07  1 15  0 44  0.0000000  0  8G08G29G10G28G26G19G21G27
  21279217.05309 -22230438.27009 -17281856.40909  21279217.72709  21279216.14409
  20981426.36609 -21186758.84209 -16456835.53509  20981426.38609  20981425.35009
  21395602.38509 -19046558.31109 -14808155.64209  21395602.81509  21395600.77309
  21234988.54109 -21186528.96409 -16459152.19809  21234987.71109  21234987.49609
  21227392.26509 -18858357.39809 -14661689.76209  21227392.42209  21227391.49409
  25025281.61407  -1226015.49307   -942747.44707  25025280.21707  25025280.38307
  24740428.90207  -2950273.35407  -2271681.26406  24740427.91506  24740428.04206
  23612359.04708  -7508654.21008  -5822847.12509  23612359.60309  23612357.83509
 07  1 15  0 44 30.0000000  0  8G08G29G10G28G26G19G21G27
  21291279.35709 -22167051.48009 -17232464.11809  21291279.61109  21291277.84309
  20972277.41109 -21234836.16609 -16494298.38709  20972277.45109  20972276.59109
  21408268.97309 -18979995.00309 -14756288.14009  21408269.44209  21408267.44909
  21229864.17109 -21213457.58309 -16480135.53409  21229863.41909  21229862.98909
  21214067.83409 -18928377.40609 -14716250.80209  21214068.14609  21214067.09109
  25026774.25607  -1218174.97907   -936637.94507  25026771.85307  25026772.31207
  24740927.31507  -2947653.99407  -2269640.23806  24740926.17206  24740926.28006
  23627343.47308  -7429912.76508  -5761490.19909  23627343.12109  23627342.06609
 07  1 15  0 45  0.0000000  0  8G08G29G10G28G26G19G21G27
  21303397.68309 -22103369.02109 -17182841.43709  21303398.11309  21303396.38409
  20963186.28609 -21282610.88409 -16531525.44309  20963186.23709  20963185.26009
  21421026.61209 -18912952.69309 -14704047.39309  21421027.19809  21421025.35209
  21224840.78609 -21239854.56309 -16500704.60409  21224840.23909  21224839.80009
  21200804.70909 -18998075.25909 -14770560.81709  21200805.09909  21200804.18109
  25028367.88407  -1209799.39607   -930111.51807  25028365.50107  25028366.37007
  24741528.01407  -2944501.00907  -2267183.36107  24741526.16707  24741526.53907
  23642342.21908  -7351090.45808  -5700070.22708  23642342.88308  23642341.59408
 07  1 15  0 45 30.0000000  0  8G08G29G10G28G26G19G21G27
  21315571.97309 -22039392.31809 -17132989.47509  21315572.24609  21315570.75209
  20954152.81309 -21330081.73709 -16568515.72109  20954152.63709  20954151.85609
  21433875.17609 -18845433.35809 -14651434.93509  21433875.69309  21433873.64209
  21219918.99309 -21265719.16509 -16520858.83409  21219918.38809  21219917.95809
  21187603.43709 -19067449.21309 -14824618.44209  21187603.60309  21187602.64609
  25030063.55307  -1200888.86807   -923168.21507  25030061.18907  25030062.20507
  24742228.81908  -2940815.70908  -2264311.69907  24742227.89107  24742227.54907
  23657357.32808  -7272187.84108  -5638587.70808  23657357.75808  23657356.12608
 07  1 15  0 46  0.0000000  0  8G08G29G10G28G26G19G21G27
  21327802.30309 -21975122.70409 -17082909.26409  21327802.29409  21327801.04309
  20945177.58009 -21377247.27109 -16605268.08809  20945177.52109  20945176.63209
  21446814.00909 -18777438.84009 -14598452.20709  21446814.61509  21446812.60209
  21215098.67409 -21291050.80909 -16540597.77009  21215098.10809  21215097.46309
  21174463.90209 -19136497.77109 -14878422.51409  21174464.24409  21174463.12109
  25031860.99907  -1191443.13107   -915807.86607  25031858.69307  25031859.47507
  24743031.66507  -2936598.22707  -2261025.33107  24743030.32607  24743029.85807
  23672387.18708  -7193205.92908  -5577043.37808  23672386.77708  23672385.86808
 07  1 15  0 46 30.0000000  0  8G08G29G10G28G26G19G21G27
  21340087.95309 -21910561.50109 -17032601.84209  21340087.84509  21340086.74109
  20936260.65409 -21424106.03809 -16641781.41509  20936260.45909  20936259.68709
  21459843.10309 -18708971.18309 -14545100.79809  21459843.74709  21459841.20809
  21210379.76109 -21315848.52909 -16559920.66509  21210379.05809  21210378.60909
  21161386.78709 -19205218.75609 -14931971.33309  21161387.05109  21161386.06409
  25033759.74307  -1181461.95107   -908030.31307  25033758.12107  25033758.33607
  24743935.02807  -2931849.09607  -2257324.68607  24743934.19707  24743933.75807
  23687431.62008  -7114145.44508  -5515437.83409  23687432.39209  23687430.49709
 07  1 15  0 47  0.0000000  0  8G08G29G10G28G26G19G21G27
  21352428.71509 -21845710.58009 -16982068.66309  21352428.55909  21352427.58209
  20927402.25109 -21470656.78909 -16678054.73309  20927402.26109  20927401.41109
  21472961.65509 -18640032.68109 -14491382.50509  21472962.31009  21472959.86809
  21205762.66409 -21340111.93409 -16578827.20709  21205761.85409  21205761.52209
  21148372.24809 -19273610.80909 -14985263.84609  21148372.50209  21148371.55509
  25035760.90907  -1170945.93807   -899836.01006  25035759.18006  25035759.41406
  24744939.56207  -2926568.80007  -2253210.17506  24744938.91706  24744938.43906
  23702491.57608  -7035007.10908  -5453771.62608  23702491.83008  23702490.01308
 07  1 15  0 47 30.0000000  0  8G08G29G10G28G26G19G21G27
  21364824.36709 -21780571.44809 -16931310.89709  21364824.08309  21364823.06709
  20918602.72209 -21516898.27009 -16714087.05609  20918602.80009  20918601.83309
  21486169.33509 -18570625.62109 -14437299.09509  21486170.17509  21486167.51809
  21201247.20809 -21363840.66509 -16597317.12309  21201246.35809  21201246.13309
  21135420.77509 -19341671.99609 -15038298.54309  21135420.82409  21135420.01309
  25037863.10007  -1159895.00507   -891224.92407  25037862.48407  25037861.52707
  24746045.35507  -2920758.29507  -2248682.50306  24746044.51506  24746044.12506
  23717566.07608  -6955791.63908  -5392045.31609  23717566.32109  23717563.70309
 07  1 15  0 48  0.0000000  0  8G08G29G10G28G26G19G21G27
  21377274.40809 -21715145.54809 -16880329.67509  21377274.47709  21377273.10909
  20909862.55609 -21562828.96009 -16749877.20809  20909862.49709  20909861.50109
  21499465.86809 -18500751.99709 -14382852.13209  21499466.50309  21499464.28509
  21196833.70409 -21387033.99709 -16615389.84709  21196832.85409  21196832.57109
  21122532.29709 -19409400.74709 -15091074.19909  21122532.20009  21122531.42809
  25040068.46407  -1148309.17707   -882197.01807  25040067.55607  25040066.28607
  24747252.36007  -2914418.03507  -2243742.03406  24747250.83606  24747250.44506
  23732654.36008  -6876499.79908  -5330259.50108  23732655.03408  23732653.24708
 07  1 15  0 48 30.0000000  0  8G08G29G10G28G26G19G21G27
  21389778.57709 -21649434.21209 -16829126.04409  21389779.04609  21389777.62009
  20901181.58609 -21608447.57609 -16785424.18209  20901181.57609  20901180.56009
  21512850.80509 -18430413.91009 -14328043.25209  21512851.60609  21512849.34009
  21192522.17309 -21409691.30109 -16633044.88509  21192521.21609  21192520.98109
  21109707.54909 -19476795.16809 -15143589.33409  21109707.63709  21109706.61109
  25042375.62606  -1136188.48806   -872752.29606  25042373.39906  25042371.90406
  24748558.90407  -2907549.00807  -2238389.55106  24748558.29806  24748557.66306
  23747757.32608  -6797132.57108  -5268414.91908  23747757.96108  23747755.82208
 07  1 15  0 49  0.0000000  0  8G08G29G10G28G26G19G21G27
  21402337.05809 -21583439.05609 -16777701.25409  21402337.45809  21402335.72909
  20892560.33109 -21653752.67109 -16820726.85909  20892560.41909  20892559.41209
  21526323.77509 -18359613.50109 -14272874.12109  21526324.42009  21526322.32909
  21188312.58509 -21431812.36209 -16650282.07209  21188311.76409  21188311.50009
  21096946.83309 -19543853.52009 -15195842.59709  21096946.91109  21096945.91509
  25044782.98207  -1123533.30307   -862891.11207  25044782.15107  25044780.28607
  24749966.77607  -2900151.97207  -2232625.62306  24749965.51606  24749965.16406
  23762874.51408  -6717690.56808  -5206512.08709  23762875.78409  23762873.81109
 07  1 15  0 49 30.0000000  0  8G08G29G10G28G26G19G21G27
  21414949.27509 -21517161.70109 -16726056.57809  21414949.74409  21414948.03409
  20883999.03409 -21698743.17609 -16855784.39709  20883998.90709  20883997.91009
  21539884.26009 -18288353.44909 -14217346.82009  21539884.63109  21539882.63909
  21184205.16409 -21453396.70509 -16667101.03709  21184204.35309  21184204.23609
  21084250.05109 -19610574.20109 -15247832.73809  21084250.44209  21084249.32809
  25047292.76906  -1110343.57906   -852613.41607  25047292.19307  25047290.72807
  24751474.53907  -2892227.47307  -2226450.68806  24751473.25006  24751473.04506
  23778006.09208  -6638174.59608  -5144551.63608  23778007.02008  23778004.87108
 07  1 15  0 50  0.0000000  0  8G08G29G10G28G26G19G21G27
  21427614.94409 -21450603.38909 -16674192.97309  21427615.55009  21427613.57709
  20875497.73409 -21743417.50809 -16890595.57009  20875497.75409  20875496.59109
  21553531.55709 -18216635.48609 -14161462.70409  21553532.16309  21553530.06309
  21180200.22409 -21474443.67909 -16683501.27709  21180199.19809  21180199.05209
  21071618.35609 -19676955.43809 -15299558.37509  21071618.33609  21071617.58409
  25049904.63607  -1096619.85407   -841919.60407  25049903.75707  25049902.50707
  24753081.99907  -2883776.37707  -2219865.38106  24753081.08106  24753081.18906
  23793151.64808  -6558585.22708  -5082533.96709  23793152.10709  23793150.78809
 07  1 15  0 50 30.0000000  0  8G08G29G10G28G26G19G21G27
  21440333.79309 -21383765.72909 -16622111.69009  21440334.14509  21440332.29909
  20867056.89109 -21787774.25609 -16925159.27209  20867056.82309  20867055.86609
  21567265.76409 -18144461.91009 -14105223.56709  21567266.57509  21567264.38609
  21176297.43209 -21494952.70809 -16699482.33509  21176296.66109  21176296.27009
  21059051.31809 -19742995.54909 -15351018.20509  21059051.22009  21059050.41909
  25052617.61706  -1082362.12706   -830809.68606  25052616.85506  25052616.20006
  24754791.10907  -2874799.35507  -2212870.31006  24754789.91806  24754788.99006
  23808310.72308  -6478923.48908  -5020459.91908  23808311.65108  23808309.72708
 07  1 15  0 51  0.0000000  0  8G08G29G10G28G26G19G21G27
  21453105.60709 -21316650.13209 -16569813.83009  21453105.95809  21453104.17109
  20858676.81809 -21831812.37109 -16959474.69009  20858676.74009  20858675.68509
  21581086.20609 -18071835.24309 -14048631.37409  21581086.76309  21581084.48709
  21172497.09209 -21514923.60409 -16715044.07109  21172496.29109  21172495.83109
  21046549.30809 -19808692.67009 -15402210.76609  21046549.60109  21046548.48709
  25055431.80707  -1067570.74007   -819283.91006  25055431.49506  25055430.71306
  24756599.06607  -2865297.45107  -2205466.24306  24756598.08906  24756596.59506
  23823483.94308  -6399189.93208  -4958329.90708  23823484.15808  23823481.83408
 07  1 15  0 51 30.0000000  0  8G08G29G10G28G26G19G21G27
  21465929.65109 -21249258.51909 -16517300.89409  21465930.06209  21465928.43009
  20850357.52409 -21875530.21009 -16993540.53909  20850357.37709  20850356.56609
  21594992.44409 -17998757.61509 -13991687.78509  21594993.06909  21594990.68609
  21168799.19209 -21534356.04509 -16730186.22809  21168798.62609  21168797.94209
  21034113.28409 -19874045.14909 -15453134.77309  21034113.42009  21034112.46309
  25058348.86907  -1052245.64407   -807342.29106  25058347.45206  25058347.37406
  24758506.81707  -2855271.53007  -2197653.82806  24758506.25006  24758504.39406
  23838669.99908  -6319385.19508  -4896144.42708  23838670.94708  23838668.31908
 07  1 15  0 52  0.0000000  0  8G08G29G10G28G26G19G21G27
  21478806.29909 -21181592.13609 -16464573.84409  21478806.30909  21478804.77509
  20842099.45809 -21918926.58709 -17027355.90209  20842099.32109  20842098.45109
  21608983.96009 -17925231.30909 -13934394.57609  21608984.67309  21608981.94809
  21165203.97809 -21553249.45109 -16744908.35909  21165203.39209  21165202.78709
  21021743.09909 -19939051.11509 -15503788.77409  21021743.31409  21021742.34609
  25061366.70107  -1036387.53007   -794985.32906  25061364.98206  25061364.58206
  24760513.58007  -2844722.31807  -2189433.65306  24760513.78506  24760512.42706
  23853869.29108  -6239510.17908  -4833904.17808  23853870.94208  23853868.31508
 07  1 15  0 52 30.0000000  0  8G08G29G10G28G26G19G21G27
  21491734.79809 -21113652.07009 -16411633.53309  21491735.13009  21491733.43009
  20833902.98109 -21962000.14209 -17060919.71809  20833902.71809  20833901.79909
  21623060.34409 -17851258.54809 -13876753.48109  21623061.27209  21623058.69309
  21161711.37209 -21571603.44109 -16759210.16909  21161710.68809  21161710.01409
  21009439.10409 -20003709.00809 -15554171.55009  21009439.43609  21009438.36209
  25064486.78006  -1019996.39606   -782212.99207  25064484.54307  25064483.95707
  24762621.58307  -2833650.41907  -2180806.22806  24762620.97706  24762619.44406
  23869082.29808  -6159565.81208  -4771609.89008  23869083.35308  23869081.21408
 07  1 15  0 53  0.0000000  0  8G08G29G10G28G26G19G21G27
  21504715.08809 -21045439.93409 -16358481.22309  21504715.26409  21504713.41809
  20825767.97809 -22004749.22409 -17094230.68809  20825767.87009  20825766.95209
  21637221.59609 -17776841.44209 -13818766.14109  21637222.26109  21637219.79909
  21158321.37309 -21589417.65609 -16773091.36809  21158320.71809  21158320.13209
  20997201.79909 -20068016.75809 -15604281.48009  20997202.02409  20997200.93909
  25067706.21307  -1003072.53907   -769025.56906  25067704.40606  25067704.53306
  24764826.77207  -2822057.04807  -2171772.43106  24764826.86006  24764825.93206
  23884308.62908  -6079552.17908  -4709261.62708  23884309.59608  23884307.34008
 07  1 15  0 53 30.0000000  0  8G08G29G10G28G26G19G21G27
  21517746.89709 -20976957.45309 -16305118.25909  21517747.02409  21517745.34409
  20817694.96409 -22047172.82209 -17127288.03709  20817694.91509  20817694.08509
  21651466.78809 -17701982.66209 -13760434.63809  21651467.20809  21651465.29409
  21155034.17609 -21606692.07309 -16786551.94809  21155033.48209  21155033.04309
  20985031.23109 -20131972.87509 -15654117.41009  20985031.45609  20985030.48909
  25071028.25307   -985616.54807   -755423.47807  25071026.60207  25071026.32907
  24767132.82007  -2809943.18907  -2162333.06006  24767131.40306  24767130.90506
  23899547.43408  -5999470.46308  -4646860.33508  23899548.89008  23899546.55508
 07  1 15  0 54  0.0000000  0  8G08G29G10G28G26G19G21G27
  21530829.87309 -20908206.04309 -16251545.73209  21530830.02009  21530828.16409
  20809684.24409 -22089269.53009 -17160090.66609  20809684.35209  20809683.33609
  21665795.79309 -17626684.25909 -13701760.56909  21665796.15509  21665793.89809
  21151849.83109 -21623426.07309 -16799591.41809  21151849.14709  21151848.54209
  20972927.98709 -20195575.67109 -15703678.02509  20972928.33909  20972927.34309
  25074451.56307   -967628.48207   -741406.79107  25074449.49207  25074449.41407
  24769536.39507  -2797309.90907  -2152488.98006  24769535.38906  24769535.52606
  23914799.57408  -5919321.37508  -4584406.52508  23914800.17908  23914798.42108
 07  1 15  0 54 30.0000000  0  8G08G29G10G28G26G19G21G27
  21543963.74309 -20839187.15309 -16197764.78509  21543963.89909  21543962.19009
  20801735.87609 -22131038.00109 -17192637.52909  20801735.96409  20801735.06509
  21680207.65409 -17550948.72409 -13642745.87309  21680207.85909  21680205.68109
  21148768.17209 -21639619.63809 -16812209.76909  21148767.46809  21148766.99009
  20960892.38009 -20258823.36209 -15752961.93409  20960892.73209  20960891.79409
  25077975.57507   -949109.00207   -726976.02707  25077973.52307  25077973.97307
  24772039.00307  -2784157.85607  -2142240.63806  24772038.69006  24772037.88906
  23930063.46408  -5839105.65408  -4521900.78308  23930065.23208  23930063.25908
 07  1 15  0 55  0.0000000  0  8G08G29G10G28G26G19G21G27
  21557148.49609 -20769901.85009 -16143776.24009  21557148.35009  21557146.64009
  20793850.32809 -22172476.76509 -17224927.46909  20793850.50409  20793849.41909
  21694702.15509 -17474778.35509 -13583392.35309  21694702.69309  21694700.54309
  21145789.55009 -21655272.28909 -16824406.62709  21145788.80709  21145788.64109
  20948924.74109 -20321714.00009 -15801967.62209  20948925.10309  20948924.07709
  25081600.60207   -930058.89007   -712131.74207  25081598.35507  25081598.79507
  24774640.77907  -2770488.05607  -2131588.89306  24774640.11506  24774639.36306
  23945341.75308  -5758824.08308  -4459343.77508  23945342.67108  23945339.45808
 07  1 15  0 55 30.0000000  0  8G08G29G10G28G26G19G21G27
  21570383.48809 -20700351.96809 -16089581.53009  21570383.49809  21570381.71009
  20786027.88409 -22213584.49009 -17256959.45509  20786028.01109  20786026.81909
  21709279.33609 -17398175.47609 -13523701.81009  21709279.80509  21709277.67609
  21142914.08209 -21670383.89709 -16836181.89909  21142913.19309  21142912.81209
  20937025.19809 -20384246.14909 -15850693.96709  20937025.63809  20937024.40709
  25085327.08407   -910477.62607   -696873.61107  25085324.25107  25085325.13007
  24777339.89807  -2756301.57507  -2120534.51406  24777339.57606  24777339.09706
  23960630.62208  -5678476.81608  -4396735.53908  23960631.73508  23960629.38108
 07  1 15  0 56  0.0000000  0  8G08G29G10G28G26G19G21G27
  21583668.25009 -20630539.05609 -16035181.86109  21583668.41609  21583666.82409
  20778268.53409 -22254359.86709 -17288732.47109  20778268.63209  20778267.49909
  21723938.28909 -17321142.27509 -13463675.95409  21723938.66009  21723936.58909
  21140141.27009 -21684954.18709 -16847535.36009  21140140.34209  21140140.21509
  20925194.18109 -20446417.99209 -15899139.55009  20925194.75709  20925193.47709
  25089153.61307   -890366.28807   -681202.41307  25089151.12307  25089152.28507
  24780137.75607  -2741599.49807  -2109078.34806  24780137.05206  24780136.61306
  23975932.49208  -5598064.72408  -4334076.78708  23975933.83008  23975931.34908
 07  1 15  0 56 30.0000000  0  8G08G29G10G28G26G19G21G27
  21597003.02709 -20560464.29409 -15980578.15509  21597003.11409  21597001.66909
  20770572.75709 -22294801.73209 -17320245.60809  20770572.78709  20770571.70209
  21738678.51509 -17243681.43309 -13403316.87109  21738679.18909  21738676.91309
  21137471.75909 -21698982.75109 -16858466.69509  21137470.75309  21137470.59709
  20913432.26409 -20508227.84109 -15947303.06109  20913432.54809  20913431.56109
  25093081.65707   -869725.29907   -665118.51007  25093078.93107  25093080.23007
  24783033.67907  -2726383.04207  -2097221.37606  24783032.94606  24783032.30106
  23991246.88508  -5517588.89808  -4271368.40708  23991248.03708  23991245.79108
 07  1 15  0 57  0.0000000  0  8G08G29G10G28G26G19G21G27
  21610387.22109 -20490129.30909 -15925771.67709  21610387.61209  21610385.99009
  20762940.73909 -22334908.44109 -17351497.59009  20762940.69009  20762939.73309
  21753499.88609 -17165795.03209 -13342626.18909  21753500.36509  21753498.38209
  21134905.35409 -21712469.64309 -16868975.95309  21134904.30909  21134904.09409
  20901739.57709 -20569673.58009 -15995182.85409  20901739.83109  20901738.96209
  25097110.45107   -848554.86107   -648622.02507  25097107.62807  25097108.65407
  24786026.55307  -2710653.06307  -2084964.25906  24786026.23106  24786025.47806
  24006573.15608  -5437049.43208  -4208610.39908  24006573.55708  24006571.95508
 07  1 15  0 57 30.0000000  0  8G08G29G10G28G26G19G21G27
  21623820.89309 -20419535.57709 -15870763.58409  21623820.90309  21623819.48609
  20755372.58609 -22374678.89109 -17382487.55309  20755372.61609  20755371.64809
  21768401.70109 -17087485.67209 -13281605.92009  21768402.23809  21768400.29409
  21132441.91809 -21725414.97409 -16879063.21809  21132440.72609  21132440.78509
  20890116.47009 -20630753.93809 -16042777.93609  20890116.56809  20890115.63009
  25101239.77207   -826855.88707   -631713.73207  25101236.94907  25101237.72107
  24789117.94207  -2694410.70907  -2072307.94106  24789117.18006  24789116.33006
  24021910.69108  -5356447.52708  -4145803.73508  24021912.37108  24021910.03608
 07  1 15  0 58  0.0000000  0  8G08G29G10G28G26G19G21G27
  21637303.20209 -20348684.34809 -15815554.84409  21637303.80709  21637302.28309
  20747868.82709 -22414111.55909 -17413214.31209  20747868.73909  20747867.91809
  21783383.77309 -17008755.93509 -13220258.08609  21783384.13409  21783381.84909
  21130081.47009 -21737818.26409 -16888728.11509  21130080.56209  21130080.29809
  20878563.05109 -20691466.99109 -16090086.80709  20878563.32509  20878562.33809
  25105468.83907   -804628.97007   -614394.06007  25105466.84607  25105467.49107
  24792306.40907  -2677657.26107  -2059253.33006  24792304.99206  24792304.16206
  24037261.09008  -5275783.74808  -4082948.91608  24037261.88208  24037259.06808
 07  1 15  0 58 30.0000000  0  8G08G29G10G28G26G19G21G27
  21650834.83109 -20277577.02509 -15760146.54909  21650834.74309  21650833.33609
  20740429.46109 -22453205.22009 -17443676.90609  20740429.52009  20740428.52309
  21798444.93009 -16929607.86609 -13158584.28509  21798445.58409  21798443.55309
  21127824.52809 -21749679.44309 -16897970.58209  21127823.46309  21127823.19009
  20867079.89609 -20751810.87709 -16137108.01209  20867080.22809  20867079.15409
  25109798.06107   -781874.23307   -596663.12107  25109797.25007  25109797.26907
  24795591.32907  -2660393.51007  -2045801.04106  24795590.06906  24795589.90306
  24052622.49908  -5195058.78208  -4020046.32708  24052622.58708  24052620.86808
 07  1 15  0 59  0.0000000  0  8G08G29G10G28G26G19G21G27
  21664414.34509 -20206215.27609 -15704539.99409  21664414.39409  21664413.30009
  20733054.93809 -22491958.47709 -17473874.25009  20733055.08409  20733054.06809
  21813585.45509 -16850044.18809 -13096586.62309  21813586.04109  21813583.60909
  21125670.51609 -21760998.24609 -16906790.42009  21125669.49009  21125669.37309
  20855667.34709 -20811784.12309 -16183840.41009  20855667.74809  20855666.73209
  25114229.56807   -758592.49307   -578521.52107  25114228.00507  25114227.53607
  24798972.74207  -2642620.75007  -2031952.12206  24798972.32206  24798971.19906
  24067995.44408  -5114272.79708  -3957096.25808  24067996.80208  24067993.58808
 07  1 15  0 59 30.0000000  0  8G08G29G10G28G26G19G21G27
  21678042.26109 -20134600.76709 -15648736.48409  21678042.20309  21678041.20709
  20725745.51109 -22530370.06909 -17503805.36709  20725745.57909  20725744.62209
  21828804.26509 -16770067.31909 -13034266.99809  21828805.28009  21828802.94609
  21123619.82409 -21771774.84609 -16915187.76809  21123618.85709  21123618.65209
  20844325.87309 -20871384.89809 -16230282.57109  20844326.06909  20844325.09209
  25118760.09707   -734784.58607   -559969.91907  25118758.26007  25118758.31907
  24802451.96607  -2624340.34807  -2017707.66506  24802450.97906  24802449.67006
  24083379.74008  -5033427.11108  -3894099.66608  24083380.59008  24083378.84108
 07  1 15  1  0  0.0000000  0  8G08G29G10G28G26G19G21G27
  21691717.79909 -20062734.41509 -15592736.73009  21691718.00409  21691716.81209
  20718501.40609 -22568438.47909 -17533469.06609  20718501.41609  20718500.38009
  21844101.54309 -16689679.54309 -12971627.18909  21844102.66709  21844100.17609
  21121672.27709 -21782009.06009 -16923162.47409  21121671.33909  21121671.19309
  20833055.42509 -20930611.29309 -16276433.01209  20833055.48409  20833054.61509
  25123391.00607   -710450.67907   -541008.41007  25123388.77907  25123389.00407
  24806026.45107  -2605553.49107  -2003068.54506  24806025.97306  24806024.70306
  24098776.07008  -4952522.06608  -3831056.79708  24098776.59808  24098773.63808
 07  1 15  1  0 30.0000000  0  9G08G09G29G10G28G26G19G21G27
  21705440.98709 -19990618.04809 -15536542.15609  21705440.98709  21705439.98109
  25019426.82107    -43194.00207     -9165.94907                                
  20711322.77809 -22606162.62109 -17562864.50509  20711322.76809  20711321.72309
  21859476.70609 -16608883.66909 -12908669.39009  21859477.31209  21859475.34809
  21119828.00109 -21791701.14709 -16930714.74509  21119827.14209  21119826.82909
  20821856.48209 -20989461.86009 -16322290.59809  20821856.61909  20821855.74009
  25128120.26407   -685591.91507   -521637.92807  25128119.51207  25128119.78507
  24809697.78107  -2586261.58207  -1988035.90306  24809696.75506  24809696.38406
  24114182.33608  -4871558.64508  -3767968.48208  24114183.97708  24114181.77908
 07  1 15  1  1  0.0000000  0  9G08G09G29G10G28G26G19G21G27
  21719211.63909 -19918252.65709 -15480153.54509  21719211.90309  21719210.89709
  24998447.89407   -153436.53807    -95069.20707  24998449.08507  24998445.97907
  20704209.81409 -22643541.01209 -17591990.52409  20704210.00909  20704208.81809
  21874929.17609 -16527681.94109 -12845395.33709  21874929.68409  21874927.45609
  21118086.94909 -21800850.62609 -16937844.20009  21118086.08909  21118085.54209
  20810729.40509 -21047934.74309 -16367853.88509  20810729.65909  20810728.63409
  25132951.04507   -660208.65207   -501858.72907  25132949.64807  25132950.47807
  24813465.13307  -2566465.50107  -1972610.38106  24813464.07806  24813463.41406
  24129600.66507  -4790537.03907  -3704834.77008  24129601.80708  24129598.48608
 07  1 15  1  1 30.0000000  0  9G08G09G29G10G28G26G19G21G27
  21733029.54209 -19845640.29509 -15423572.48809  21733029.43409  21733028.14509
  24977480.27807   -263619.45507   -180925.96907  24977483.16007  24977479.85807
  20697163.00109 -22680572.40909 -17620846.15409  20697163.12809  20697161.98509
  21890458.26909 -16446076.96109 -12781807.05409  21890458.71809  21890456.09009
  21116448.95309 -21809457.71209 -16944551.01009  21116448.21009  21116447.54609
  20799674.69309 -21106028.28409 -16413121.57509  20799674.89809  20799673.90109
  25137880.04707   -634301.91507   -481671.62807  25137878.78707  25137880.07607
  24817327.68907  -2546166.83107  -1956793.19506  24817326.56606  24817326.18506
  24145029.32908  -4709458.04008  -3641656.38108  24145030.55008  24145028.07808
 07  1 15  1  2  0.0000000  0  9G08G09G29G10G28G26G19G21G27
  21746893.65809 -19772782.17009 -15366799.92609  21746894.14709  21746892.86709
  24956525.12707   -373741.26207   -266735.14607  24956526.93407  24956524.42407
  20690182.45709 -22717255.36809 -17649430.27709  20690182.69209  20690181.52909
  21906063.32109 -16364070.84609 -12717906.20609  21906063.75109  21906061.87509
  21114914.19909 -21817522.46609 -16950835.22209  21114913.35909  21114912.89009
  20788692.24709 -21163740.71109 -16458092.29609  20788692.67709  20788691.54309
  25142909.81007   -607872.16507   -461077.00607  25142908.16907  25142908.88207
  24821286.07307  -2525366.89707  -1940585.42806  24821284.81306  24821284.10006
  24160468.70908  -4628322.07508  -3578433.56608  24160469.64608  24160466.92108
 07  1 15  1  2 30.0000000  0  9G08G09G29G10G28G26G19G21G27
  21760804.55609 -19699679.80209 -15309837.04809  21760805.18109  21760803.64709
  24935580.71207   -483801.61907   -352496.43607  24935583.21307  24935579.96007
  20683268.51509 -22753588.63709 -17677741.91609  20683268.59309  20683267.61609
  21921744.49809 -16281666.30709 -12653694.88609  21921744.77209  21921742.53509
  21113482.86309 -21825044.71609 -16956696.70909  21113482.02309  21113481.42709
  20777782.77109 -21221070.42209 -16502764.79909  20777783.11309  20777781.95009
  25148039.06507   -580920.01807   -440075.33707  25148037.08207  25148037.64907
  24825338.94707  -2504066.62807  -1923987.80606  24825337.68606  24825337.51106
  24175919.57608  -4547130.15208  -3515167.17008  24175920.38708  24175918.20908
 07  1 15  1  3  0.0000000  0  9G08G09G29G10G28G26G19G21G27
  21774761.78509 -19626334.04009 -15252684.51509  21774762.56609  21774760.51509
  24914649.21007   -593799.13607   -438208.75807  24914651.23207  24914648.17507
  20676421.19209 -22789570.85409 -17705780.00709  20676421.38809  20676420.42109
  21937500.81409 -16198866.13309 -12589175.28109  21937501.09709  21937498.90009
  21112154.54509 -21832024.79209 -16962135.72509  21112153.82209  21112153.23609
  20766946.41209 -21278015.54609 -16547137.61809  20766946.64609  20766945.68909
  25153267.16607   -553446.24807   -418667.20807  25153265.42707  25153265.50507
  24829487.32607  -2482267.58107  -1907001.52506  24829485.30406  24829485.70406
  24191380.05608  -4465882.57608  -3451857.41408  24191380.93508  24191378.94208
 07  1 15  1  3 30.0000000  0  9G08G09G29G10G28G26G19G21G27
  21788765.09209 -19552746.66509 -15195343.71409  21788765.60009  21788763.65609
  24893730.14407   -703732.91307   -523871.40506  24893731.51106  24893728.34606
  20669641.09609 -22825200.84109 -17733543.63409  20669641.17409  20669640.14909
  21953331.94609 -16115672.54409 -12524349.12109  21953332.25909  21953330.10009
  21110929.44009 -21838462.77709 -16967152.33009  21110928.68809  21110928.10209
  20756183.71609 -21334574.48909 -16591209.52209  20756183.91109  20756182.84609
  25158594.52407   -525451.97007   -396853.47607  25158592.77507  25158592.91207
  24833730.30307  -2459971.04007  -1889627.61706  24833729.28706  24833729.13006
  24206852.19908  -4384580.27808  -3388505.00708  24206852.57008  24206851.08508
 07  1 15  1  4  0.0000000  0  9G08G09G29G10G28G26G19G21G27
  21802814.23209 -19478919.01609 -15137815.69009  21802814.94509  21802812.62009
  24872822.09607   -813601.77307   -609483.47206  24872823.56106  24872820.90406
  20662928.23609 -22860476.98909 -17761031.54309  20662928.40209  20662927.30809
  21969237.42609 -16032088.24309 -12459218.50109  21969237.97309  21969235.61909
  21109807.52909 -21844358.68809 -16971746.54109  21109806.68909  21109806.22009
  20745494.61509 -21390745.29809 -16634978.98609  20745494.83009  20745493.85309
  25164020.88507   -496937.72907   -374634.55507  25164018.92107  25164018.87207
  24838067.40807  -2437178.43907  -1871867.13206  24838066.40106  24838066.98706
  24222334.13008  -4303223.46008  -3325110.09008  24222334.66808  24222331.86408
 07  1 15  1  4 30.0000000  0  9G08G09G29G10G28G26G19G21G27
  21816908.55109 -19404852.63509 -15080101.63309  21816909.24409  21816906.80209
  24851927.50907   -923405.15007   -695044.49307  24851928.60307  24851926.15207
  20656282.84609 -22895398.27209 -17788242.93109  20656283.06109  20656282.05509
  21985216.96009 -15948115.84409 -12393785.47609  21985217.35109  21985214.58609
  21108788.51809 -21849712.67209 -16975918.46809  21108787.67809  21108787.29709
  20734880.04809 -21446526.51309 -16678444.86809  20734880.10609  20734879.15909
  25169545.95507   -467904.49407   -352011.25707  25169543.73807  25169544.35307
  24842498.88507  -2413891.34907  -1853721.35706  24842498.16206  24842497.85906
  24237825.57608  -4221813.25208  -3261673.61408  24237826.39608  24237824.39408
 07  1 15  1  5  0.0000000  0  9G08G09G29G10G28G26G19G21G27
  21831048.28309 -19330548.77209 -15022202.53409  21831048.73209  21831046.66109
  24831044.88907  -1033141.66207   -780553.40606  24831046.18806  24831043.73606
  20649705.59109 -22929963.23509 -17815176.66809  20649705.63009  20649704.62409
  22001269.33709 -15863757.78709 -12328051.93609  22001270.03009  22001267.63709
  21107872.74909 -21854524.82209 -16979668.18309  21107871.95809  21107871.41109
  20724339.47609 -21501916.37209 -16721605.79809  20724339.86609  20724338.78209
  25175169.13007   -438352.76207   -328983.92407  25175167.15707  25175167.57707
  24847023.72907  -2390110.88307  -1835191.11206  24847023.34806  24847022.29306
  24253326.80008  -4140349.85808  -3198195.64208  24253328.78308  24253325.48108
 07  1 15  1  5 30.0000000  0  9G08G09G29G10G28G26G19G21G27
  21845232.45209 -19256009.05809 -14964119.64509  21845233.27209  21845231.15209
  24810175.56307  -1142809.99207   -866009.23206  24810176.11006  24810174.18606
  20643195.97309 -22964170.54709 -17841831.72109  20643196.17809  20643195.23009
  22017395.31909 -15779016.44009 -12262019.73409  22017395.84609  22017393.37509
  21107060.07609 -21858795.21709 -16982995.75909  21107059.38209  21107058.78709
  20713874.10109 -21556913.15309 -16764460.43209  20713874.40409  20713873.16309
  25180890.63307   -408283.87107   -305553.59307  25180888.98207  25180889.19707
  24851642.55507  -2365838.74207  -1816277.74406  24851641.94906  24851641.39306
  24268839.33508  -4058833.95608  -3134676.83608  24268840.43908  24268837.93808
 07  1 15  1  6  0.0000000  0  9G08G09G29G10G28G26G19G21G27
  21859461.63309 -19181234.61409 -14905853.85409  21859462.50309  21859460.41209
  24789319.63007  -1252409.51907   -951411.43906  24789319.77706  24789318.04806
  20636755.01609 -22998019.02309 -17868207.15809  20636755.09409  20636754.11809
  22033593.65509 -15693894.51009 -12195690.97009  22033593.91909  22033591.74009
  21106350.45009 -21862524.16709 -16985901.42709  21106349.83509  21106349.15109
  20703483.33709 -21611515.18409 -16807007.46709  20703483.89409  20703482.79009
  25186711.19807   -377698.41207   -281720.75707  25186709.04907  25186709.51807
  24856355.02107  -2341076.11807  -1796982.20406  24856354.46406  24856353.73206
  24284360.54508  -3977266.42108  -3071117.69208  24284361.59008  24284359.77308
 07  1 15  1  6 30.0000000  0 10G08G09G18G29G10G28G26G19G21G27
  21873735.28109 -19106227.03709 -14847406.40309  21873735.68109  21873734.19609
  24768476.79607  -1361938.84207  -1036758.89706  24768476.76706  24768475.79006
  25473989.07407    -76016.21807    -14343.77706                                
  20630382.52709 -23031507.31809 -17894301.93409  20630382.44809  20630381.47209
  22049863.55509 -15608394.63809 -12129067.70809  22049864.06309  22049862.22609
  21105744.04709 -21865711.76609 -16988385.26309  21105743.05009  21105742.66009
  20693168.74809 -21665720.84309 -16849245.63909  20693168.88509  20693167.66309
  25192628.44107   -346597.53907   -257486.29207  25192627.56207  25192627.07307
  24861160.52107  -2315824.75607  -1777305.81906  24861159.21206  24861158.89006
  24299892.38308  -3895647.61408  -3007518.66508  24299894.16108  24299891.53308
 07  1 15  1  7  0.0000000  0 10G08G09G18G29G10G28G26G19G21G27
  21888052.64209 -19030987.50209 -14788778.20109  21888053.30609  21888051.69409
  24747647.43307  -1471397.24707  -1122051.09206  24747647.81406  24747647.08106
  25454906.47807   -176299.15207    -92486.34306  25454905.30606  25454905.88306
  20624078.50409 -23064634.08409 -17920114.99809  20624078.67009  20624077.57609
  22066205.32109 -15522519.33409 -12062151.89809  22066205.46709  22066203.90409
  21105240.55409 -21868358.35809 -16990447.53709  21105239.43009  21105239.13709
  20682929.37509 -21719528.25309 -16891173.49609  20682929.57009  20682928.57409
  25198644.93107   -314981.69407   -232850.57406  25198644.07106  25198643.70006
  24866058.73307  -2290086.15707  -1757249.75706  24866057.08206  24866056.98506
  24315433.61807  -3813978.21307  -2943880.17708  24315435.30808  24315432.11408
 07  1 15  1  7 30.0000000  0 10G08G09G18G29G10G28G26G19G21G27
  21902414.13609 -18955517.64209 -14729970.53309  21902414.70309  21902413.31609
  24726832.09707  -1580783.83907  -1207287.31906  24726832.46906  24726831.51106
  25435862.65307   -276376.17907   -170468.48206  25435860.51406  25435862.15506
  20617843.72909 -23097398.05809 -17945645.36709  20617843.85609  20617842.75209
  22082617.97609 -15436271.31009 -11994945.65409  22082618.02509  22082616.20809
  21104839.73609 -21870464.30009 -16992088.52609  21104838.65209  21104838.49609
  20672766.22509 -21772935.84809 -16932789.80509  20672766.50809  20672765.44409
  25204759.25107   -282852.32607   -207814.70107  25204757.98107  25204757.68807
  24871048.37807  -2263861.61507  -1736815.03806  24871047.62606  24871047.43006
  24330983.80108  -3732258.88508  -2880202.78208  24330985.98908  24330982.83408
 07  1 15  1  8  0.0000000  0 10G08G09G18G29G10G28G26G19G21G27
  21916819.35409 -18879818.84009 -14670984.46309  21916819.64809  21916818.02609
  24706030.26207  -1690097.33007  -1292466.64507  24706031.13107  24706029.73407
  25416858.53707   -376244.69107   -248288.10306  25416857.05206  25416857.14006
  20611678.28109 -23129797.88509 -17970891.98709  20611678.33009  20611677.28409
  22099100.58309 -15349653.12109 -11927450.96909  22099100.75909  22099099.44009
  21104541.82909 -21872029.65709 -16993308.28009  21104540.85209  21104540.70609
  20662679.66909 -21825941.82609 -16974093.16509  20662679.92309  20662678.77109
  25210970.60107   -250210.15307   -182379.22907  25210969.75107  25210969.00907
  24876130.58807  -2237152.79107  -1716002.98206  24876130.62706  24876129.61106
  24346544.92508  -3650489.98408  -2816486.77308  24346546.12608  24346542.20908
 07  1 15  1  8 30.0000000  0 10G08G09G18G29G10G28G26G19G21G27
  21931267.64109 -18803892.17509 -14611820.83409  21931267.65109  21931266.16609
  24685243.30307  -1799336.72707  -1377588.20206  24685243.91906  24685241.70106
  25397894.77407   -475901.93607   -325943.11806  25397893.19106  25397893.28906
  20605582.42309 -23161832.25409 -17995853.83409  20605582.40309  20605581.32909
  22115653.54209 -15262667.33609 -11859669.84109  22115653.79609  22115652.23309
  21104346.83209 -21873054.62009 -16994106.94609  21104345.92409  21104345.62109
  20652669.58009 -21878544.53209 -17015082.28809  20652669.96109  20652668.90609
  25217280.50407   -217056.24307   -156544.99406  25217278.09206  25217278.29706
  24881305.59807  -2209961.13607  -1694814.66806  24881305.66606  24881304.23006
  24362113.18908  -3568672.29408  -2752732.72708  24362115.35808  24362112.75908
 07  1 15  1  9  0.0000000  0 10G08G09G18G29G10G28G26G19G21G27
  21945758.91909 -18727738.87609 -14552480.61009  21945759.47609  21945757.93309
  24664468.78007  -1908501.31207  -1462651.48906  24664470.63606  24664468.04706
  25378971.50107   -575345.13107   -403431.37006  25378970.20106  25378970.12306
  20599556.13509 -23193500.01409 -18020530.00809  20599556.20309  20599555.15809
  22132275.84709 -15175316.78509 -11791604.48509  22132276.21809  22132273.70809
  21104254.64809 -21873539.51709 -16994484.78009  21104253.69009  21104253.24109
  20642736.70109 -21930742.41809 -17055755.96709  20642736.98509  20642735.99809
  25223685.29807   -183391.70207   -130312.87406  25223684.12606  25223684.12606
  24886571.76607  -2182288.45707  -1673251.56106  24886571.23906  24886570.55506
  24377692.53108  -3486806.12808  -2688940.92908  24377694.29908  24377690.96808
 07  1 15  1  9 30.0000000  0 10G08G09G18G29G10G28G26G19G21G27
  21960293.27609 -18651360.79909 -14492965.22909  21960293.42209  21960291.77109
  24643709.71007  -2017589.87207  -1547655.50906  24643711.62506  24643709.64206
  25360089.11807   -674572.26807   -480751.26006  25360087.48706  25360087.90706
  20593599.95509 -23224799.80709 -18044919.45609  20593600.06309  20593599.04709
  22148966.89209 -15087603.97909 -11723256.85809  22148967.43009  22148965.50509
  21104264.82609 -21873484.73709 -16994442.08609  21104264.16209  21104263.63509
  20632881.12909 -21982533.78309 -17096112.87409  20632881.58809  20632880.44509
  25230188.80207   -149217.26907   -103683.44206  25230187.08306  25230187.24906
  24891928.31207  -2154136.18007  -1651314.73106  24891928.32206  24891927.79406
  24393280.19508  -3404892.62308  -2625112.25708  24393281.66108  24393279.13108
 07  1 15  1 10  0.0000000  0 10G08G09G18G29G10G28G26G19G21G27
  21974870.12509 -18574759.14309 -14433275.63809  21974870.23209  21974868.94309
  24622966.99307  -2126601.32707  -1632599.41507  24622967.57907  24622965.55707
  25341248.40807   -773580.15807   -557900.31006  25341247.01106  25341247.96806
  20587714.17709 -23255730.26009 -18069021.10909  20587714.22609  20587713.21909
  22165726.64909 -14999531.53309 -11654628.98609  22165726.61909  22165724.75309
  21104377.81809 -21872890.64009 -16993979.14309  21104377.12409  21104376.73309
  20623103.44109 -22033916.81409 -17136151.59909  20623103.70409  20623102.64009
  25236788.74907   -114534.34707    -76657.77606  25236786.27806  25236787.36206
  24897376.40707  -2125505.83307  -1629005.38006  24897376.38806  24897376.04606
  24408876.17308  -3322931.93208  -2561246.75608  24408877.70608  24408875.58708
 07  1 15  1 10 30.0000000  0 10G08G09G18G29G10G28G26G19G21G27
  21989489.07609 -18497935.25909 -14373412.87409  21989489.50509  21989487.58109
  24602237.01407  -2235534.55307  -1717482.40407  24602237.98107  24602235.92007
  25322449.71107   -872366.22007   -634876.49806  25322448.81206  25322449.08606
  20581898.77009 -23286290.18709 -18092834.04209  20581898.89709  20581897.98809
  22182554.34409 -14911101.92609 -11585722.81009  22182554.63709  22182552.71309
  21104593.66009 -21871757.63209 -16993096.27309  21104592.74209  21104592.29309
  20613403.38209 -22084889.94909 -17175870.92509  20613403.83109  20613402.62009
  25243485.68707    -79343.88807    -49236.62906  25243483.21506  25243484.31906
  24902915.33907  -2096399.27107  -1606324.94606  24902915.05606  24902915.09506
  24424482.49508  -3240924.63208  -2497345.03808  24424483.93108  24424481.49808
 07  1 15  1 11  0.0000000  0 10G08G09G18G29G10G28G26G19G21G27
  22004150.33309 -18420890.27509 -14313377.84209  22004150.63609  22004148.97609
  24581522.94707  -2344388.46007  -1802303.58707  24581523.66007  24581521.73607
  25303694.65007   -970928.15007   -711678.01806  25303693.23406  25303692.85306
  20576154.34909 -23316478.20509 -18116357.17509  20576154.31009  20576153.43109
  22199449.39309 -14822317.98409 -11516540.52909  22199449.53909  22199448.14209
  21104911.70009 -21870085.93409 -16991793.64209  21104910.88909  21104910.38109
  20603782.03709 -22135451.52909 -17215269.56009  20603782.18309  20603781.08909
  25250278.36407    -43646.90207    -21420.79106  25250276.32306  25250276.35206
  24908544.53107  -2066817.96807  -1583274.59106  24908543.55406  24908543.73006
  24440095.79108  -3158871.11408  -2433407.18807  24440096.58307  24440096.14307
 07  1 15  1 11 30.0000000  0 10G08G09G18G29G10G28G26G19G21G27
  22018853.15609 -18343625.86309 -14253171.81709  22018853.31209  22018851.55409
  24560823.94307  -2453162.36807  -1887062.42307  24560824.97907  24560823.15207
  25284982.16907  -1069263.10107   -788302.67706  25284980.72406  25284980.15706
  20570480.72109 -23346293.26709 -18139589.69309  20570480.63309  20570479.81309
  22216411.30609 -14733182.41809 -11447084.24609  22216411.82409  22216409.85109
  21105332.18109 -21867876.29809 -16990071.84009  21105331.39009  21105330.92109
  20594239.00509 -22185599.83209 -17254346.16009  20594239.37609  20594238.19409
  25257167.89607     -7444.47107      6788.90206  25257165.72706  25257165.85406
  24914263.91507  -2036763.79107  -1559855.78306  24914263.04506  24914262.72306
  24455719.94108  -3076771.97508  -2369433.88408  24455721.26008  24455719.25708
 07  1 15  1 12  0.0000000  0 10G08G09G18G29G10G28G26G19G21G27
  22033597.73809 -18266143.54209 -14192795.99409  22033597.74809  22033596.14609
  24540140.11007  -2561855.05207  -1971757.95907  24540141.75107  24540139.27007
  25266312.84607  -1167368.67007   -864748.61306  25266311.91806  25266311.16506
  20564878.33409 -23375733.91109 -18162530.45909  20564878.38209  20564877.43509
  22233439.43009 -14643697.92309 -11377356.07709  22233439.70309  22233438.22809
  21105854.95709 -21865128.68809 -16987930.83809  21105854.39109  21105853.90209
  20584774.89209 -22235333.22709 -17293099.45209  20584775.42909  20584774.27609
  25264152.37607     29262.39107     35391.67406  25264150.73506  25264150.19806
  24920073.26607  -2006238.23007  -1536069.65506  24920071.54606  24920071.55606
  24471350.77208  -2994627.97908  -2305425.59607  24471352.15907  24471350.69407
 07  1 15  1 12 30.0000000  0 10G08G09G18G29G10G28G26G19G21G27
  22048383.10409 -18188444.60709 -14132251.37809  22048383.90509  22048381.77509
  24519472.02307  -2670465.72807  -2056389.58007  24519474.37707  24519471.10507
  25247688.56407  -1265242.17307   -941013.71206  25247687.07906  25247686.95206
  20559347.34309 -23404798.96409 -18185178.55009  20559347.46109  20559346.37609
  22250533.68609 -14553867.06509 -11307358.01409  22250534.33009  22250532.73809
  21106479.97909 -21861843.81009 -16985371.18509  21106479.41209  21106478.80709
  20575390.33309 -22284650.09909 -17331528.17909  20575390.64609  20575389.67809
  25271233.73007     66472.38407     64386.52306  25271231.01506  25271231.50306
  24925971.05907  -1975243.04907  -1511917.57306  24925970.00406  24925969.93606
  24486991.50808  -2912439.75608  -2241382.79108  24486991.72308  24486990.61908
 07  1 15  1 13  0.0000000  0 10G08G09G18G29G10G28G26G19G21G27
  22063209.98509 -18110530.09509 -14071538.78309  22063209.98509  22063208.54909
  24498820.17207  -2778992.81407  -2140956.08207  24498821.95907  24498818.70607
  25229108.13307  -1362881.21107  -1017096.10206  25229106.90206  25229107.24406
  20553888.13209 -23433487.16209 -18207532.98609  20553888.21009  20553887.18409
  22267693.45809 -14463692.59609 -11237092.20109  22267694.27909  22267691.74909
  21107207.19809 -21858022.14409 -16982393.25609  21107206.60209  21107205.97709
  20566085.13309 -22333548.95509 -17369631.18109  20566085.38709  20566084.49809
  25278410.06207    104184.25007     93772.42606  25278406.97506  25278408.15706
  24931958.57607  -1943780.01307  -1487400.97606  24931957.35506  24931956.98406
  24502639.39508  -2830207.46408  -2177305.74908  24502640.17608  24502638.16408
 07  1 15  1 13 30.0000000  0 10G08G09G18G29G10G28G26G19G21G27
  22078077.37609 -18032401.36809 -14010659.27109  22078077.71809  22078076.39909
  24478183.97907  -2887435.35807  -2225456.72107  24478185.85407  24478182.76707
  25210574.14007  -1460282.51007  -1092993.23906  25210571.85506  25210572.13806
  20548501.05909 -23461797.16009 -18229592.72309  20548500.98109  20548499.94609
  22284917.77109 -14373177.15409 -11166560.69709  22284918.48409  22284916.45209
  21108036.59509 -21853663.92509 -16978997.23009  21108035.85209  21108035.24609
  20556860.10209 -22382027.83009 -17407406.93009  20556860.20909  20556859.12509
  25285681.89007    142396.96207    123548.56906  25285679.22306  25285680.10306
  24938034.79007  -1911850.60307  -1462520.92706  24938032.98306  24938032.79706
  24518295.84808  -2747931.65908  -2113194.70008  24518296.12208  24518295.38908
 07  1 15  1 14  0.0000000  0 10G08G09G18G29G10G28G26G19G21G27
  22092985.26609 -17954060.06209 -13949614.10909  22092986.00909  22092984.24109
  24457564.53907  -2995792.70007  -2309890.96807  24457565.99407  24457563.37607
  25192084.13507  -1557444.02107  -1168703.53006  25192082.66006  25192083.32406
  20543185.73609 -23489728.01509 -18251357.02009  20543185.96109  20543184.87709
  22302206.58409 -14282323.42809 -11095765.59609  22302207.52209  22302205.01109
  21108967.83609 -21848770.14209 -16975183.88409  21108967.08409  21108966.42009
  20547714.83909 -22430085.38109 -17444854.36909  20547715.07409  20547714.16509
  25293048.27607    181109.18907    153713.94006  25293046.03006  25293046.67406
  24944198.33307  -1879457.27807  -1437279.40906  24944197.26906  24944197.24906
  24533961.74808  -2665613.25808  -2049050.55708  24533961.59208  24533959.43308
 07  1 15  1 14 30.0000000  0 10G08G09G18G29G10G28G26G19G21G27
  22107933.48109 -17875507.10409 -13888404.01909  22107933.77409  22107932.23109
  24436961.27507  -3104063.76507  -2394257.98107  24436962.16407  24436960.65007
  25173641.63407  -1654363.11207  -1244224.91606  25173639.95406  25173639.92406
  20537943.24609 -23517278.06909 -18272824.58909  20537943.27609  20537942.20109
  22319559.34109 -14191134.05309 -11024708.95309  22319560.10309  22319557.76809
  21110000.99209 -21843340.74109 -16970953.17109  21110000.22009  21109999.65409
  20538650.28409 -22477719.61109 -17481971.94709  20538650.59609  20538649.73709
  25300509.28907    220319.78307    184267.67606  25300508.14606  25300508.66406
  24950451.34607  -1846601.24307  -1411677.31706  24950449.34306  24950449.39206
  24549632.45307  -2583252.57707  -1984873.39807  24549633.60607  24549632.63907
 07  1 15  1 15  0.0000000  0 10G08G09G18G29G10G28G26G19G21G27
  22122921.55109 -17796743.89609 -13827030.09209  22122922.22509  22122920.68109
  24416374.07107  -3212247.38407  -2478556.86307  24416375.39007  24416373.91507
  25155244.65307  -1751036.93807  -1319555.17306  25155242.89506  25155242.77806
  20532773.37509 -23544446.16309 -18293994.52709  20532773.33609  20532772.34909
  22336975.38809 -14099611.79209 -10953392.91809  22336976.51109  22336973.80509
  21111136.05209 -21837376.09109 -16966305.38009  21111135.25109  21111134.83109
  20529666.90409 -22524929.09209 -17518758.55209  20529666.91309  20529665.94609
  25308065.62207    260027.52207    215208.81206  25308064.14706  25308064.53806
  24956791.41407  -1813284.23007  -1385715.99606  24956789.71406  24956789.23606
  24565315.21308  -2500850.10108  -1920663.70408  24565314.60808  24565312.69308
 07  1 15  1 15 30.0000000  0  9G08G09G18G29G10G28G26G21G27
  22137949.65109 -17717771.90709 -13765493.49309  22137949.95409  22137948.32309
  24395803.83407  -3320342.45407  -2562786.81907  24395805.87607  24395803.78607
  25136895.53807  -1847462.72007  -1394692.15206  25136893.88706  25136893.54506
  20527676.21909 -23571231.12709 -18314865.92309  20527676.39509  20527675.26209
  22354454.58709 -14007759.26509 -10881819.53509  22354455.50609  22354452.94609
  21112372.77209 -21830877.34409 -16961241.40909  21112371.86309  21112371.75609
  20520764.17109 -22571712.27709 -17555212.98209  20520764.45509  20520763.42909
  24963217.44407  -1779508.20107  -1359397.03406  24963217.52306  24963216.29206
  24581002.13507  -2418406.69307  -1856422.06707  24581003.34607  24581001.09907
 07  1 15  1 16  0.0000000  0 10G08G09G18G29G10G28G26G17G21G27
  22153016.97209 -17638592.30109 -13703795.12109  22153017.50909  22153015.79009
  24375251.27907  -3428347.64907  -2646946.66107  24375253.30107  24375250.39007
  25118593.79007  -1943638.18607  -1469634.08406  25118591.97306  25118592.56906
  20522652.38509 -23597631.73909 -18335437.82509  20522652.46309  20522651.42809
  22371995.66009 -13915579.30109 -10809990.98709  22371996.81309  22371994.19509
  21113711.11209 -21823844.48609 -16955761.24709  21113710.23309  21113710.02809
  20511942.93709 -22618067.43009 -17591333.87609  20511943.40609  20511942.31209
  25252153.40107    -38422.06107                                                
  24969732.29907  -1745275.06107  -1332721.87706  24969731.84006  24969730.97006
  24596698.82408  -2335922.28208  -1792148.57707  24596699.88907  24596697.58407
 07  1 15  1 16 30.0000000  0 10G08G09G18G29G10G28G26G17G21G27
  22168123.66909 -17559206.47709 -13641936.05009  22168124.16809  22168122.08709
  24354715.98407  -3536262.57307  -2731036.15307  24354717.58607  24354714.66507
  25100340.22907  -2039560.66307  -1544378.89306  25100338.59806  25100339.08606
  20517701.91209 -23623646.85809 -18355709.34609  20517702.01909  20517700.99409
  22389598.79109 -13823074.78109 -10737909.55009  22389599.69009  22389597.54109
  21115150.92609 -21816278.72109 -16949865.83009  21115149.85209  21115149.73509
  20503203.59109 -22663992.95809 -17627119.99609  20503204.04109  20503202.94709
  25233639.99007   -135716.61807    -55599.54606  25233638.73006  25233639.30706
  24976333.14507  -1710586.80407  -1305692.05006  24976332.51906  24976332.00206
  24612402.92808  -2253397.84608  -1727843.80507  24612402.60607  24612401.23807
 07  1 15  1 17  0.0000000  0 10G08G09G18G29G10G28G26G17G21G27
  22183269.17709 -17479615.89409 -13579917.43209  22183270.06609  22183268.07309
  24334197.58807  -3644086.00207  -2815054.39006  24334199.12206  24334196.30806
  25082135.29507  -2135227.40407  -1618924.40906  25082133.25406  25082134.28906
  20512825.02409 -23649275.14909 -18375679.44209  20512825.07309  20512824.05709
  22407263.20009 -13730248.28809 -10665577.22709  22407264.09809  22407261.44109
  21116691.89309 -21808180.30909 -16943555.36609  21116690.97509  21116690.78909
  20494546.41709 -22709487.30409 -17662570.13009  20494546.76909  20494545.72409
  25215118.67807   -233042.77507   -131438.04206  25215120.29906  25215116.99706
  24983020.82207  -1675445.17007  -1278308.99606  24983020.02106  24983019.15106
  24628113.68408  -2170833.76108  -1663508.14208  24628115.10108  24628113.20508
 07  1 15  1 17 30.0000000  0 10G08G09G18G29G10G28G26G17G21G27
  22198453.68909 -17399821.92509 -13517740.31909  22198453.82609  22198452.05809
  24313696.88307  -3751816.85107  -2899000.46806  24313698.60206  24313695.42806
  25063979.97507  -2230635.89507  -1693268.70106  25063978.29506  25063979.00806
  20508022.06409 -23674515.45209 -18395347.21009  20508022.03509  20508021.12609
  22424988.02609 -13637102.72409 -10592996.28009  22424989.15909  22424986.68809
  21118334.11909 -21799549.97209 -16936830.41609  21118333.34709  21118332.92709
  20485971.49309 -22754548.91209 -17697683.06809  20485971.89409  20485970.70209
  25196591.75806   -330397.76106   -207299.14106  25196593.67206  25196591.92406
  24989793.40607  -1639852.02607  -1250574.08306  24989793.35706  24989792.34106
  24643833.23207  -2088230.74707  -1599142.24707  24643834.00407  24643830.51607
 07  1 15  1 18  0.0000000  0 10G08G09G18G29G10G28G26G17G21G27
  22213676.43509 -17319825.78109 -13455405.67109  22213676.57209  22213674.92109
  24293214.53307  -3859454.00307  -2982873.56306  24293216.05706  24293213.30206
  25045874.50407  -2325783.35907  -1767409.59406  25045872.61806  25045873.14606
  20503293.07009 -23699366.57209 -18414711.72209  20503292.97209  20503292.14209
  22442773.53309 -13543640.69509 -10520168.74309  22442774.33409  22442771.76509
  21120077.46709 -21790388.28809 -16929691.43409  21120076.86109  21120076.22609
  20477479.17109 -22799176.19509 -17732457.57309  20477479.61109  20477478.42909
  25178059.87506   -427778.87206   -283180.45706  25178062.81606  25178059.95306
  24996652.67507  -1603809.27207  -1222488.79006  24996652.38206  24996650.91706
  24659558.06407  -2005589.34307  -1534746.26207  24659559.21707  24659556.85307
 07  1 15  1 18 30.0000000  0 10G08G09G18G29G10G28G26G17G21G27
  22228937.34609 -17239628.40409 -13392914.22509  22228937.72709  22228936.47709
  24272749.82407  -3966996.38607  -3066672.77106  24272750.94806  24272748.34006
  25027819.30007  -2420667.34707  -1841345.18405  25027817.28805  25027817.69805
  20498638.35509 -23723827.24909 -18433771.99109  20498638.30609  20498637.35809
  22460618.31609 -13449864.82409 -10447096.65409  22460619.39009  22460616.87009
  21121921.96709 -21780695.86409 -16922138.88909  21121921.39109  21121920.51209
  20469069.96809 -22843367.39809 -17766892.27109  20469070.22209  20469069.08909
  25159526.09807   -525183.02707   -359079.81506  25159526.83106  25159525.50206
  25003596.49007  -1567318.84307  -1194054.70606  25003595.80606  25003595.20006
  24675293.29008  -1922909.78508  -1470320.77407  24675293.91507  24675291.26807
 07  1 15  1 19  0.0000000  0 10G08G09G18G29G10G28G26G17G21G27
  22244236.65709 -17159231.47509 -13330267.27209  22244236.61809  22244235.04509
  24252303.69607  -4074443.05007  -3150397.43106  24252303.99806  24252302.16206
  25009813.15407  -2515285.33607  -1915073.51906  25009812.14706  25009811.72706
  20494058.12409 -23747896.28409 -18452527.08509  20494058.04609  20494057.25509
  22478522.59709 -13355777.98609 -10373782.25109  22478523.85709  22478521.08309
  21123867.11109 -21770473.55409 -16914173.44509  21123866.54509  21123865.92009
  20460743.73809 -22887121.22009 -17800986.15509  20460744.17809  20460743.06409
  25140986.73307   -622607.63907   -434995.05707  25140987.64207  25140986.57707
  25010624.72307  -1530382.72107  -1165273.30806  25010624.01906  25010624.07806
  24691032.00307  -1840192.51507  -1405865.67006  24691033.58606  24691031.69106
 07  1 15  1 19 30.0000000  0 10G08G09G18G29G10G28G26G17G21G27
  22259573.38109 -17078635.94609 -13267465.56509  22259573.95709  22259571.91509
  24231875.25707  -4181792.85507  -3234046.55006  24231876.23406  24231874.45606
  24991859.24907  -2609634.17007  -1988592.10706  24991858.05706  24991857.30506
  20489552.65109 -23771572.32309 -18470975.94809  20489552.69909  20489551.92809
  22496485.47909 -13261382.88009 -10300227.64609  22496486.37809  22496484.04309
  21125913.13409 -21759721.81609 -16905795.46309  21125912.46009  21125911.84409
  20452501.37009 -22930435.62709 -17834737.64109  20452501.61409  20452500.65709
  25122444.60407   -720049.74307   -510923.90507  25122446.04907  25122444.36907
  25017738.02907  -1493002.65207  -1136145.95606  25017737.07206  25017737.22806
  24706781.44308  -1757437.95408  -1341381.72308  24706782.21408  24706779.01008
 07  1 15  1 20  0.0000000  0 10G08G09G18G29G10G28G26G17G21G27
  22274947.51709 -16997843.35309 -13204510.30609  22274947.58609  22274946.38409
  24211466.51207  -4289045.28207  -3317619.78007  24211466.99107  24211464.80307
  24973956.82307  -2703711.64707  -2061899.23606  24973955.82706  24973955.26006
  20485122.20809 -23794854.56309 -18489117.95209  20485122.26709  20485121.39809
  22514506.51309 -13166682.44809 -10226435.11309  22514507.25509  22514504.68609
  21128059.71209 -21748441.56309 -16897005.65009  21128058.95009  21128058.55009
  20444342.90309 -22973309.40709 -17868145.78509  20444342.99109  20444342.12109
  25103898.50807   -817506.84207   -586864.49406  25103900.48206  25103898.67506
  25024935.12907  -1455180.82707  -1106674.42706  25024934.63106  25024934.26906
  24722534.96506  -1674647.12606  -1276869.37406  24722537.21106  24722533.66606
 07  1 15  1 20 30.0000000  0 10G08G09G18G29G10G28G26G17G21G27
  22290359.14509 -16916854.91809 -13141402.44309  22290359.67309  22290357.72909
  24191076.06308  -4396198.56308  -3401115.81007  24191076.22907  24191074.44107
  24956105.90607  -2797515.14807  -2134992.89406  24956105.44706  24956104.62706
  20480767.08109 -23817741.49909 -18506951.93109  20480766.98309  20480766.20209
  22532585.01409 -13071679.53209 -10152406.88609  22532585.70809  22532583.52909
  21130306.71009 -21736633.56309 -16887804.60509  21130305.96809  21130305.61609
  20436268.39509 -23015740.90509 -17901209.29609  20436268.61009  20436267.59409
  25085351.65107   -914975.99707   -662814.49007  25085351.86607  25085350.42007
  25032216.64707  -1416919.20007  -1076860.18806  25032215.25006  25032214.90806
  24738297.44508  -1591819.98408  -1212328.76807  24738298.36307  24738294.52407
 07  1 15  1 21  0.0000000  0 10G08G09G18G29G10G28G26G17G21G27
  22305807.63909 -16835671.91609 -13078142.97909  22305808.37209  22305806.50609
  24170703.88107  -4503251.85007  -3484533.89407  24170704.94607  24170702.98207
  24938308.44207  -2891042.13407  -2207871.10606  24938307.94406  24938307.37706
  20476487.32609 -23840231.98509 -18524476.98709  20476487.20909  20476486.45709
  22550720.56309 -12976376.66709 -10078144.92409  22550721.25609  22550719.04909
  21132654.02909 -21724298.23809 -16878192.65309  21132653.21809  21132652.94509
  20428278.48109 -23057728.42309 -17933926.83909  20428278.67709  20428277.67109
  25066801.12107  -1012454.04507   -738771.38007  25066802.85007  25066801.07207
  25039580.40507  -1378219.53507  -1046704.63306  25039579.34106  25039579.56506
  24754062.85507  -1508957.22907  -1147760.42807  24754067.07507  24754063.52907
 07  1 15  1 21 30.0000000  0  9G08G09G18G29G10G28G26G17G27
  22321293.12609 -16754295.83609 -13014733.07109  22321293.65409  22321291.87609
  24150351.73407  -4610204.16407  -3567873.31107  24150352.41807  24150350.37607
  24920564.28407  -2984290.05307  -2280531.82606  24920563.65906  24920562.68206
  20472283.03209 -23862325.00909 -18541692.33709  20472283.00309  20472282.19209
  22568912.42609 -12880776.65709 -10003651.42409  22568913.07109  22568910.81409
  21135101.51409 -21711436.69709 -16868170.66709  21135100.66409  21135100.37109
  20420373.07409 -23099270.77609 -17966297.50609  20420373.35809  20420372.39109
  25048251.64607  -1109938.31907   -814733.16306  25048251.26506  25048251.13806
  24769840.87608  -1426059.42408  -1083164.74107  24769839.88007  24769838.84507
 07  1 15  1 22  0.0000000  0  9G08G09G18G29G10G28G26G17G27
  22336814.89309 -16672727.74209 -12951173.52109  22336815.33209  22336813.75009
  24130018.48907  -4717054.52407  -3651133.26007  24130019.77807  24130017.49207
  24902873.28607  -3077255.63807  -2352972.50806  24902872.48506  24902872.03606
  20468154.79509 -23884019.22009 -18558596.92009  20468154.78609  20468153.88709
  22587160.43909 -12784882.36909  -9928928.61409  22587161.27909  22587158.72909
  21137649.04609 -21698049.56109 -16857739.12509  21137648.16709  21137647.77609
  20412553.00409 -23140366.19109 -17998319.91009  20412553.36609  20412552.21309
  25029699.89507  -1207425.74007   -890697.42807  25029701.29207  25029700.48107
  24785619.69907  -1343126.75207  -1018541.87307  24785622.61907  24785620.17707
 07  1 15  1 22 30.0000000  0  9G08G09G18G29G10G28G26G17G27
  22352373.05709 -16590968.75909 -12887465.24409  22352374.21909  22352371.87509
  24109705.19107  -4823801.92007  -3734312.99307  24109706.65607  24109704.45807
  24885236.38607  -3169936.67607  -2425191.50206  24885236.21006  24885235.68206
  20464102.61509 -23905313.41909 -18575189.80409  20464102.58609  20464101.74609
  22605464.11109 -12688696.26709  -9853978.42709  22605464.92209  22605462.61709
  21140296.31409 -21684137.57509 -16846898.60709  21140295.55209  21140295.10309
  20404818.05609 -23181013.11009 -18029992.83409  20404818.42709  20404817.35309
  25011149.48207  -1304913.56707   -966661.86307  25011150.33207  25011148.92507
  24801409.89208  -1260159.81608   -953892.40806  24801410.14606  24801408.67106
 07  1 15  1 23  0.0000000  0  9G08G09G18G29G10G28G26G17G27
  22367967.26609 -16509020.62609 -12823609.57309  22367967.46109  22367966.10309
  24089411.42907  -4930445.09107  -3817411.54807  24089413.04107  24089410.66707
  24867655.24307  -3262330.61307  -2497186.82906  24867654.03206  24867653.75806
  20460126.67809 -23926206.87409 -18591470.41909  20460126.76609  20460125.77909
  22623822.57509 -12592221.68809  -9778803.45109  22623823.13209  22623820.74809
  21143043.23009 -21669701.88809 -16835650.01009  21143042.56609  21143042.05809
  20397168.87409 -23221210.16509 -18061315.21509  20397169.27509  20397168.02509
  24992597.79907  -1402399.06107  -1042624.66807  24992599.05907  24992598.30707
  24817201.94007  -1177159.23207   -889216.57406  24817204.58806  24817203.76706
 07  1 15  1 23 30.0000000  0  9G08G09G18G29G10G28G26G17G27
  22383597.44209 -16426884.16509 -12759607.14909  22383598.14609  22383595.58609
  24069137.73207  -5036983.08307  -3900428.12307  24069139.20707  24069137.41007
  24850128.50107  -3354434.66407  -2568956.23306  24850127.02606  24850127.01606
  20456227.33409 -23946697.92809 -18607437.48009  20456227.46109  20456226.37709
  22642235.69309 -12495461.02109  -9703405.54709  22642236.60109  22642233.87609
  21145889.80309 -21654743.07209 -16823993.78509  21145889.08009  21145888.65009
  20389605.45009 -23260955.55909 -18092285.64809  20389605.95809  20389604.63909
  24974048.11907  -1499879.11507  -1118583.11308  24974050.16008  24974048.44108
  24833005.01808  -1094125.31408   -824514.94307  24833005.44807  24833004.29507
 07  1 15  1 24  0.0000000  0  9G08G09G18G29G10G28G26G17G27
  22399262.92209 -16344560.69209 -12695459.01009  22399263.56709  22399261.70109
  24048885.14508  -5143414.91308  -3983361.97007  24048886.19007  24048884.40207
  24832657.08707  -3446246.10607  -2640497.63206  24832656.52006  24832656.11906
  20452404.78009 -23966785.63709 -18623090.24509  20452404.84809  20452403.78409
  22660702.54709 -12398417.12209  -9627786.95909  22660703.01609  22660700.85709
  21148835.65209 -21639261.92809 -16811930.55409  21148835.12409  21148834.44109
  20382128.18209 -23300247.89709 -18122903.05109  20382128.85609  20382127.64509
  24955501.00708  -1597350.92408  -1194535.15307  24955501.31007  24955500.33307
  24848811.53407  -1011058.52107   -759787.56306  24848812.22706  24848811.48506
 07  1 15  1 24 30.0000000  0  9G08G09G18G29G10G28G26G17G27
  22414964.02709 -16262051.36309 -12631166.04109  22414964.16409  22414962.16109
  24028651.15707  -5249739.93707  -4066212.61807  24028652.75907  24028650.86307
  24815242.14408  -3537762.68608  -2711809.26006  24815241.27406  24815241.26406
  20448659.19109 -23986468.92109 -18638427.87209  20448659.22109  20448658.21409
  22679223.00009 -12301092.99609  -9551949.99409  22679223.36209  22679221.29109
  21151880.76809 -21623259.45309 -16799461.08809  21151880.27009  21151879.54709
  20374737.78509 -23339085.77409 -18153166.33309  20374738.07809  20374737.08209
  24936953.55407  -1694811.78907  -1270478.72407  24936954.56007  24936953.97407
  24864626.40108   -927959.71008   -695035.33607  24864626.11807  24864624.55507
 07  1 15  1 25  0.0000000  0  9G08G09G18G29G10G28G26G17G27
  22430700.02509 -16179357.75609 -12566729.47709  22430700.04409  22430698.39309
  24008438.97108  -5355956.65608  -4148978.85907  24008440.50507  24008438.37507
  24797883.88708  -3628981.60508  -2782888.94606  24797882.54906  24797882.76306
  20444990.85109 -24005746.50809 -18653449.37009  20444990.80209  20444989.81609
  22697795.46009 -12203491.41009  -9475896.83309  22697796.64209  22697794.75709
  21155025.09109 -21606736.40009 -16786585.97909  21155024.50509  21155023.73409
  20367433.91709 -23377467.58509 -18183074.24309  20367434.33709  20367433.26209
  24918411.00508  -1792258.64208  -1346411.27708  24918411.30808  24918410.47708
  24880443.39907   -844828.88507   -630258.12106  24880445.32306  24880444.51206
 07  1 15  1 25 30.0000000  0  9G08G09G18G29G10G28G26G17G27
  22446470.84709 -16096480.78409 -12502150.03709  22446471.38409  22446469.76209
  23988248.08108  -5462063.80208  -4231659.73907  23988248.98007  23988246.57707
  24780582.43308  -3719900.18908  -2853734.60806  24780580.98806  24780581.59306
  20441399.82809 -24024617.33409 -18668153.91709  20441399.85709  20441398.84109
  22716421.21709 -12105614.83409  -9399629.39109  22716421.41209  22716419.47809
  21158268.30109 -21589693.67509 -16773305.93209  21158267.51009  21158266.77709
  20360217.32009 -23415391.66509 -18212625.47709  20360217.60309  20360216.55809
  24899868.97307  -1889688.46007  -1422330.58407  24899871.08307  24899869.90107
  24896270.19408   -761666.33508   -565456.13607  24896270.01807  24896269.71507
 07  1 15  1 26  0.0000000  0  9G08G09G18G29G10G28G26G17G27
  22462276.56109 -16013421.62309 -12437428.64409  22462276.81509  22462275.40909
  23968076.69807  -5568060.83007  -4314254.81207  23968078.61307  23968075.69207
  24763338.43807  -3810516.27007  -2924344.55006  24763336.94306  24763337.84206
  20437886.42409 -24043080.36409 -18682540.70109  20437886.35609  20437885.56509
  22735097.78909 -12007466.55709  -9323150.23309  22735098.68809  22735096.63609
  21161610.08309 -21572132.25609 -16759621.70809  21161609.37009  21161608.79409
  20353087.91509 -23452856.91409 -18241819.18309  20353088.18809  20353087.18209
  24881334.13107  -1987098.67507  -1498234.66108  24881334.53208  24881333.86708
  24912100.61307   -678472.74607   -500630.06707  24912102.16607  24912100.50507
 07  1 15  1 26 30.0000000  0  9G08G09G18G29G10G28G26G17G27
  22478116.96409 -15930181.80709 -12372566.46209  22478116.95409  22478115.47909
  23947928.05708  -5673946.65508  -4396763.20207  23947929.02407  23947926.22007
  24746153.43308  -3900826.64608  -2994716.30306  24746151.65506  24746152.22206
  20434450.94309 -24061134.37209 -18696608.76509  20434450.85509  20434450.07409
  22753826.11409 -11909049.29609  -9246461.47409  22753826.92509  22753825.06909
  21165050.48709 -21554053.15309 -16745534.09109  21165049.57909  21165049.04209
  20346046.08409 -23489861.68309 -18270654.07309  20346046.47509  20346045.28309
  24862800.48107  -2084486.22907  -1574120.99307  24862802.77607  24862800.26607
  24927938.63207   -595248.76407   -435780.26206  24927939.19806  24927937.64506
 07  1 15  1 27  0.0000000  0  9G08G09G18G29G10G28G26G17G27
  22493991.19409 -15846762.60209 -12307564.50209  22493990.89209  22493989.77809
  23927799.20608  -5779719.77208  -4479183.79607  23927800.77807  23927798.26807
  24729026.56108  -3990828.76108  -3064847.80606  24729025.12506  24729025.78906
  20431093.43409 -24078778.25409 -18710357.25209  20431093.38509  20431092.56409
  22772604.79509 -11810365.59809  -9169565.10409  22772605.90909  22772602.91009
  21168589.12309 -21535457.35709 -16731043.85809  21168588.27309  21168587.71609
  20339092.29609 -23526404.28609 -18299128.83409  20339092.57009  20339091.51509
  24844274.46908  -2181847.82408  -1649987.16707  24844274.27407  24844274.11807
  24943780.49007   -511994.48607   -370906.80507  24943782.52207  24943780.46007
 07  1 15  1 27 30.0000000  0  9G08G09G18G29G10G28G26G17G27
  22509899.33109 -15763165.00809 -12242423.54509  22509899.33109  22509897.91509
  23907693.47608  -5885379.20808  -4561515.79407  23907694.67807  23907692.31407
  24711959.38308  -4080520.30808  -3134737.35906  24711957.50706  24711957.72206
  20427814.08109 -24096010.96209 -18723785.34109  20427814.15009  20427813.18309
  22791433.61709 -11711418.38909  -9092463.40409  22791434.88709  22791432.26909
  21172225.96009 -21516345.72609 -16716151.67609  21172225.12909  21172224.65109
  20332226.65809 -23562483.54409 -18327242.54709  20332226.97109  20332225.86709
  24825751.67207  -2279180.67107  -1725830.93708  24825753.52808  24825750.75308
  24959629.66407   -428710.73907   -306010.48207  24959631.55907  24959628.42407
 07  1 15  1 28  0.0000000  0  9G08G09G18G29G10G28G26G17G27
  22525841.16909 -15679390.02109 -12177144.35109  22525841.65709  22525839.86909
  23887608.63208  -5990924.29408  -4643758.65607  23887610.08807  23887607.54807
  24694950.88408  -4169898.48408  -3204382.70506  24694949.62406  24694949.29206
  20424613.31609 -24112831.34409 -18736892.13909  20424613.30609  20424612.37809
  22810312.99109 -11612210.44909  -9015158.55009  22810313.43109  22810310.69609
  21175960.88109 -21496719.23009 -16700858.30209  21175959.98309  21175959.40609
  20325449.49209 -23598097.76309 -18354993.89209  20325449.82509  20325448.73009
  24807236.63007  -2376482.39307  -1801650.39607  24807237.54807  24807234.89107
  24975482.66807   -345397.86807   -241091.34506  24975485.33506  24975482.32606
 07  1 15  1 28 30.0000000  0  9G08G09G18G29G10G28G26G17G27
  22541816.28709 -15595439.24009 -12111728.18609  22541816.86309  22541815.51509
  23867545.64908  -6096353.60608  -4725911.35507  23867547.52507  23867545.28807
  24678002.60708  -4258960.78608  -3273781.92906  24678002.06006  24678001.44506
  20421491.07909 -24129238.46509 -18749676.91209  20421491.17609  20421490.16009
  22829240.52309 -11512744.79609  -8937652.85409  22829241.39309  22829238.67709
  21179793.38009 -21476579.04309 -16685164.64309  21179792.42209  21179792.12009
  20318760.91709 -23633245.75009 -18382381.93309  20318761.52209  20318760.20309
  24788726.69707  -2473749.52207  -1877443.00607  24788728.25107  24788724.85107
  24991342.61707   -262056.51907   -176150.07307  24991344.96107  24991341.47407
 07  1 15  1 29  0.0000000  0  9G08G09G18G29G10G28G26G17G27
  22557824.70609 -15511313.68509 -12046175.82209  22557825.73209  22557823.83709
  23847505.84708  -6201666.00008  -4807972.95808  23847507.27308  23847504.96808
  24661115.21708  -4347704.52708  -3342932.91607  24661114.31807  24661114.18107
  20418447.87709 -24145230.95109 -18762138.59409  20418447.88709  20418446.89109
  22848216.57509 -11413024.15409  -8859948.48209  22848217.76709  22848214.99309
  21183723.61109 -21455925.75409 -16669071.16009  21183722.66309  21183722.37009
  20312161.66309 -23667925.66209 -18409405.24409  20312162.15109  20312160.92109
  24770225.07808  -2570979.11408  -1953206.22408  24770226.61108  24770223.53408
  25007207.06907   -178686.63407   -111186.56906  25007209.71606  25007206.03406
 07  1 15  1 29 30.0000000  0  9G08G09G18G29G10G28G26G17G27
  22573866.67009 -15427014.82209 -11980488.42809  22573867.18809  22573865.07809
  23827487.96508  -6306861.13108  -4889943.14208  23827489.17708  23827487.09608
  24644289.44608  -4436127.28008  -3411833.78407  24644287.69707  24644287.87307
  20415483.59509 -24160807.99809 -18774276.55709  20415483.63409  20415482.71609
  22867241.00009 -11313051.41509  -8782047.66509  22867241.74309  22867239.05609
  21187751.13609 -21434760.88909 -16652579.05209  21187750.23709  21187749.88509
  20305651.54609 -23702136.52909 -18436063.06509  20305652.03509  20305650.89209
  24751729.30907  -2668168.43907  -2028938.22907  24751731.21407  24751729.28007
  25023077.83207    -95288.72207    -46201.18307  25023079.25807  25023076.81607
 07  1 15  1 30  0.0000000  0  9G08G09G18G29G10G28G26G17G27
  22589940.86909 -15342543.73709 -11914666.82409  22589941.39709  22589939.54109
  23807492.88308  -6411937.24608  -4971820.61008  23807493.71308  23807491.79908
  24627524.37608  -4524226.44108  -3480482.50107  24627523.33007  24627523.30107
  20412598.75009 -24175968.56909 -18786089.99809  20412598.64209  20412597.78309
  22886312.46009 -11212829.42709  -8703952.62809  22886313.54409  22886310.92609
  21191875.77809 -21413085.46809 -16635689.10609  21191874.92809  21191874.63509
  20299231.01609 -23735876.76109 -18462354.15709  20299231.34809  20299230.35109
  24733244.26608  -2765314.26808  -2104636.25708  24733245.55608  24733243.30908
  25038953.52807    -11863.21407     18805.64007  25038955.42307  25038951.61307
 07  1 15  1 30 30.0000000  0  9G08G09G18G29G10G28G26G17G27
  22606047.68609 -15257901.23809 -11848711.67209  22606048.83809  22606046.59209
  23787519.68208  -6516893.24508  -5053604.47808  23787521.05908  23787518.92008
  24610821.56908  -4611999.22408  -3548876.88007  24610820.55307  24610820.49507
  20409793.30209 -24190711.48009 -18797577.98709  20409793.09709  20409792.34509
  22905431.16009 -11112360.86809  -8625665.46509  22905431.83409  22905429.32409
  21196097.42009 -21390900.25709 -16618401.92309  21196096.47309  21196096.33609
  20292900.27609 -23769145.06709 -18488277.51609  20292900.58909  20292899.60209
  24714765.99307  -2862413.88207  -2180298.25008  24714768.45508  24714765.40708
  25054834.13707     71589.22507     83833.51406  25054835.50406  25054832.14406
 07  1 15  1 31  0.0000000  0  9G08G09G18G29G10G28G26G17G27
  22622186.93309 -15173088.99709 -11782624.24109  22622187.50909  22622185.72209
  23767571.36108  -6621728.17708  -5135294.01608  23767571.52708  23767569.83708
  24594181.72007  -4699442.66007  -3617014.62107  24594180.75307  24594180.81207
  20407067.47609 -24205035.76909 -18808739.77609  20407067.29109  20407066.46009
  22924596.20109 -11011648.94909  -8547188.65809  22924596.89509  22924593.93509
  21200415.97509 -21368206.37709 -16600718.37609  21200414.95909  21200414.77309
  20286659.51309 -23801939.86809 -18513831.91009  20286659.98209  20286658.85909
  24696298.74808  -2959464.28608  -2255921.99408  24696298.12308  24696297.70308
  25070719.15207    155068.02107    148881.85907  25070721.31007  25070717.79407
 07  1 15  1 31 30.0000000  0  9G08G09G18G29G10G28G26G17G27
  22638358.63109 -15088108.20709 -11716405.47009  22638358.81709  22638357.01909
  23747644.25708  -6726441.68508  -5216888.93408  23747644.96008  23747643.37708
  24577604.58408  -4786554.88208  -3684894.28107  24577604.17407  24577603.78307
  20404421.50709 -24218940.29609 -18819574.47809  20404421.34109  20404420.51109
  22943806.13809 -10910696.15709  -8468524.17809  22943807.39809  22943805.25909
  21204831.10009 -21345005.14209 -16582639.49309  21204830.01609  21204829.78109
  20280509.32309 -23834259.84409 -18539016.31009  20280509.69509  20280508.50309
  24677839.46507  -3056463.01907  -2331505.42608  24677841.33108  24677839.10408
  25086610.23308    238572.96808    213950.56307  25086611.13107  25086609.12907
 07  1 15  1 32  0.0000000  0  9G08G09G18G29G10G28G26G17G27
  22654561.84209 -15002959.85209 -11650056.13009  22654563.20009  22654560.35709
  23727741.66108  -6831032.02408  -5298387.87608  23727742.38408  23727740.18608
  24561092.39907  -4873333.18307  -3752513.74807  24561090.79707  24561090.18107
  20401855.59109 -24232424.07009 -18830081.31909  20401855.57109  20401854.52609
  22963062.88509 -10809505.55309  -8389674.38709  22963063.10009  22963060.57009
  21209342.56209 -21321297.57509 -16564166.06409  21209341.47709  21209341.37009
  20274449.63809 -23866103.48209 -18563829.53309  20274450.06709  20274448.97309
  24659393.34008  -3153406.12108  -2407045.41308  24659393.34908  24659391.87408
  25102505.39706    322103.83406    279039.58306  25102506.74506  25102503.84306
 07  1 15  1 32 30.0000000  0  9G08G09G18G29G10G28G26G17G27
  22670796.62409 -14917645.22509 -11583577.22009  22670796.43909  22670795.35509
  23707862.02208  -6935498.18908  -5379790.05608  23707863.25308  23707861.02608
  24544642.25207  -4959775.03607  -3819871.04307  24544641.42207  24544641.00207
  20399370.00909 -24245486.11809 -18840259.53809  20399369.96109  20399369.01309
  22982363.21909 -10708079.89509  -8310641.42509  22982364.04909  22982361.66609
  21213949.94909 -21297085.00909 -16545299.12609  21213949.03009  21213948.78609
  20268481.01309 -23897469.55109 -18588270.62509  20268481.26709  20268480.20209
  24640955.06807  -3250291.03507  -2482540.23908  24640956.30808  24640955.88808
  25118405.93307    405660.27907    344148.37306  25118407.23306  25118403.83306
 07  1 15  1 33  0.0000000  0  9G08G09G18G29G10G28G26G17G27
  22687063.07609 -14832165.07509 -11516969.32409  22687063.91609  22687061.53309
  23688006.74508  -7039839.61808  -5461095.05008  23688008.12208  23688005.95408
  24528256.93907  -5045877.78207  -3886964.08907  24528256.33307  24528255.87407
  20396964.72409 -24258125.43009 -18850108.35409  20396964.77309  20396963.80609
  23001708.51609 -10606422.15809  -8231427.62509  23001708.40909  23001706.44509
  21218653.43709 -21272368.41709 -16526039.43209  21218652.39209  21218652.14809
  20262603.33209 -23928356.65109 -18612338.49509  20262603.62509  20262602.57009
  24622531.36108  -3347114.82108  -2557987.26708  24622532.14208  24622531.47808
  25134310.14306    489241.44106    409276.56306  25134312.19406  25134308.44306
 07  1 15  1 33 30.0000000  0  9G08G09G18G29G10G28G26G17G27
  22703360.08309 -14746520.92409 -11450233.65009  22703361.32409  22703359.19409
  23668175.09808  -7144054.63608  -5542301.52708  23668176.84608  23668174.57008
  24511937.45407  -5131638.64607  -3953790.74807  24511936.79007  24511935.83307
  20394640.32209 -24270341.04109 -18859627.00909  20394640.24409  20394639.31609
  23021096.64909 -10504535.11009  -8152035.12609  23021097.36209  23021095.30009
  21223452.63709 -21247148.62209 -16506387.63809  21223451.39609  21223451.36709
  20256817.04509 -23958763.45909 -18636032.10809  20256817.46509  20256816.33209
  24604118.38008  -3443874.58508  -2633384.49208  24604118.37008  24604118.59508
  25150220.40907    572847.23607    474423.89306  25150221.82606  25150217.44006
 07  1 15  1 34  0.0000000  0  9G08G09G18G29G10G28G26G17G27
  22719688.95509 -14660713.87009 -11383371.02009  22719689.22809  22719687.62609
  23648367.70608  -7248142.29908  -5623408.81508  23648369.74708  23648367.29508
  24495682.87107  -5217055.16507  -4020349.06307  24495682.72507  24495681.61107
  20392396.51809 -24282131.88809 -18868814.68009  20392396.57709  20392395.65909
  23040528.07409 -10402421.49209  -8072466.08609  23040528.29909  23040526.64809
  21228347.23509 -21221427.32909 -16486345.06509  21228345.96509  21228346.07209
  20251122.46309 -23988688.70809 -18659350.48109  20251122.86409  20251121.65209
  24585718.34208  -3540567.52408  -2708729.64308  24585718.72308  24585718.36108
  25166134.36807    656477.29707    539590.14306  25166135.41306  25166132.82406
 07  1 15  1 34 30.0000000  0  9G08G09G18G29G10G28G26G17G27
  22736048.25509 -14574744.94509 -11316382.26909  22736049.57409  22736046.50709
  23628585.28208  -7352101.49908  -5704415.97708  23628586.76608  23628583.97308
  24479495.25107  -5302124.81907  -4086637.09907  24479494.53807  24479493.34607
  20390233.79309 -24293496.91709 -18877670.54609  20390233.78309  20390232.98209
  23060002.19809 -10300084.24009  -7992722.77809  23060002.99909  23060000.80109
  21233337.10409 -21195205.63409 -16465912.56309  21233335.82409  21233335.77509
  20245519.80209 -24018130.85909 -18682292.41309  20245520.18309  20245518.99109
  24567331.52008  -3637190.19908  -2784019.98508  24567331.33508  24567332.26308
  25182052.72207    740131.11407    604774.89205  25182053.87505  25182051.14005
 07  1 15  1 35  0.0000000  0  9G08G09G18G29G10G28G26G17G27
  22752437.57409 -14488615.51709 -11249268.45309  22752438.84409  22752436.59709
  23608826.72208  -7455931.28708  -5785322.25808  23608828.29408  23608825.98908
  24463373.39107  -5386844.78707  -4152652.66307  24463372.77607  24463372.28707
  20388152.42809 -24304435.18209 -18886193.86909  20388152.28209  20388151.49009
  23079518.06109 -10197526.05709  -7912807.31609  23079518.48209  23079517.16309
  21238421.82409 -21168484.45509 -16445090.85309  21238420.75009  21238420.70109
  20240009.33509 -24047088.71009 -18704856.96909  20240009.68709  20240008.55409
  24548958.30608  -3733739.72408  -2859253.40908  24548958.42408  24548959.22508
  25197975.75507    823808.33507    669977.96506  25197976.80106  25197974.25106
 07  1 15  1 35 30.0000000  0  9G08G09G18G29G10G28G26G17G27
  22768858.49308 -14402326.61008 -11182030.34409  22768858.50309  22768856.08009
  23589093.57908  -7559630.36708  -5866126.71108  23589095.15208  23589092.74908
  24447318.51407  -5471212.79707  -4218393.95307  24447318.27907  24447317.75207
  20386152.27809 -24314945.64809 -18894383.84309  20386152.22909  20386151.39909
  23099075.60709 -10094749.85609  -7832721.96009  23099076.89709  23099074.27909
  21243601.44509 -21141265.02609 -16423880.89809  21243600.32109  21243600.44809
  20234591.21909 -24075560.92609 -18727043.10809  20234591.62009  20234590.48709
  24530601.07308  -3830213.08408  -2934427.41008  24530600.63408  24530601.07308
  25213904.16207    907508.76507    735199.03906  25213903.60506  25213901.58306
 07  1 15  1 36  0.0000000  0  9G08G09G18G29G10G28G26G17G27
  22785308.06309 -14315879.76309 -11114669.18509  22785310.17309  22785306.96009
  23569384.76008  -7663197.83408  -5946828.59008  23569386.80108  23569384.00808
  24431331.21407  -5555226.27107  -4283858.98507  24431331.19407  24431330.58907
  20384233.78209 -24325027.43809 -18902239.78509  20384233.75309  20384232.92309
  23118674.08208  -9991758.60308  -7752469.05409  23118675.20609  23118672.65609
  21248875.68209 -21113548.76209 -16402283.79909  21248874.59809  21248874.62709
  20229265.88309 -24103546.15409 -18748849.77409  20229266.21609  20229264.94609
  24512256.95908  -3926607.39308  -3009539.86308  24512257.16508  24512257.57508
  25229835.93807    991231.69607    800437.70806  25229835.54706  25229833.20306
 07  1 15  1 36 30.0000000  0  9G08G09G18G29G10G28G26G17G27
  22801788.84408 -14229275.67408 -11047185.50309  22801789.71309  22801786.75309
  23549702.43308  -7766632.60808  -6027427.06708  23549703.41908  23549701.24108
  24415412.01007  -5638882.60207  -4349045.72307  24415411.64807  24415411.03307
  20382397.06709 -24334679.50609 -18909760.87909  20382396.99909  20382396.19809
  23138313.11608  -9888555.08408  -7672050.75109  23138314.35709  23138311.29909
  21254244.23309 -21085336.87909 -16380300.50309  21254243.04209  21254243.19809
  20224033.26009 -24131043.11109 -18770275.97209  20224033.68009  20224032.50709
  24493929.14908  -4022919.54808  -3084588.31208  24493929.75508  24493929.83308
  25245770.37107   1074976.76307    865693.63506  25245772.47106  25245770.17506
 07  1 15  1 37  0.0000000  0  9G08G09G18G29G10G28G26G17G27
  22818298.22608 -14142515.65408 -10979580.31009  22818299.49609  22818297.41509
  23530044.61408  -7869933.74908  -6107921.42908  23530045.70808  23530043.40308
  24399561.39907  -5722179.63207  -4413952.47907  24399560.71507  24399560.01207
  20380642.24109 -24343900.97609 -18916946.44209  20380642.19209  20380641.35209
  23157991.58508  -9785142.34708  -7591469.40409  23157992.76709  23157990.54909
  21259706.87409 -21056630.68209 -16357932.03309  21259705.66309  21259705.73109
  20218893.91409 -24158050.59409 -18791320.76009  20218894.34409  20218893.25009
  24475618.35508  -4119146.76808  -3159570.52708  24475617.94508  24475618.08208
  25261712.34507   1158743.60407    930966.40406  25261713.45906  25261710.66506
 07  1 15  1 37 30.0000000  0  9G08G09G18G29G10G28G26G17G27
  22834837.93909 -14055600.55309 -10911854.28109  22834839.17909  22834836.73709
  23510413.23908  -7973099.96508  -6188310.66408  23510413.90308  23510411.63708
  24383779.93907  -5805114.07107  -4478576.70907  24383778.68907  24383778.23007
  20378969.52809 -24352690.95009 -18923795.77509  20378969.52809  20378968.62009
  23177709.81108  -9681523.13208  -7510727.16409  23177711.10009  23177708.69709
  21265263.30109 -21027431.44209 -16335179.37009  21265262.23609  21265262.01209
  20213847.96509 -24184567.24809 -18811983.08509  20213848.46309  20213847.31009
  24457323.16108  -4215285.88008  -3234484.13208  24457324.08008  24457323.41508
  25277657.10407   1242531.79707    996255.96206  25277657.18206  25277656.01906
 07  1 15  1 38  0.0000000  0  9G08G09G18G29G10G28G26G17G27
  22851406.47808 -13968531.86708 -10844008.56409  22851407.54309  22851405.60909
  23490806.55808  -8076130.25208  -6268593.97808  23490807.94508  23490805.55208
  24368066.98507  -5887683.96307  -4542916.87608  24368066.30208  24368065.28608
  20377379.17309 -24361048.33009 -18930308.02409  20377379.20209  20377378.17609
  23197466.94508  -9577700.19008  -7429826.20509  23197468.29309  23197464.92309
  21270913.31909 -20997740.39109 -16312043.48009  21270912.21509  21270912.24509
  20208895.73309 -24210591.73309 -18832261.91209  20208896.15309  20208895.14709
  24439046.76208  -4311333.36108  -3309326.27208  24439046.78208  24439046.41008
  25293604.52907   1326341.33707   1061562.12006  25293606.02306  25293604.60706
 07  1 15  1 38 30.0000000  0  8G08G09G18G29G10G28G26G17
  22868004.66509 -13881310.63409 -10776043.98609  22868005.35909  22868003.24909
  23471226.85808  -8179023.70308  -6348770.64208  23471228.19608  23471225.33408
  24352424.50108  -5969886.94708  -4606971.13707  24352423.61207  24352422.57607
  20375871.35109 -24368972.44709 -18936482.66409  20375871.31109  20375870.35409
  23217261.95108  -9473676.67908  -7348768.92809  23217263.02509  23217260.74909
  21276656.60609 -20967558.93409 -16288525.45809  21276655.69809  21276655.52209
  20204037.37609 -24236122.93309 -18852156.35409  20204037.80609  20204036.75109
  24420785.55308  -4407286.97008  -3384095.35808  24420785.96308  24420786.36308
 07  1 15  1 39  0.0000000  0  8G08G09G18G29G10G28G26G17
  22884631.01409 -13793937.75609 -10707961.24309  22884632.14709  22884630.35009
  23451673.18008  -8281778.89808  -6428839.59008  23451674.45008  23451671.88108
  24336852.30007  -6051720.23407  -4670737.34207  24336851.27407  24336850.37507
  20374445.93509 -24376462.38709 -18942318.98309  20374446.04209  20374445.16309
  23237095.19008  -9369455.32608  -7267557.51609  23237096.09909  23237092.77709
  21282493.07409 -20936888.29409 -16264626.25609  21282492.15609  21282491.80409
  20199273.13809 -24261159.68709 -18871665.51609  20199273.44109  20199272.47309
  24402546.37108  -4503143.47508  -3458788.72508  24402546.00908  24402545.68708
 07  1 15  1 39 30.0000000  0  8G08G09G18G29G10G28G26G17
  22901286.42409 -13706414.09009 -10639761.01009  22901287.03009  22901285.06609
  23432145.34108  -8384395.07008  -6508800.21308  23432147.09908  23432144.39308
  24321350.83207  -6133181.12507  -4734213.35107  24321349.70807  24321348.93707
  20373103.67709 -24383516.91809 -18947816.02309  20373103.60909  20373102.73909
  23256964.39708  -9265038.74308  -7186193.93909  23256965.33509  23256962.76609
  21288422.24409 -20905729.75909 -16240346.87309  21288421.38409  21288421.00309
  20194603.18409 -24285700.42709 -18890788.17609  20194603.52609  20194602.49009
  24384324.14708  -4598899.58508  -3533403.85908  24384324.08908  24384324.26408
 07  1 15  1 40  0.0000000  0  8G08G09G18G29G10G28G26G17
  22917969.88909 -13618741.63109 -10571444.82809  22917970.73909  22917968.56109
  23412645.28208  -8486870.88208  -6588651.43008  23412646.38608  23412643.66008
  24305920.60507  -6214267.18607  -4797397.28907  24305919.27607  24305918.67107
  20371844.22609 -24390135.38809 -18952973.27709  20371844.22609  20371843.39609
  23276871.38809  -9160430.00609  -7104680.67409  23276872.56009  23276869.59009
  21294444.02809 -20874084.84709 -16215688.49509  21294443.28609  21294442.81709
  20190027.77909 -24309744.07209 -18909523.48709  20190028.18909  20190027.15309
  24366123.31608  -4694552.25608  -3607938.43608  24366121.77308  24366122.49608
 07  1 15  1 40 30.0000000  0  8G08G09G18G29G10G28G26G17
  22934681.63409 -13530920.94109 -10503013.16309  22934682.33709  22934680.64709
  23393171.49108  -8589205.30508  -6668392.49908  23393173.07308  23393170.58208
  24290561.48208  -6294976.09708  -4860287.33507  24290561.07207  24290560.63207
  20370667.91509 -24396316.95309 -18957790.08909  20370667.87609  20370667.13309
  23296813.74008  -9055631.90408  -7023019.80709  23296814.56109  23296811.68909
  21300558.20209 -20841954.65609 -16190651.98109  21300557.49909  21300556.97109
  20185547.27309 -24333289.65109 -18927870.69309  20185547.52709  20185546.46309
  24347939.49208  -4790098.68608  -3682390.20008  24347940.89908  24347939.91208
 07  1 15  1 41  0.0000000  0  8G08G09G18G29G10G28G26G17
  22951421.47209 -13442953.09309 -10434466.81109  22951422.33209  22951420.11409
  23373725.28508  -8691397.36508  -6748022.64208  23373726.25208  23373723.99608
  24275275.49508  -6375305.17608  -4922881.42607  24275275.02607  24275274.64507
  20369574.98609 -24402060.58109 -18962265.65009  20369574.89809  20369574.06809
  23316791.71808  -8950647.28008  -6941213.63109  23316792.88109  23316790.38009
  21306764.45309 -20809340.86709 -16165238.63709  21306763.76909  21306763.11509
  20181161.57109 -24356335.69709 -18945828.65209  20181161.93209  20181160.91609
  24329779.86408  -4885535.83808  -3756756.75608  24329778.98508  24329779.24908
 07  1 15  1 41 30.0000000  0  8G08G09G18G29G10G28G26G17
  22968189.06309 -13354839.50409 -10365806.89709  22968189.91209  22968187.63609
  23354305.68908  -8793446.08308  -6827541.09508  23354306.90008  23354304.97608
  24260061.95108  -6455252.23908  -4985177.83207  24260061.12107  24260061.21907
  20368565.38209 -24407365.67109 -18966399.49309  20368565.35309  20368564.49309
  23336804.55008  -8845479.32608  -6859264.59109  23336805.67309  23336802.64509
  21313062.35109 -20776245.04009 -16139449.68209  21313061.53109  21313061.05209
  20176871.30509 -24378881.36409 -18963396.70909  20176871.68609  20176870.56309
  24311638.68907  -4980860.86007  -3831036.07608  24311639.63708  24311638.70908
 07  1 15  1 42  0.0000000  0  8G08G09G18G29G10G28G26G17
  22984983.96609 -13266581.09209 -10297034.12809  22984984.07309  22984982.59809
  23334914.30408  -8895350.17008  -6906946.84808  23334915.21308  23334913.14208
  24244922.19808  -6534814.06708  -5047174.06807  24244920.77107  24244920.99607
  20367639.41509 -24412230.96509 -18970190.63309  20367639.52209  20367638.65309
  23356851.22908  -8740130.68708  -6777174.74609  23356853.26109  23356850.43809
  21319451.93609 -20742667.85909 -16113285.64309  21319451.04709  21319450.74409
  20172676.53509 -24400925.17909 -18980573.70609  20172676.90709  20172675.83209
  24293522.75508  -5076070.13308  -3905225.02909  24293523.03909  24293521.63209
 07  1 15  1 42 30.0000000  0  8G08G09G18G29G10G28G26G17
  23001806.31809 -13178178.89409 -10228149.31709  23001806.89409  23001804.98909
  23315550.33908  -8997109.07108  -6986239.47808  23315551.01308  23315549.27408
  24229855.50208  -6613989.28808  -5108869.03807  24229854.34907  24229854.20307
  20366797.54409 -24416656.03709 -18973638.74609  20366797.43709  20366796.52809
  23376932.90809  -8634604.48809  -6694946.56709  23376933.53409  23376930.64209
  21325932.66909 -20708611.44609 -16086748.17309  21325931.67309  21325931.47709
  20168577.55509 -24422466.09009 -18997358.83709  20168577.78909  20168576.71509
  24275425.97807  -5171161.11407  -3979321.98708  24275425.78208  24275426.30008
 07  1 15  1 43  0.0000000  0  8G08G09G18G29G10G28G26G17
  23018655.73809 -13089633.70209 -10159153.10309  23018656.73509  23018654.75209
  23296213.97008  -9098720.98608  -7065417.56008  23296214.98608  23296213.07108
  24214863.52508  -6692775.18708  -5170260.64707  24214862.05007  24214861.89407
  20366039.33009 -24420639.71509 -18976742.91509  20366039.35009  20366038.48009
  23397046.75508  -8528903.21908  -6612581.91209  23397048.50409  23397045.47509
  21332504.33709 -20674077.24009 -16059838.39909  21332503.27209  21332503.22309
  20164574.41209 -24443502.75409 -19013751.04609  20164574.69609  20164573.60209
  24257355.34008  -5266130.72908  -4053324.23709  24257356.00409  24257354.52009
 07  1 15  1 43 30.0000000  0  8G08G09G18G29G10G28G26G17
  23035532.71509 -13000946.82009 -10090046.47209  23035532.53909  23035531.20109
  23276905.80208  -9200185.29208  -7144480.63908  23276906.71008  23276905.18608
  24199945.07508  -6771168.77508  -5231346.56707  24199944.28307  24199943.96107
  20365365.42709 -24424181.25509 -18979502.56309  20365365.40809  20365364.60709
  23417194.11708  -8423029.79308  -6530083.18409  23417195.75809  23417192.55409
  21339166.88009 -20639066.13709 -16032557.01709  21339165.65909  21339165.67809
  20160667.40109 -24464034.12009 -19029749.52109  20160667.67409  20160666.71709
  24239306.84808  -5360975.63708  -4127229.34108  24239306.59408  24239305.54808
 07  1 15  1 44  0.0000000  0  8G08G09G18G29G10G28G26G17
  23052435.64709 -12912119.16209 -10020830.13309  23052436.62409  23052434.28909
  23257626.35308  -9301500.49708  -7223427.51508  23257627.20308  23257625.33708
  24185103.13108  -6849168.00608  -5292125.19207  24185101.47007  24185101.27507
  20364775.69909 -24427279.96809 -18981917.14909  20364775.72809  20364774.95609
  23437373.25608  -8316987.09008  -6447452.49309  23437374.06709  23437371.35109
  21345919.66309 -20603579.69809 -16004905.23509  21345918.43209  21345918.56909
  20156856.78309 -24484059.18009 -19045353.46609  20156857.03709  20156856.08009
  24221282.37508  -5455692.86208  -4201034.99708  24221282.06308  24221281.26208
 07  1 15  1 44 30.0000000  0  8G08G09G18G29G10G28G26G17
  23069365.63709 -12823152.00009  -9951505.10409  23069365.99909  23069364.55309
  23238375.18408  -9402665.52908  -7302257.36908  23238376.00408  23238374.65608
  24170335.37708  -6926770.00608  -5352594.27507  24170334.21507  24170333.92207
  20364270.66209 -24429934.93409 -18983985.96109  20364270.57409  20364269.74409
  23457583.83008  -8210777.94708  -6364692.14309  23457586.00809  23457583.11609
  21352762.54109 -20567619.33509 -15976884.16709  21352761.52509  21352761.51509
  20153142.57109 -24503576.72709 -19060561.94809  20153142.97109  20153141.79909
  24203283.23308  -5550279.07308  -4274738.50608  24203283.87808  24203281.58208
 07  1 15  1 45  0.0000000  0  8G08G09G18G29G10G28G26G17
  23086322.11909 -12734046.63509  -9882072.36309  23086322.04109  23086320.56609
  23219152.95808  -9503679.59508  -7380969.57708  23219154.00408  23219151.97208
  24155644.64808  -7003972.45108  -5412752.02907  24155642.69507  24155642.71407
  20363850.01509 -24432145.43809 -18985708.43809  20363849.92709  20363849.09709
  23477826.29708  -8104405.23308  -6281804.30909  23477827.31309  23477824.50009
  21359695.51209 -20531186.68609 -15948495.08509  21359694.45809  21359694.31109
  20149525.31009 -24522585.76009 -19075374.18409  20149525.69109  20149524.52809
  24185309.42008  -5644731.58508  -4348337.90108  24185309.33208  24185308.73608
 07  1 15  1 45 30.0000000  0  8G08G09G18G29G10G28G26G17
  23103304.12708 -12644804.02008  -9812532.69809  23103304.33209  23103302.89609
  23199959.73508  -9604541.28108  -7459563.05008  23199960.32108  23199958.72908
  24141029.79008  -7080772.66108  -5472596.35007  24141027.45607  24141028.27607
  20363514.04009 -24433910.63609 -18987083.92309  20363513.97209  20363513.19009
  23498098.39208  -7997871.86308  -6198791.29909  23498100.62909  23498097.69809
  21366717.80609 -20494283.31409 -15919739.20809  21366716.99609  21366716.78109
  20146004.95109 -24541085.18609 -19089789.32409  20146005.29309  20146004.22809
  24167361.79608  -5739047.08108  -4421830.45908  24167361.57108  24167360.46708
 07  1 15  1 46  0.0000000  0  8G08G09G18G29G10G28G26G17
  23120312.07809 -12555425.11909  -9742886.82809  23120312.50809  23120311.49209
  23180795.39708  -9705249.81608  -7538037.17908  23180795.99308  23180794.60608
  24126492.10308  -7157168.90008  -5532125.88507  24126490.16907  24126490.70607
  20363262.92409 -24435229.79309 -18988111.84209  20363262.98209  20363262.20109
  23518401.68708  -7891180.60408  -6115655.26309  23518402.76209  23518399.54809
  21373829.67709 -20456910.50909 -15890617.54009  21373828.82709  21373828.48509
  20142581.91509 -24559073.75109 -19103806.38809  20142582.17909  20142581.12409
  24149439.75508  -5833222.70108  -4495214.09408  24149439.71608  24149440.02908
 07  1 15  1 46 30.0000000  0  8G08G09G18G29G10G28G26G17
  23137346.40508 -12465911.09308  -9673135.65909  23137346.77609  23137345.27209
  23161660.42308  -9805804.07308  -7616391.10908  23161661.40008  23161659.74908
  24112031.70308  -7233158.49508  -5591338.55907  24112030.06207  24112030.36507
  20363097.02709 -24436102.23709 -18988791.67309  20363096.96809  20363096.16709
  23538733.37908  -7784334.57708  -6032398.62109  23538735.04009  23538732.02109
  21381030.40109 -20419069.98909 -15861131.41909  21381029.74609  21381029.25809
  20139256.16309 -24576550.58309 -19117424.70209  20139256.52409  20139255.48909
  24131546.58008  -5927255.30008  -4568486.23708  24131547.12708  24131545.69108
 07  1 15  1 47  0.0000000  0  8G08G09G18G29G10G28G26G17
  23154405.89508 -12376262.59708  -9603279.71109  23154406.23709  23154405.23109
  23142555.23308  -9906202.75408  -7694623.82308  23142555.98508  23142554.56908
  24097649.11808  -7308739.11408  -5650232.54407  24097647.59507  24097648.06307
  20363016.14409 -24436527.02309 -18989122.67809  20363016.10509  20363015.22609
  23559094.97208  -7677336.40308  -5949023.44208  23559095.79308  23559092.75508
  21388319.83109 -20380763.29909 -15831282.05009  21388319.23509  21388318.74709
  20136028.01609 -24593514.40209 -19130643.26609  20136028.35809  20136027.48909
  24113680.32707  -6021142.25607  -4641644.93408  24113680.49308  24113679.42908
 07  1 15  1 47 30.0000000  0  8G08G09G18G29G10G28G26G17
  23171491.17408 -12286480.78608  -9533319.87609  23171491.41809  23171489.56209
  23123479.65108 -10006444.82508  -7772734.47808  23123480.75508  23123478.70308
  24083345.14008  -7383908.27608  -5708805.91907  24083343.51907  24083343.70407
  20363020.35509 -24436503.48809 -18989104.34409  20363020.63809  20363019.72909
  23579483.16508  -7570189.10408  -5865532.03408  23579485.50908  23579483.00808
  21395698.03709 -20341991.99609 -15801070.64109  21395697.03109  21395696.50309
  20132897.79809 -24609964.32809 -19143461.40209  20132898.15009  20132897.20209
  24095842.75408  -6114880.16008  -4714687.44308  24095843.11608  24095841.77708
 07  1 15  1 48  0.0000000  0  8G08G09G18G29G10G28G26G17
  23188601.14709 -12196566.69009  -9463256.98309  23188602.03609  23188599.76009
  23104434.22408 -10106529.12908  -7850722.24408  23104434.96608  23104433.32508
  24069119.29908  -7458663.71608  -5767056.90407  24069118.29307  24069118.44007
  20363110.64409 -24436030.93109 -18988736.12509  20363110.60509  20363109.74509
  23599901.45408  -7462895.24408  -5781926.46008  23599902.65508  23599900.02808
  21403163.91509 -20302757.72609 -15770498.48309  21403162.96709  21403162.77209
  20129865.52809 -24625899.40509 -19155878.35109  20129865.76209  20129864.73709
  24078033.61708  -6208465.91008  -4787611.39808  24078034.42808  24078033.51908
 07  1 15  1 48 30.0000000  0  8G08G09G18G29G10G28G26G17
  23205735.94208 -12106521.94208  -9393092.26209  23205736.76209  23205735.06309
  23085419.09808 -10206454.75308  -7928586.35008  23085419.82108  23085417.95608
  24054973.20808  -7533002.75308  -5824983.43007  24054972.20207  24054972.06507
  20363286.11409 -24435108.67009 -18988017.48309  20363286.07509  20363285.25409
  23620345.92208  -7355457.95908  -5698209.09308  23620347.62208  23620344.24208
  21410717.94209 -20263061.73209 -15739566.54009  21410716.78009  21410716.91609
  20126931.32309 -24641318.54709 -19167893.27009  20126931.60609  20126930.50209
  24060255.16208  -6301896.28008  -4860414.28909  24060255.32809  24060254.92809
 07  1 15  1 49  0.0000000  0  8G08G09G18G29G10G28G26G17
  23222895.92909 -12016346.96909  -9322826.08209  23222896.37909  23222894.61009
  23066434.01108 -10306220.49808  -8006325.87008  23066434.93908  23066433.23908
  24040906.66008  -7606923.28908  -5882583.81807  24040905.56607  24040905.26407
  20363547.35009 -24433735.95409 -18986947.84209  20363547.32109  20363546.45209
  23640817.30208  -7247879.94308  -5614382.09108  23640818.80708  23640816.00308
  21418359.41609 -20222906.02909 -15708276.37509  21418358.13709  21418358.31309
  20124095.37809 -24656220.81009 -19179505.42509  20124095.86609  20124094.62609
  24042505.77808  -6395168.50208  -4933093.92008  24042505.78808  24042504.90908
 07  1 15  1 49 30.0000000  0  8G08G09G18G29G10G28G26G17
  23240079.83908 -11926042.93508  -9252459.30109  23240081.21709  23240078.99009
  23047480.22108 -10405825.22308  -8083939.91409  23047480.47509  23047479.12709
  24026920.01908  -7680423.05408  -5939856.35107  24026918.62207  24026918.69007
  20363894.41209 -24431912.01009 -18985526.59409  20363894.41209  20363893.55309
  23661315.40908  -7140164.20608  -5530447.76108  23661316.47408  23661313.64108
  21426088.11309 -20182291.67509 -15676628.82409  21426086.89209  21426087.03809
  20121358.21109 -24670605.19809 -19190714.04209  20121358.55309  20121357.43009
  24024787.45808  -6488279.40008  -5005647.90509  24024786.95009  24024787.30209
 07  1 15  1 50  0.0000000  0  8G08G09G18G29G10G28G26G17
  23257288.92308 -11835610.60908  -9181992.57809  23257289.42109  23257286.91109
  23028556.77208 -10505268.17408  -8161427.90209  23028557.36809  23028556.15709
  24013014.55208  -7753499.09508  -5996798.72107  24013012.78407  24013012.86207
  20364327.39709 -24429636.20109 -18983753.24209  20364327.42609  20364326.63509
  23681837.93708  -7032313.58408  -5446408.32408  23681840.02708  23681837.24308
  21433903.79709 -20141220.30509 -15644625.15309  21433902.41009  21433902.92809
  20118719.71509 -24684470.60909 -19201518.26209  20118720.05709  20118718.98209
  24007099.96708  -6581225.73108  -5078073.57408  24007100.53308  24007099.07808
 07  1 15  1 50 30.0000000  0  8G08G09G18G29G10G28G26G17
  23274521.28408 -11745051.58708  -9111427.12009  23274522.37909  23274520.59109
  23009664.47508 -10604547.60308  -8238788.47209  23009665.15909  23009663.65409
  23999188.83508  -7826149.80208  -6053409.64907  23999188.19107  23999187.85907
  20364846.63709 -24426907.89709 -18981627.29609  20364846.67609  20364845.75809
  23702387.41508  -6924330.71708  -5362265.84908  23702388.17708  23702385.29508
  21441806.07809 -20099693.80409 -15612266.83909  21441804.69109  21441805.08209
  20116180.26109 -24697816.08009 -19211917.33509  20116180.50509  20116179.49909
  23989445.30708  -6674004.42808  -5150368.65509  23989445.08209  23989444.71109
 07  1 15  1 51  0.0000000  0  8G08G09G18G29G10G28G26G17
  23291778.34108 -11654366.85608  -9040763.72409  23291779.70809  23291776.89509
  22990803.44608 -10703662.59808  -8316020.92809  22990803.92509  22990803.15309
  23985445.19208  -7898372.68108  -6109687.20307  23985444.78207  23985444.24507
  20365452.16109 -24423726.36209 -18979148.18109  20365452.11209  20365451.19409
  23722960.01608  -6816218.70708  -5278022.74008  23722961.05108  23722958.82408
  21449794.53609 -20057713.82009 -15579555.15609  21449793.31509  21449793.51009
  20113739.72209 -24710640.82809 -19221910.65009  20113740.00509  20113738.98909
  23971821.90608  -6766612.58008  -5222530.85208  23971822.77608  23971820.45108
 07  1 15  1 51 30.0000000  0  8G08G09G18G29G10G28G26G17
  23309058.62608 -11563556.85108  -8970002.69609  23309059.60309  23309057.82509
  22971974.30108 -10802612.11908  -8393124.45009  22971974.66309  22971973.14909
  23971784.30808  -7970165.10608  -6165629.34007  23971782.64707  23971782.43207
  20366143.83309 -24420090.91709 -18976315.37109  20366143.89109  20366143.01209
  23743557.27208  -6707980.07208  -5193680.96808  23743558.40508  23743555.62108
  21457868.89709 -20015281.72509 -15546491.18809  21457867.99909  21457868.11609
  20111398.59609 -24722943.82009 -19231497.40509  20111398.75209  20111397.88309
  23954232.95908  -6859046.92508  -5294557.59009  23954233.22209  23954231.78609
 07  1 15  1 52  0.0000000  0  8G08G09G18G29G10G28G26G17
  23326363.25408 -11472622.68908  -8899144.91009  23326364.09409  23326361.83809
  22953176.07408 -10901395.40708  -8470098.41209  22953176.96309  22953175.05809
  23958204.90108  -8041525.00708  -6221234.45307  23958203.25007  23958203.03507
  20366922.09109 -24416001.06309 -18973128.47709  20366922.15009  20366921.28109
  23764178.19608  -6599618.02808  -5109243.02308  23764178.65608  23764176.30108
  21466029.19109 -19972399.31709 -15513076.32509  21466028.33209  21466028.10709
  20109156.69709 -24734724.28509 -19240676.99209  20109157.06809  20109156.16009
  23936676.06108  -6951304.80108  -5366446.86709  23936676.48109  23936675.45609
 07  1 15  1 52 30.0000000  0  8G08G09G18G29G10G28G26G17
  23343690.80908 -11381565.09808  -8828190.98009  23343691.91309  23343689.90109
  22934409.99408 -11000010.92108  -8546941.66209  22934410.77509  22934408.89009
  23944708.40908  -8112449.77008  -6276500.48607  23944706.81607  23944706.64107
  20367787.11309 -24411456.09709 -18969586.95009  20367787.06409  20367786.27309
  23784820.56308  -6491135.22508  -5024710.94808  23784821.91108  23784819.99608
  21474274.85209 -19929068.05509 -15479311.70609  21474273.92409  21474273.67009
  20107014.74909 -24745981.00009 -19249448.46409  20107014.94409  20107014.07509
  23919154.63308  -7043382.49308  -5438195.69009  23919155.22909  23919153.33409
 07  1 15  1 53  0.0000000  0  8G08G09G18G29G10G28G26G17
  23361041.37808 -11290385.85208  -8757142.20609  23361041.91509  23361040.19609
  22915676.49208 -11098457.45908  -8623653.21809  22915677.30209  22915675.31909
  23931295.10408  -8182937.42108  -6331425.91307  23931293.38507  23931293.32607
  20368738.64409 -24406455.37309 -18965690.28509  20368738.66409  20368737.89209
  23805487.39908  -6382534.59508  -4940087.12508  23805488.43508  23805485.87508
  21482605.43809 -19885289.71709 -15445198.71309  21482604.57909  21482604.11009
  20104972.33109 -24756713.31009 -19257811.30509  20104972.70209  20104971.71509
  23901667.42308  -7135277.48208  -5509802.18609  23901667.56009  23901666.82709
 07  1 15  1 53 30.0000000  0  8G08G09G18G29G10G28G26G17
  23378415.65508 -11199085.37808  -8685999.01709  23378417.24709  23378414.69809
  22896974.65808 -11196734.24108  -8700232.49109  22896976.13409  22896973.84809
  23917965.31008  -8252985.50508  -6386008.82708  23917963.96208  23917963.71708
  20369777.20209 -24400998.22009 -18961437.96009  20369777.04609  20369776.31309
  23826175.50108  -6273818.96508  -4855373.63908  23826175.75508  23826173.51808
  21491021.09809 -19841065.93309 -15410738.62009  21491020.24809  21491019.53509
  20103029.97109 -24766920.43609 -19265764.91009  20103030.34209  20103029.37509
  23884215.85908  -7226986.53708  -5581263.80809  23884216.28809  23884214.81309
 07  1 15  1 54  0.0000000  0  8G08G09G18G29G10G28G26G17
  23395812.26308 -11107665.01808  -8614762.37609  23395813.35709  23395811.15909
  22878305.52008 -11294840.01708  -8776678.51209  22878307.00509  22878305.13009
  23904719.05508  -8322591.88208  -6440247.54008  23904718.40008  23904718.12708
  20370902.55209 -24395084.01609 -18956829.49209  20370902.50309  20370901.77009
  23846884.47908  -6164991.07708  -4770572.68808  23846885.34808  23846882.99408
  21499520.92309 -19796398.53409 -15375932.85109  21499520.06309  21499519.47709
  20101187.85409 -24776601.31609 -19273308.45109  20101188.17609  20101187.13109
  23866800.02708  -7318506.34508  -5652577.90309  23866800.96509  23866798.47409
 07  1 15  1 54 30.0000000  0  8G08G09G18G29G10G28G26G17
  23413231.77708 -11016125.83008  -8543433.17108  23413232.36308  23413229.95108
  22859669.62408 -11392773.64408  -8852990.38709  22859670.63009  22859669.13609
  23891557.65808  -8391754.39608  -6494140.39208  23891557.48208  23891556.71008
  20372114.92909 -24388712.43609 -18951864.62409  20372114.98709  20372114.10809
  23867614.63408  -6056053.85708  -4685686.52308  23867614.85908  23867612.83708
  21508104.73609 -19751289.24509 -15340782.74409  21508104.02309  21508103.59309
  20099445.95109 -24785755.11709 -19280441.28209  20099446.30309  20099445.17009
  23849421.24708  -7409834.01708  -5723742.33609  23849420.68009  23849420.34809
 07  1 15  1 55  0.0000000  0  8G08G09G18G29G10G28G26G17
  23430672.78208 -10924468.40108  -8472011.78709  23430674.85309  23430672.30409
  22841066.61808 -11490533.83308  -8929167.13009  22841067.46809  22841065.90509
  23878481.88108  -8460470.69208  -6547685.54908  23878480.83608  23878480.43508
  20373414.61509 -24381882.70809 -18946542.76109  20373414.66409  20373413.83409
  23888364.70708  -5947010.25508  -4600717.47608  23888365.70308  23888363.93508
  21516772.98709 -19705739.58209 -15305289.49409  21516771.75609  21516771.47309
  20097804.62409 -24794381.05609 -19287162.79209  20097804.77109  20097803.65709
  23832079.18608  -7500966.42208  -5794754.60809  23832079.79109  23832077.46609
 07  1 15  1 55 30.0000000  0  8G08G09G18G29G10G28G26G17
  23448138.27708 -10832694.04408  -8400499.36108  23448138.40408  23448135.35608
  22822497.05908 -11588119.46308  -9005207.86409  22822497.46909  22822495.74009
  23865490.50308  -8528738.32908  -6600881.10408  23865489.80008  23865489.44808
  20374801.72009 -24374594.28209 -18940863.46509  20374801.64109  20374800.74309
  23909135.46908  -5837862.95508  -4515667.64808  23909136.00708  23909132.91008
  21525524.16209 -19659751.17509 -15269454.36309  21525522.99009  21525523.00009
  20096263.53109 -24802478.23409 -19293472.27809  20096263.93109  20096262.83709
  23814775.62208  -7591900.31308  -5865612.17009  23814775.02609  23814774.18609
 07  1 15  1 56  0.0000000  0  8G08G09G18G29G10G28G26G17
  23465623.44508 -10740803.57608  -8328896.38108  23465623.98208  23465622.66308
  22803960.17508 -11685529.76508  -9081111.98709  22803960.60509  22803959.22809
  23852585.17508  -8596555.32108  -6653725.48508  23852584.43308  23852584.40408
  20376275.84109 -24366846.66209 -18934826.35609  20376275.94809  20376275.00109
  23929923.62008  -5728614.90508  -4430539.26208  23929924.12708  23929922.81808
  21534358.52509 -19613325.78809 -15233278.72609  21534357.41209  21534357.55809
  20094823.41409 -24810046.09609 -19299369.30809  20094823.82409  20094822.65209
  23797509.32508  -7682632.93508  -5936312.93909  23797509.61809  23797508.15309
 07  1 15  1 56 30.0000000  0  8G08G09G18G29G10G28G26G17
  23483132.26208 -10648797.96808  -8257203.73708  23483133.24908  23483129.58508
  22785457.16808 -11782763.56908  -9156878.57809  22785457.98909  22785455.98609
  23839766.81608  -8663919.38808  -6706216.95308  23839765.54608  23839765.41908
  20377837.76009 -24358639.23509 -18928430.95909  20377837.80009  20377836.86209
  23950731.63908  -5619268.78508  -4345334.48908  23950733.37708  23950730.54508
  21543275.79309 -19566465.18009 -15196763.95009  21543274.78709  21543274.73809
  20093484.19409 -24817083.62409 -19304853.09509  20093484.52609  20093483.57909
  23780282.92208  -7773161.21308  -6006854.40609  23780282.72709  23780281.51609
 07  1 15  1 57  0.0000000  0  8G08G09G18G29G10G28G26G17
  23500660.92908 -10556678.13308  -8185422.07108  23500662.06208  23500660.87008
  22766988.18508 -11879819.64608  -9232506.67909  22766988.88809  22766986.89509
  23827033.88108  -8730828.42608  -6758353.83908  23827033.12908  23827032.78708
  20379487.01009 -24349971.72809 -18921677.05409  20379487.16609  20379486.12109
  23971557.45608  -5509827.33908  -4260055.44708  23971558.62808  23971556.57708
  21552275.55509 -19519171.18309 -15159911.47509  21552274.53909  21552274.69509
  20092246.13609 -24823590.25409 -19309923.19609  20092246.43909  20092245.46209
  23763094.83108  -7863481.96308  -6077234.22909  23763094.21609  23763094.47009
 07  1 15  1 57 30.0000000  0  8G08G09G18G29G10G28G26G17
  23518213.62608 -10464445.18708  -8113552.23808  23518213.63608  23518210.89108
  22748553.02908 -11976696.53408  -9307995.13509  22748553.80109  22748551.78909
  23814388.91008  -8797280.24408  -6810134.46508  23814387.84608  23814387.38708
  20381224.11609 -24340843.39009 -18914564.06209  20381224.28209  20381223.16909
  23992401.66708  -5400293.41308  -4174704.32608  23992403.06408  23992400.51408
  21561357.43009 -19471445.47909 -15122722.60009  21561356.39409  21561356.59009
  20091109.25009 -24829565.11009 -19314578.92609  20091109.44509  20091108.52709
  23745947.99208  -7953591.94408  -6147449.79509  23745947.60109  23745947.27909
 07  1 15  1 58  0.0000000  0  8G08G09G18G29G10G28G26G17
  23535785.44908 -10372100.39308  -8041595.30508  23535786.48508  23535784.86308
  22730151.87808 -12073393.60708  -9383343.47509  22730152.18109  22730150.68609
  23801831.09408  -8863272.29508  -6861556.81808  23801830.02908  23801829.73608
  20383049.07009 -24331253.73709 -18907091.60609  20383049.08909  20383048.05409
  24013262.46508  -5290669.81108  -4089283.33208  24013263.08008  24013260.66708
  21570521.15409 -19423289.87009 -15085198.74409  21570520.09909  21570520.17709
  20090073.55409 -24835007.42909 -19318819.69509  20090073.82809  20090072.83109
  23728840.99808  -8043488.13408  -6217498.77409  23728841.24209  23728840.14809
 07  1 15  1 58 30.0000000  0  8G08G09G18G29G10G28G26G17
  23553379.84808 -10279643.93308  -7969551.29608  23553379.56408  23553377.90408
  22711785.57009 -12169909.52809  -9458550.66109  22711786.46909  22711784.63209
  23789361.12408  -8928802.59008  -6912619.36808  23789360.07908  23789359.82508
  20384961.62609 -24321202.20609 -18899259.24609  20384961.77309  20384960.87409
  24034138.85308  -5180959.31208  -4003794.62608  24034140.96308  24034137.93508
  21579766.32809 -19374705.90809 -15047341.10809  21579765.44909  21579765.34109
  20089139.42109 -24839916.32609 -19322644.80809  20089139.71409  20089138.72709
  23711775.65708  -8133167.71908  -6287378.94309  23711775.21709  23711774.37709
 07  1 15  1 59  0.0000000  0  8G08G09G18G29G10G28G26G17
  23570994.30108 -10187077.06808  -7897421.30608  23570995.29708  23570993.85108
  22693453.78409 -12266243.10909  -9533615.75409  22693455.11209  22693453.05109
  23776979.03208  -8993869.29708  -6963320.67208  23776978.60208  23776977.92808
  20386962.45009 -24310688.51809 -18891066.76509  20386962.47009  20386961.55209
  24055032.55108  -5071164.82808  -3918240.50208  24055033.82108  24055030.99808
  21589092.63809 -19325695.71409 -15009151.34509  21589091.65109  21589091.55309
  20088306.85009 -24844291.24809 -19326053.83709  20088307.21109  20088306.11709
  23694751.47008  -8222627.42508  -6357087.80309  23694751.98809  23694750.71809
 07  1 15  1 59 30.0000000  0  8G08G09G18G29G10G28G26G17
  23588629.87308 -10094400.76608  -7825206.04708  23588631.39708  23588628.78808
  22675157.55509 -12362393.13909  -9608537.83309  22675157.73009  22675156.61709
  23764685.85108  -9058470.05408  -7013658.91208  23764685.20608  23764684.88408
  20389051.23909 -24299712.16209 -18882513.76509  20389051.20009  20389050.42809
  24075941.47808  -4961289.21908  -3832623.12408  24075942.42508  24075939.75808
  21598499.69309 -19276260.53109 -14970630.42309  21598498.83409  21598498.69709
  20087576.08509 -24848131.55509 -19329046.28309  20087576.43609  20087575.32309
  23677770.73308  -8311864.41908  -6426623.09609  23677770.60609  23677769.62909
 07  1 15  2  0  0.0000000  0  8G08G09G18G29G10G28G26G17
  23606286.45708 -10001615.76708  -7752906.06908  23606287.16008  23606285.51908
  22656896.02309 -12458358.36509  -9683315.92409  22656896.59909  22656894.93809
  23752482.00208  -9122602.63608  -7063632.33508  23752480.98608  23752481.12308
  20391228.22709 -24288272.59009 -18873599.81809  20391228.06009  20391227.23009
  24096865.38908  -4851335.32108  -3746944.79308  24096865.68208  24096863.03508
  21607987.47509 -19226402.43409 -14931779.95509  21607986.42009  21607986.31309
  20086947.06809 -24851436.51809 -19331621.57909  20086947.54609  20086946.42309
  23660831.85308  -8400875.22308  -6495982.16709  23660832.14609  23660831.13009
 07  1 15  2  0 30.0000000  0  8G08G09G18G29G10G28G26G17
  23623962.88008  -9908723.38208  -7680522.42708  23623964.39408  23623962.04008
  22638669.69609 -12554138.19309  -9757949.53509  22638670.35109  22638668.73909
  23740367.53508  -9186265.14808  -7113239.46208  23740366.56808  23740366.75308
  20393493.11009 -24276369.47409 -18864324.66409  20393493.17909  20393492.27009
  24117803.22107  -4741305.77707  -3661207.45108  24117803.65108  24117800.48608
  21617555.44609 -19176123.30709 -14892601.41209  21617554.22409  21617554.10709
  20086420.20809 -24854205.40409 -19333779.15209  20086420.59909  20086419.53409
  23643937.63508  -8489656.80408  -6565162.60309  23643938.68009  23643937.01009
 07  1 15  2  1  0.0000000  0  8G08G09G18G29G10G28G26G17
  23641660.60908  -9815724.26008  -7608055.61108  23641661.55608  23641659.38808
  22620478.73109 -12649730.81009  -9832437.26809  22620479.59109  22620477.55009
  23728342.70208  -9249455.20408  -7162478.45008  23728341.90108  23728341.70508
  20395846.58409 -24264002.28709 -18854687.90009  20395846.58409  20395845.53809
  24138754.41608  -4631203.48008  -3575413.49408  24138755.67608  24138752.89208
  21627203.01909 -19125424.94609 -14853096.19409  21627201.76809  21627201.72909
  20085995.45909 -24856437.58009 -19335518.51009  20085995.78109  20085994.76509
  23627087.24708  -8578206.32908  -6634162.23209  23627087.68709  23627086.36809
 07  1 15  2  1 30.0000000  0  8G08G09G18G29G10G28G26G17
  23659377.34708  -9722619.19508  -7535506.19108  23659379.45708  23659376.83908
  22602323.71409 -12745135.50609  -9906778.56809  22602324.50609  22602322.81609
  23716408.85208  -9312170.95108  -7211347.85809  23716407.52409  23716407.05509
  20398288.36309 -24251170.64509 -18844689.21909  20398288.42209  20398287.25909
  24159720.74108  -4521031.04908  -3489564.81908  24159720.81008  24159716.91208
  21636930.05809 -19074309.13609 -14813265.68409  21636928.71009  21636928.92509
  20085672.92509 -24858132.51209 -19336839.23809  20085673.17909  20085672.23209
  23610281.45308  -8666520.68308  -6702978.60509  23610282.20509  23610280.61209
 07  1 15  2  2  0.0000000  0  8G08G09G18G29G10G28G26G17
  23677115.37008  -9629409.41608  -7462875.26508  23677116.92308  23677113.94408
  22584204.67409 -12840350.96409  -9980972.42209  22584205.41709  22584203.58009
  23704564.92008  -9374410.13208  -7259845.90609  23704563.86509  23704563.62109
  20400818.41009 -24237874.18309 -18834328.33909  20400818.69409  20400817.58009
  24180697.46107  -4410791.34107  -3403663.78308  24180699.63908  24180695.78108
  21646736.30009 -19022777.72709 -14773111.32909  21646734.88309  21646734.93209
  20085452.69609 -24859289.48709 -19337740.77909  20085453.05809  20085452.15909
  23593521.28608  -8754596.55508  -6771609.14309  23593521.80409  23593520.69009
 07  1 15  2  2 30.0000000  0  8G08G09G18G29G10G28G26G17
  23694872.51008  -9536095.84708  -7390163.37808  23694873.05708  23694870.91808
  22566122.02209 -12935376.37809 -10055018.18409  22566122.70509  22566120.92809
  23692812.27508  -9436170.79108  -7307971.08609  23692811.04409  23692810.74109
  20403437.20409 -24224112.48109 -18823604.93609  20403437.44809  20403436.31509
  24201687.88607  -4300487.23907  -3317712.52207  24201688.57907  24201685.43407
  21656621.08909 -18970832.21609 -14732634.29809  21656619.76109  21656620.02409
  20085335.14309 -24859907.92809 -19338222.68609  20085335.31909  20085334.41109
  23576806.52308  -8842431.12408  -6840051.66609  23576806.49409  23576806.33809
 07  1 15  2  3  0.0000000  0  8G08G09G18G29G10G28G26G17
  23712648.72808  -9442679.63308  -7317371.58508  23712650.87708  23712648.10308
  22548075.75609 -13030210.35909 -10128914.78609  22548076.53809  22548074.44709
  23681151.24708  -9497451.05408  -7355721.92409  23681149.82109  23681149.53709
  20406144.57709 -24209885.24709 -18812518.78509  20406144.76209  20406143.68809
  24222688.80207  -4190121.65207  -3231713.34307  24222691.03907  24222687.08207
  21666584.06509 -18918474.79009 -14691836.29509  21666583.07809  21666583.14709
  20085320.02209 -24859987.28709 -19338284.53209  20085320.23709  20085319.39709
  23560138.50208  -8930021.29408  -6908303.75809  23560139.66409  23560137.92609
 07  1 15  2  3 30.0000000  0  8G08G09G18G29G10G28G26G17
  23730444.59008  -9349161.20908  -7244500.08208  23730445.60608  23730443.75008
  22530066.07409 -13124851.61509 -10202661.17909  22530066.93309  22530065.35109
  23669581.35808  -9558248.63708  -7403096.64609  23669580.03009  23669580.13709
  20408940.70509 -24195192.02909 -18801069.52709  20408940.86209  20408939.75809
  24243703.42308  -4079697.34408  -3145668.46107  24243703.72507  24243700.18907
  21676625.51009 -18865707.02509 -14650718.55209  21676624.45509  21676624.42609
  20085407.67409 -24859526.92809 -19337925.81309  20085407.89909  20085406.88309
  23543518.17008  -9017364.15408  -6976363.09009  23543519.07909  23543517.42809
 07  1 15  2  4  0.0000000  0  8G08G09G18G29G10G28G26G17
  23748260.65308  -9255541.70708  -7171549.82408  23748261.57108  23748259.22708
  22512093.31509 -13219299.28009 -10276256.72709  22512093.70609  22512092.31909
  23658104.39609  -9618561.59009  -7450093.73809  23658103.06809  23658103.01909
  20411825.40409 -24180032.51509 -18789256.92409  20411825.64909  20411824.47609
  24264726.50307  -3969216.90507  -3059579.77107  24264727.40207  24264724.22707
  21686744.51709 -18812531.01209 -14609282.69309  21686743.34409  21686743.25609
  20085598.08009 -24858526.33609 -19337146.13309  20085598.36309  20085597.36709
  23526944.60008  -9104456.39008  -7044227.18609  23526944.61009  23526943.88709
 07  1 15  2  4 30.0000000  0  8G08G09G18G29G10G28G26G17
  23766094.20108  -9161821.87808  -7098521.44808  23766096.51708  23766093.07808
  22494157.58909 -13313551.97609 -10349700.35909  22494158.17609  22494157.04209
  23646719.79508  -9678387.69908  -7496711.48109  23646718.69109  23646718.75009
  20414798.98609 -24164406.38109 -18777080.72009  20414799.18109  20414797.96009
  24285760.07507  -3858683.10807  -2973449.54507  24285761.57907  24285758.27707
  21696940.73309 -18758948.34609 -14567529.96109  21696939.93209  21696939.69709
  20085891.38609 -24856984.86209 -19335944.98709  20085891.71809  20085890.65309
  23510420.19408  -9191294.97708  -7111893.60609  23510420.85809  23510419.62709
 07  1 15  2  5  0.0000000  0  8G08G09G18G29G10G28G26G17
  23783947.90208  -9068002.72908  -7025415.61308  23783947.77508  23783946.87708
  22476259.30609 -13407608.50709 -10422991.16009  22476259.45209  22476258.56309
  23635428.04208  -9737725.25908  -7542948.53909  23635427.01609  23635427.10409
  20417861.35309 -24148313.32209 -18764540.67809  20417861.59709  20417860.36609
  24306803.34607  -3748098.68607  -2887279.87607  24306804.92907  24306801.85207
  21707214.20709 -18704961.12109 -14525461.99209  21707213.42509  21707213.01509
  20086287.75909 -24854902.08009 -19334322.04209  20086288.04209  20086287.07509
  23493943.86808  -9277877.20608  -7179360.25809  23493944.64009  23493942.73509
 07  1 15  2  5 30.0000000  0  8G08G09G18G29G10G28G26G17
  23801819.97708  -8974085.26508  -6952233.21808  23801821.33508  23801818.20908
  22458398.61109 -13501467.71309 -10496128.19409  22458399.03109  22458397.83909
  23624229.91908  -9796572.19708  -7588803.29309  23624228.98209  23624228.96209
  20421012.77809 -24131752.94909 -18751636.49209  20421012.93409  20421011.71309
  24327856.16207  -3637466.31007  -2801072.80407  24327857.23607  24327854.25707
  21717564.33409 -18650571.16009 -14483080.21109  21717563.45509  21717563.11309
  20086787.19809 -24852277.47009 -19332276.89109  20086787.54009  20086786.53409
  23477517.23408  -9364199.43708  -7246624.32109  23477517.14609  23477517.10709
 07  1 15  2  6  0.0000000  0  8G08G09G18G29G10G28G26G17
  23819709.73308  -8880070.60108  -6878975.06708  23819710.89608  23819709.00108
  22440575.56309 -13595128.58709 -10569110.68509  22440575.92509  22440574.70409
  23613125.52508  -9854926.50208  -7634274.17409  23613124.71409  23613123.97209
  20424252.99809 -24114725.12509 -18738368.06009  20424253.16409  20424252.00209
  24348917.89608  -3526789.11308  -2714830.80807  24348917.93507  24348915.85407
  21727990.75209 -18595780.29809 -14440386.03509  21727989.43409  21727989.63909
  20087389.80109 -24849110.67809 -19329809.26509  20087390.12309  20087389.23509
  23461141.11309  -9450259.03009  -7313683.74009  23461141.01509  23461139.98909
 07  1 15  2  6 30.0000000  0  8G08G09G18G29G10G28G26G17
  23837619.92508  -8785959.27408  -6805641.58808  23837619.88608  23837617.30708
  22422790.50509 -13688589.74709 -10641937.54909  22422790.62209  22422789.56709
  23602114.84809  -9912786.35409  -7679359.76409  23602114.22309  23602113.75409
  20427582.40409 -24097229.40809 -18724735.03709  20427582.56009  20427581.40809
  24369986.17507  -3416069.67607  -2628555.91007  24369987.37607  24369984.86607
  21738493.23709 -18540590.33109 -14397380.86409  21738491.87009  21738492.06509
  20088095.73509 -24845400.95509 -19326918.57609  20088096.10609  20088095.10009
  23444815.10308  -9536052.82808  -7380536.05509  23444815.24009  23444814.68309
 07  1 15  2  7  0.0000000  0  8G08G09G18G29G10G28G26G17
  23855545.31608  -8691752.04308  -6732233.39308  23855547.16208  23855544.87608
  22405043.38709 -13781850.62409 -10714608.33809  22405043.69009  22405042.40109
  23591199.16009  -9970149.95209  -7724058.66409  23591198.23209  23591197.99709
  20431000.61409 -24079265.66309 -18710737.31809  20431000.99509  20430999.72609
  24391062.78608  -3305311.07608  -2542250.50707  24391063.53807  24391062.06307
  21749071.24209 -18485003.22309 -14354066.23109  21749069.78609  21749069.89409
  20088905.03809 -24841148.10109 -19323604.66909  20088905.37009  20088904.40309
  23428540.29009  -9621577.92609  -7447178.96209  23428540.07509  23428539.53809
 07  1 15  2  7 30.0000000  0  8G08G09G18G29G10G28G26G17
  23873491.75808  -8597449.61608  -6658751.01508  23873491.93408  23873489.42308
  22387334.98209 -13874909.11209 -10787121.41509  22387335.23609  22387333.86809
  23580378.24408 -10027015.04408  -7768369.12209  23580376.82809  23580376.90609
  20434508.25509 -24060833.47709 -18696374.57909  20434508.46909  20434507.27809
  24412146.57707  -3194515.48507  -2455916.25407  24412147.63207  24412145.24907
  21759724.41409 -18429020.75609 -14310443.52709  21759722.85109  21759723.43709
  20089817.72009 -24836351.36309 -19319866.95309  20089818.16909  20089817.08509
  23412317.09308  -9706831.16108  -7513610.06209  23412316.79009  23412316.76109
 07  1 15  2  8  0.0000000  0  8G08G09G18G29G10G28G26G17
  23891453.26308  -8503053.04508  -6585195.26208  23891455.01108  23891452.58908
  22369664.99609 -13967764.61909 -10859476.34009  22369665.46509  22369663.86309
  23569652.15008 -10083379.83508  -7812289.73509  23569651.32009  23569650.91009
  20438104.98309 -24041932.72309 -18681646.72109  20438105.15809  20438104.02509
  24433237.72408  -3083685.71708  -2369555.41907  24433237.73407  24433235.43807
  21770452.46109 -18372644.97209 -14266514.33909  21770450.66409  21770451.34809
  20090834.13209 -24831010.52109 -19315705.26409  20090834.49409  20090833.44809
  23396146.03908  -9791809.33408  -7579826.79809  23396145.93209  23396145.46309
 07  1 15  2  8 30.0000000  0  8G08G09G18G29G10G28G26G17
  23909435.17408  -8408563.50308  -6511567.09008  23909434.87108  23909432.70208
  22352034.09309 -14060416.19309 -10931672.35809  22352034.42509  22352032.66709
  23559022.08008 -10139242.41008  -7855819.01509  23559020.89809  23559020.84009
  20441791.02309 -24022563.17909 -18666553.57209  20441791.08209  20441789.91009
  24454332.97307  -2972824.65907  -2283170.16907  24454334.32107  24454331.64507
  21781254.88509 -18315877.75509 -14222280.13809  21781253.13709  21781253.74209
  20091954.08009 -24825125.16509 -19311119.27609  20091954.46109  20091953.36709
  23380028.13609  -9876509.73909  -7645827.08809  23380027.45209  23380027.49109
 07  1 15  2  9  0.0000000  0  8G08G09G18G29G10G28G26G17
  23927432.56807  -8313982.01007  -6437867.19508  23927433.82808  23927431.46408
  22334442.08809 -14152862.46509 -11003708.41709  22334442.67409  22334440.52509
  23548487.42808 -10194601.31108  -7898955.80809  23548486.52909  23548486.31509
  20445566.16109 -24002724.66309 -18651094.99009  20445566.23009  20445565.05809
  24475434.28907  -2861935.24307  -2196762.81607  24475435.37307  24475433.87907
  21792131.34409 -18258720.85009 -14177742.28509  21792130.08409  21792130.21109
  20093177.82709 -24818694.94609 -19306108.71709  20093178.08109  20093177.08509
  23363963.61709  -9960929.23209  -7711608.49709  23363964.02709  23363963.60709
 07  1 15  2  9 30.0000000  0  8G08G09G18G29G10G28G26G17
  23945448.06308  -8219308.75808  -6364095.88508  23945449.24508  23945447.05708
  22316889.26409 -14245102.00409 -11075583.38509  22316890.06509  22316887.84709
  23538049.34609 -10249454.05409  -7941698.20609  23538048.48709  23538048.17409
  20449430.57309 -23982416.74809 -18635270.64209  20449430.72009  20449429.79209
  24496541.87607  -2751019.99807  -2110335.33007  24496542.47207  24496539.64907
  21803081.60309 -18201176.30209 -14132902.37609  21803080.38209  21803080.41109
  20094505.23709 -24811719.31709 -19300673.16609  20094505.48109  20094504.40709
  23347953.03908 -10045064.64608  -7777168.55309  23347952.61909  23347952.15009
 07  1 15  2 10  0.0000000  0  8G08G09G18G29G10G28G26G17
  23963480.32008  -8124545.07608  -6290254.03508  23963482.18608  23963479.97808
  22299376.39309 -14337133.76309 -11147296.44509  22299376.65609  22299375.19109
  23527707.95208 -10303798.80908  -7984044.76409  23527706.67309  23527706.54609
  20453384.40509 -23961639.49909 -18619080.57709  20453384.42409  20453383.48709
  24517651.89507  -2640081.83507  -2023890.04607  24517653.32107  24517650.75207
  21814105.21309 -18143246.12409 -14087761.98009  21814104.11909  21814104.18709
  20095936.57309 -24804198.08309 -19294812.47309  20095936.73909  20095935.85009
  23331997.32109 -10128913.23209  -7842505.11709  23331997.02809  23331997.27209
 07  1 15  2 10 30.0000000  0  8G08G09G18G29G10G28G26G17
  23981531.60708  -8029691.73808  -6216342.41508  23981532.69108  23981529.99508
  22281902.97609 -14428956.67109 -11218846.75709  22281903.82609  22281901.55009
  23517463.42208 -10357633.86708  -8025994.16009  23517462.18109  23517462.21009
  20457427.54909 -23940392.63209 -18602524.58209  20457427.60809  20457426.70909
  24538767.63908  -2529123.25008  -1937428.80507  24538767.87307  24538765.83207
  21825202.01709 -18084931.99009 -14042322.39909  21825200.95309  21825200.83509
  20097471.62909 -24796130.98309 -19288526.42209  20097471.87309  20097470.83809
  23316096.59809 -10212471.86709  -7907615.74209  23316096.95009  23316095.63109
 07  1 15  2 11  0.0000000  0  8G08G09G18G29G10G28G26G17
  23999598.11208  -7934749.79408  -6142361.65507  23999598.49307  23999597.49707
  22264469.64909 -14520569.32609 -11290233.21909  22264470.14709  22264468.72109
  23507316.18508 -10410958.12408  -8067545.52609  23507314.81709  23507314.99309
  20461560.20109 -23918676.18109 -18585602.67809  20461560.08409  20461559.23409
  24559885.55107  -2418147.11707  -1850953.91307  24559886.17607  24559883.16707
  21836371.52809 -18026236.13209 -13996585.37109  21836370.58109  21836370.08309
  20099110.63109 -24787517.60309 -19281814.70009  20099110.88509  20099109.91809
  23300251.68309 -10295737.64609  -7972498.17609  23300251.44809  23300251.91709
 07  1 15  2 11 30.0000000  0  8G08G09G18G29G10G28G26G17
  24017682.48408  -7839719.56408  -6068312.16508  24017682.90408  24017681.59508
  22247076.74409 -14611970.57709 -11361454.96009  22247077.51509  22247075.83509
  23497266.41708 -10463769.14408  -8108696.97008  23497265.07808  23497265.47908
  20465782.05909 -23896489.72909 -18568314.53309  20465782.02009  20465781.14009
  24581006.35408  -2307156.10208  -1764467.38606  24581006.25706  24581004.87006
  21847613.54009 -17967160.23109 -13950552.20409  21847612.24109  21847611.88909
  20100853.82309 -24778357.38509 -19274676.86909  20100854.00909  20100853.12009
  23284463.12109 -10378707.33209  -8037149.87409  23284463.49309  23284462.78909
 07  1 15  2 12  0.0000000  0  8G08G09G18G29G10G28G26G17
  24035782.51508  -7744602.07108  -5994194.68608  24035783.83408  24035781.92908
  22229723.92809 -14703159.59409 -11432511.31909  22229724.54309  22229723.19509
  23487315.04608 -10516065.14708  -8149447.10909  23487313.38509  23487313.58009
  20470093.46309 -23873833.19709 -18550660.09109  20470093.42409  20470092.52509
  24602129.35608  -2196152.64108  -1677971.19407  24602130.66507  24602127.61707
  21858927.11609 -17907706.25809 -13904224.42309  21858925.61109  21858925.63109
  20102700.94109 -24768650.29009 -19267112.89909  20102701.21509  20102700.22809
  23268731.41209 -10461378.08609  -8101568.61409  23268731.43209  23268731.29509
 07  1 15  2 12 30.0000000  0  8G08G09G18G29G10G28G26G17
  24053899.28908  -7649398.71808  -5920010.28408  24053899.49408  24053898.93708
  22212411.88509 -14794135.24909 -11503401.42209  22212412.48109  22212410.99609
  23477461.61308 -10567844.58508  -8189794.72708  23477460.50908  23477460.46008
  20474494.36609 -23850706.60009 -18532639.36609  20474494.23909  20474493.45709
  24623254.58508  -2085139.77508  -1591467.65607  24623255.11207  24623253.71507
  21870312.37209 -17847876.30909 -13857603.68009  21870310.81909  21870310.89709
  20104652.22009 -24758395.92809 -19259122.48809  20104652.50309  20104651.55609
  23253057.28709 -10543746.81509  -8165752.03609  23253056.97509  23253056.99409
 07  1 15  2 13  0.0000000  0  8G08G09G18G29G10G28G26G17
  24072032.36608  -7554109.82808  -5845759.23208  24072032.72708  24072031.78908
  22195140.59709 -14884895.88009 -11574123.96309  22195141.31009  22195139.81509
  23467706.87008 -10619105.67708  -8229738.42408  23467706.10808  23467705.58108
  20478984.58109 -23827109.81709 -18514252.25809  20478984.55109  20478983.79909
  24644381.23007  -1974120.19407  -1504958.87507  24644381.91407  24644379.60807
  21881768.71209 -17787672.22409 -13810691.39609  21881767.49109  21881767.48209
  20106707.77709 -24747594.29309 -19250705.63109  20106707.98209  20106706.96609
  23237441.16809 -10625810.56709  -8229697.83909  23237440.98209  23237440.75709
 07  1 15  2 13 30.0000000  0  8G08G09G18G29G10G28G26G17
  24090181.20908  -7458736.34808  -5771442.27108  24090181.36508  24090181.14108
  22177910.53109 -14975440.29409 -11644678.02609  22177911.25309  22177909.56309
  23458051.24808 -10669846.43708  -8269276.67208  23458050.22208  23458049.89008
  20483564.46009 -23803042.67509 -18495498.64109  20483564.38209  20483563.68809
  24665506.90807  -1863096.41607  -1418446.88807  24665509.15507  24665506.58507
  21893296.04009 -17727095.84409 -13763489.01209  21893294.75109  21893294.39909
  20108867.41509 -24736244.97109 -19241862.00509  20108867.69909  20108866.68309
  23221883.60909 -10707566.45109  -8293403.72209  23221883.48209  23221883.28709
 07  1 15  2 14  0.0000000  0  8G08G09G18G29G10G28G26G17
  24108346.26808  -7363279.00008  -5697059.91908  24108346.97208  24108345.74108
  22160721.75609 -15065767.59109 -11715062.91509  22160722.47809  22160720.86709
  23448494.43308 -10720065.46108  -8308408.38508  23448493.93508  23448493.54408
  20488233.80809 -23778505.10509 -18476378.45609  20488233.70109  20488233.08509
  24686635.93608  -1752071.03908  -1331933.56507  24686635.94607  24686633.56307
  21904893.65209 -17666149.35309 -13715998.23309  21904892.50909  21904892.07909
  20111131.36109 -24724347.66409 -19232591.37709  20111131.67409  20111130.62909
  23206384.89609 -10789011.27109  -8356867.20909  23206384.71109  23206384.49609
 07  1 15  2 14 30.0000000  0  8G08G09G18G29G10G28G26G17
  24126527.08408  -7267738.88508  -5622613.09307  24126527.69907  24126525.99907
  22143574.78909 -15155876.52409 -11785277.65309  22143575.49309  22143573.67609
  23439038.22308 -10769761.02008  -8347132.18908  23439037.19708  23439036.63008
  20492992.69309 -23753497.13309 -18456891.72509  20492992.54709  20492991.88309
  24707763.21607  -1641046.76507  -1245421.15206  24707763.93906  24707760.68606
  21916561.33209 -17604834.47809 -13668220.40109  21916560.43309  21916559.79809
  20113499.77109 -24711902.22109 -19222893.62609  20113499.98509  20113498.94009
  23190946.26809 -10870142.21409  -8420086.10909  23190946.46409  23190945.66309
 07  1 15  2 15  0.0000000  0  8G08G09G18G29G10G28G26G17
  24144723.16708  -7172116.70808  -5548102.30607  24144724.33907  24144721.79007
  22126469.31909 -15245765.82709 -11855321.23809  22126470.09109  22126468.21609
  23429681.30808 -10818931.33008  -8385446.70808  23429680.10708  23429679.99008
  20497841.04809 -23728018.61209 -18437038.33309  20497840.96909  20497840.19809
  24728889.00207  -1530026.57507  -1158911.86107  24728889.44107  24728887.50707
  21928299.11009 -17543153.09309 -13620156.97609  21928297.91809  21928297.23509
  20115972.26209 -24698908.43109 -19212768.59209  20115972.57509  20115971.62709
  23175567.72609 -10950956.28909  -8483058.10609  23175568.02909  23175566.75909
 07  1 15  2 15 30.0000000  0  8G08G09G18G29G10G28G26G17
  24162935.50508  -7076413.19108  -5473528.15507  24162935.89607  24162932.99507
  22109406.01009 -15335434.39109 -11925192.81809  22109406.75209  22109404.69109
  23420424.87208 -10867574.96208  -8423350.83408  23420423.90508  23420423.43608
  20502778.85109 -23702069.55509 -18416818.28709  20502778.88009  20502778.05009
  24750013.60507  -1419013.05607  -1072407.84406  24750015.18806  24750011.90606
  21940105.63809 -17481107.57809 -13571809.81909  21940104.84709  21940104.36909
  20118549.31509 -24685366.31409 -19202216.28809  20118549.55909  20118548.63109
  23160250.44109 -11031450.37609  -8545780.76409  23160250.14809  23160249.99209
 07  1 15  2 16  0.0000000  0  8G08G09G18G29G10G28G26G17
  24181162.21308  -6980628.99808  -5398891.08107  24181162.70107  24181160.21007
  22092384.68509 -15424880.96209 -11994891.41409  22092385.53509  22092383.62009
  23411268.82508 -10915690.10108  -8460843.15509  23411268.09309  23411267.63409
  20507806.35809 -23675650.02209 -18396231.63809  20507806.47509  20507805.34209
  24771137.72007  -1308009.00807   -985911.17606  24771138.53106  24771135.07306
  21951981.62009 -17418699.81909 -13523180.38909  21951980.64309  21951980.11609
  20121230.67509 -24671275.65209 -19191236.54809  20121230.96809  20121230.01009
  23144994.00409 -11111621.99209  -8608252.14409  23144994.26809  23144993.71109
 07  1 15  2 16 30.0000000  0  8G08G09G18G29G10G28G26G17
  24199404.03207  -6884765.29907  -5324192.09607  24199405.74107  24199402.25407
  22075405.99909 -15514104.30309 -12064416.06209  22075406.90809  22075404.75909
  23402213.54008 -10963275.09708  -8497922.37209  23402212.69009  23402212.40709
  20512923.27509 -23648759.93109 -18375278.32009  20512923.34309  20512922.33709
  24792258.84607  -1197016.80807   -899423.73907  24792259.75507  24792255.81807
  21963926.09809 -17355931.71509 -13474270.17509  21963925.28709  21963924.83809
  20124016.50809 -24656636.17409 -19179829.16309  20124016.82009  20124015.71609
  23129800.23109 -11191467.95309  -8670469.78409  23129799.92909  23129799.73309
 07  1 15  2 17  0.0000000  0  8G08G09G18G29G10G28G26G17
  24217661.42208  -6788822.93808  -5249431.84507  24217662.61407  24217659.61507
  22058470.12809 -15603103.61509 -12133766.14209  22058470.66609  22058469.14209
  23393259.91408 -11010328.32708  -8534587.22809  23393258.83009  23393258.56609
  20518129.85609 -23621399.26709 -18353958.32309  20518129.89509  20518128.87909
  24813376.14307  -1086038.99007   -812947.50306  24813377.94106  24813374.62906
  21975938.88609 -17292804.91809 -13425080.45809  21975937.74309  21975937.46009
  20126906.73509 -24641447.74409 -19167994.02209  20126907.03809  20126905.90509
  23114668.35109 -11270985.03509  -8732431.14109  23114667.96009  23114667.99009
 07  1 15  2 17 30.0000000  0  8G08G09G18G29G10G28G26G17
  24235934.08007  -6692802.69907  -5174610.84007  24235934.57807  24235931.41307
  22041577.00409 -15691877.34509 -12202940.46209  22041577.63909  22041576.04709
  23384407.26509 -11056848.22609  -8570836.49509  23384406.42509  23384406.20009
  20523425.88709 -23593568.15009 -18332271.74009  20523426.06309  20523424.94909
  24834492.36507   -975078.44807   -726484.75107  24834493.25407  24834489.41507
  21988019.31109 -17229321.70109 -13375613.00909  21988018.28509  21988018.11009
  20129901.57309 -24625710.25009 -19155731.03609  20129901.89609  20129900.61609
  23099600.04409 -11350170.56909  -8794134.14609  23099600.18009  23099599.48709
 07  1 15  2 18  0.0000000  0  8G08G09G18G29G10G28G26G17
  24254219.90608  -6596705.32108  -5099729.78407  24254221.37107  24254218.54807
  22024727.00709 -15780424.17109 -12271937.96809  22024727.92609  22024726.24509
  23375656.61708 -11102833.45108  -8606669.13509  23375655.66009  23375655.30809
  20528811.60109 -23565266.54809 -18310218.54309  20528811.74809  20528810.57609
  24855604.27007   -864137.66407   -640037.34306  24855604.05506  24855599.62006
  22000167.18709 -17165484.03909 -13325869.36709  22000166.27809  22000166.03409
  20133000.57209 -24609423.91109 -19143040.37709  20133001.02109  20132999.81009
  23084594.90909 -11429021.57809  -8855576.48809  23084594.95709  23084594.36209
 07  1 15  2 18 30.0000000  0  8G08G09G18G29G10G28G26G17
  24272521.29308  -6500531.34908  -5024789.02807  24272522.63107  24272519.50507
  22007920.60709 -15868743.06609 -12340757.86609  22007921.07609  22007919.95309
  23367008.27409 -11148282.51509  -8642083.99609  23367006.65209  23367006.38809
  20534286.66709 -23536494.56009 -18287798.81209  20534286.80409  20534285.72909
  24876709.66907   -753219.75007   -553607.76506  24876711.32906  24876707.44206
  22012382.00509 -17101294.02509 -13275851.16209  22012381.11609  22012381.07709
  20136204.34609 -24592588.34709 -19129921.75509  20136204.71709  20136203.58409
  23069654.22509 -11507535.21609  -8916755.94409  23069654.39109  23069654.01009
 07  1 15  2 19  0.0000000  0  8G08G09G18G29G10G28G26G17
  24290837.07808  -6404281.57208  -4949789.20907  24290838.48507  24290835.64207
  21991157.80309 -15956833.04609 -12409399.39109  21991158.01809  21991156.53309
  23358461.56109 -11193193.64909  -8677079.68509  23358460.19309  23358460.22309
  20539851.35809 -23507252.13509 -18265012.51309  20539851.53409  20539850.44009
  24897813.19208   -642326.77508   -467197.68506  24897812.53806  24897809.75406
  22024663.66909 -17036753.58709 -13225559.90609  22024662.81909  22024662.60409
  20139512.64209 -24575203.40809 -19116375.04809  20139512.98409  20139511.88009
  23054778.28709 -11585708.34209  -8977670.05209  23054779.18609  23054777.40809
 07  1 15  2 19 30.0000000  0  8G08G09G18G29G10G28G26G17
  24309166.94007  -6307957.29007  -4874731.37507  24309168.23907  24309165.45507
  21974438.72209 -16044692.75509 -12477861.48109  21974438.95709  21974437.64809
  23350017.73908 -11237565.51108  -8711655.15609  23350016.78209  23350016.46909
  20545505.49909 -23477539.37109 -18241859.71609  20545505.66509  20545504.62009
  24918908.53907   -531461.73907   -380809.26406  24918910.28806  24918907.32806
  22037011.52409 -16971864.69809 -13174997.13009  22037010.71309  22037010.61509
  20142925.43109 -24557269.42309 -19102400.51409  20142925.74309  20142924.65909
  23039967.97309 -11663538.00909  -9038316.50809  23039967.99309  23039967.39709
 07  1 15  2 20  0.0000000  0  8G08G09G18G29G10G28G26G17
  24327510.01807  -6211558.97607  -4799615.77507  24327510.92707  24327509.92107
  21957763.62909 -16132320.56809 -12546142.87309  21957764.13709  21957762.21309
  23341677.10009 -11281396.39109  -8745809.08609  23341676.24109  23341675.75209
  20551249.27409 -23447356.46909 -18218340.57609  20551249.30409  20551248.25809
  24940000.78007   -420627.16307   -294444.70106  24940001.29806  24939998.12306
  22049425.19809 -16906629.39609 -13124164.42409  22049424.42609  22049424.40609
  20146442.55609 -24538786.31509 -19087998.09609  20146442.91809  20146441.91109
  23025222.80509 -11741021.62609  -9098693.32409  23025223.51809  23025222.56109
 07  1 15  2 20 30.0000000  0  8G08G09G18G29G10G28G26G17
  24345868.63808  -6115087.55508  -4724443.25807  24345869.45907  24345868.10107
  21941132.66909 -16219715.75809 -12614243.00009  21941133.29509  21941131.48709
  23333439.69508 -11324684.99108  -8779540.46109  23333438.78609  23333438.22909
  20557082.39109 -23416703.58009 -18194455.21109  20557082.26409  20557081.41509
  24961084.53207   -309825.66507   -208105.79606  24961085.48906  24961083.91706
  22061904.59309 -16841049.64909 -13073063.31509  22061904.14409  22061903.82209
  20150064.26209 -24519753.84909 -19073167.60409  20150064.67209  20150063.56809
  23010544.57909 -11818156.32009  -9158798.25909  23010545.34109  23010544.04209
 07  1 15  2 21  0.0000000  0  8G08G09G18G29G10G28G26G17
  24364240.34807  -6018543.62307  -4649214.23907  24364240.44607  24364239.67407
  21924546.31209 -16306876.56909 -12682160.49009  21924547.19109  21924545.25709
  23325305.38409 -11367429.67909  -8812848.01209  23325305.08209  23325304.25109
  20563004.79209 -23385580.70509 -18170203.62209  20563004.79209  20563003.94209
  24982162.98007   -199059.70607   -121794.69906  24982164.16206  24982161.14306
  22074449.31109 -16775127.10109 -13021695.10009  22074448.41209  22074448.33409
  20153790.60709 -24500172.23609 -19057909.20609  20153790.89009  20153789.72809
  22995933.78509 -11894939.00609  -9218628.92109  22995933.78509  22995932.58309
 07  1 15  2 21 30.0000000  0  8G08G09G18G29G10G28G26G17
  24382625.83108  -5921928.04808  -4573929.38807  24382626.05607  24382625.18707
  21908004.90909 -16393802.52409 -12749894.98609  21908005.68109  21908003.82509
  23317275.14708 -11409629.27308  -8845730.80209  23317274.24809  23317274.07209
  20569016.72009 -23353987.85409 -18145585.82109  20569016.71009  20569015.98709
  25003234.27707    -88331.93207    -35513.26706  25003234.24806  25003231.60006
  22087058.79209 -16708863.96809 -12970061.49209  22087058.15709  22087057.87409
  20157621.24909 -24480041.40509 -19042222.84609  20157621.67909  20157620.48709
  22981390.16809 -11971366.66009  -9278182.93309  22981390.31509  22981388.98609
 07  1 15  2 22  0.0000000  0  8G08G09G18G29G10G28G26G17
  24401025.34207  -5825241.46107  -4498589.18606  24401024.73606  24401023.67106
  21891508.41209 -16480492.08409 -12817445.27609  21891509.30009  21891507.32709
  23309349.08008 -11451282.20108  -8878187.63309  23309347.63409  23309347.59509
  20575117.99009 -23321925.48509 -18120602.16109  20575117.96009  20575117.22809
  25024296.35307     22354.78407     50736.12306  25024297.47606  25024295.82506
  22099732.70709 -16642262.70009 -12918164.39509  22099731.56409  22099731.74009
  20161556.55009 -24459361.62909 -19026108.73309  20161556.88309  20161555.63209
  22966914.15809 -12047436.66409  -9337458.25109  22966915.13509  22966913.17209
 07  1 15  2 22 30.0000000  0  8G08G09G18G29G10G28G26G17
  24419436.17407  -5728485.02507  -4423194.52107  24419437.28807  24419436.17407
  21875057.31809 -16566943.86909 -12884810.29109  21875057.65009  21875056.25309
  23301526.78309 -11492387.16609  -8910217.47808  23301525.21008  23301526.02108
  20581308.59209 -23289393.66609 -18095252.69809  20581308.64009  20581307.68309
  25045351.97207    132998.21207    136951.77206  25045351.87406  25045349.50106
  22112470.59409 -16575324.84209 -12866005.01809  22112469.89109  22112469.73509
  20165596.22709 -24438132.83609 -19009566.81809  20165596.62709  20165595.36709
  22952507.57309 -12123146.01509  -9396452.53909  22952507.35809  22952506.42009
 07  1 15  2 23  0.0000000  0  8G08G09G18G29G10G28G26G17
  24437863.31008  -5631659.20408  -4347745.90007  24437863.42707  24437861.85407
  21858651.37309 -16653156.82109 -12951989.19909  21858651.82209  21858650.58209
  23293809.29009 -11532942.91609  -8941819.35709  23293808.01109  23293808.41109
  20587588.41809 -23256392.44609 -18069537.46509  20587588.61409  20587587.69509
  25066398.03707    243595.59807    223131.60706  25066397.19706  25066395.57606
  22125271.95709 -16508052.69509 -12813585.16009  22125271.23409  22125270.96009
  20169740.34709 -24416355.02909 -18992597.09809  20169740.80609  20169739.53609
  22938169.56109 -12198491.99309  -9455163.67709  22938169.77609  22938168.48709
 07  1 15  2 23 30.0000000  0  8G08G09G18G29G10G28G26G17
  24456299.23707  -5534764.92107  -4272243.83006  24456301.40506  24456300.68306
  21842291.31109 -16739129.75609 -13018981.08209  21842291.90709  21842290.61709
  23286196.76009 -11572947.98709  -8972992.14509  23286195.60709  23286195.70509
  20593957.56709 -23222922.17609 -18043456.73809  20593957.81109  20593956.64909
  25087434.68607    354144.35207    309273.46406  25087434.82306  25087432.92806
  22138136.98009 -16440448.10809 -12760906.26609  22138136.04209  22138135.77909
  20173988.99909 -24394028.40309 -18975199.72409  20173989.45809  20173988.14909
  22923901.47209 -12273471.81109  -9513589.50209  22923901.83309  22923900.42709
 07  1 15  2 24  0.0000000  0  9G08G09G18G29G10G28G26G17G22
  24474753.11808  -5437803.00408  -4196689.18407  24474753.24507  24474751.80907
  21825977.21909 -16824861.42009 -13085784.95109  21825977.63909  21825976.42709
  23278689.19109 -11612400.84909  -9003734.64009  23278687.69609  23278687.94109
  20600416.00909 -23188982.97209 -18017010.61109  20600416.30209  20600415.13009
  25108461.01907    464642.03607    395375.56106  25108461.70306  25108459.29006
  22151064.35509 -16372513.22909 -12707969.99409  22151063.52509  22151063.41709
  20178341.97809 -24371153.08109 -18957374.79809  20178342.50509  20178341.14809
  22909703.17809 -12348082.44909  -9571727.63009  22909703.11009  22909702.71909
  25327772.27308    -49403.72808    -16142.07707  25327769.24407  25327770.59207
 07  1 15  2 24 30.0000000  0  9G08G09G18G29G10G28G26G17G22
  24493214.77607  -5340774.47307  -4121082.52106  24493216.27006  24493215.58606
  21809708.98909 -16910350.63809 -13152399.91209  21809709.55609  21809708.38409
  23271286.70109 -11651300.45809  -9034046.02509  23271285.61609  23271285.55809
  20606963.52909 -23154575.20409 -17990199.37209  20606963.80309  20606962.68909
  25129477.68207    575085.66607    481435.58606  25129477.61406  25129476.12906
  22164054.09209 -16304249.95109 -12654777.82909  22164053.65209  22164053.17409
  20182799.44009 -24347729.31609 -18939122.51509  20182799.88909  20182798.67809
  22895575.99809 -12422321.12409  -9629575.94309  22895576.39909  22895575.20709
  25312452.91708   -129903.41008    -78869.10407  25312451.25607  25312452.14507
 07  1 15  2 25  0.0000000  0  9G08G09G18G29G10G28G26G17G22
  24511693.38107  -5243679.50607  -4045424.12607  24511692.91207  24511691.70107
  21793487.32609 -16995596.20709 -13218825.02109  21793487.87309  21793486.59309
  23263990.05108 -11689645.31108  -9063925.13409  23263988.98609  23263988.73209
  20613600.21509 -23119699.08909 -17963023.18709  20613600.67409  20613599.32609
  25150484.14607    685472.62007    567451.32606  25150483.97106  25150482.04606
  22177106.33709 -16235660.36009 -12601331.39509  22177105.88709  22177105.33009
  20187361.15009 -24323757.12909 -18920442.89109  20187361.62809  20187360.39709
  22881519.97109 -12496185.03309  -9687132.23409  22881520.76309  22881519.88409
  25297198.53107   -210067.19007   -141334.40307  25297195.64007  25297197.46707
 07  1 15  2 25 30.0000000  0  9G08G09G18G29G10G28G26G17G22
  24530181.73507  -5146519.00007  -3969714.71506  24530182.30206  24530180.32806
  21777312.29709 -17080597.10009 -13285059.47709  21777312.35509  21777311.41809
  23256798.89109 -11727434.47609  -9093371.24008  23256797.37708  23256797.63108
  20620326.14509 -23084354.66009 -17935482.08609  20620326.39909  20620325.12909
  25171478.18507    795800.66207    653421.31306  25171479.40606  25171475.95806
  22190220.35709 -16166746.37609 -12547632.18709  22190219.56509  22190219.13609
  20192027.31309 -24299236.74909 -18901336.10409  20192027.75309  20192026.47309
  22867536.27009 -12569671.45109  -9744394.37409  22867536.36809  22867535.78209
  25282008.24607   -289892.57507   -203536.02607  25282005.80407  25282007.80607
 07  1 15  2 26  0.0000000  0  9G08G09G18G29G10G28G26G17G22
  24548683.90207  -5049293.94607  -3893954.90607  24548683.16007  24548681.66507
  21761184.02909 -17165351.75009 -13351102.05209  21761184.33209  21761183.07209
  23249713.71709 -11764666.56009  -9122383.25609  23249712.46709  23249712.89709
  20627140.98809 -23048542.43509 -17907576.46509  20627141.27109  20627139.89409
  25192461.24507    906067.02007    739343.13906  25192463.02306  25192459.17406
  22203395.52709 -16097510.17209 -12493681.90109  22203395.14609  22203394.61809
  20196797.67609 -24274168.44809 -18881802.36609  20196798.07709  20196796.77809
  22853624.85509 -12642777.54209  -9801360.14709  22853625.10909  22853624.08309
  25266882.81307   -369377.25307   -265472.13707  25266880.40007  25266882.42207
 07  1 15  2 26 30.0000000  0  9G08G09G18G29G10G28G26G17G22
  24567195.97407  -4952004.69807  -3818145.12307  24567197.61507  24567195.14407
  21745102.72809 -17249858.86609 -13416951.73809  21745103.08009  21745101.66309
  23242735.39109 -11801340.04809  -9150960.00109  23242734.18009  23242734.06309
  20634044.81009 -23012262.42609 -17879306.33309  20634044.89809  20634043.78509
  25213432.75807   1016269.49407    825215.19806  25213434.18406  25213430.48206
  22216631.72009 -16027953.35609 -12439481.78809  22216631.42709  22216630.67509
  20201672.23009 -24248552.25609 -18861841.70109  20201672.65909  20201671.40909
  22839785.86209 -12715500.13609  -9858027.08609  22839786.82009  22839785.22709
  25251823.01308   -448518.77008   -327140.86807  25251820.49307  25251822.13407
 07  1 15  2 27  0.0000000  0  9G08G09G18G29G10G28G26G17G22
  24585722.69807  -4854652.51807  -3742286.31706  24585722.07306  24585720.55906
  21729068.95009 -17334117.27209 -13482607.62509  21729069.19409  21729067.76809
  23235862.89608 -11837454.32208  -9179100.99809  23235861.72309  23235861.53809
  20641037.68209 -22975515.20609 -17850672.13809  20641037.71109  20641036.53909
  25234390.59507   1126405.28807    911035.34006  25234391.66906  25234389.06106
  22229928.64409 -15958078.41509 -12385033.78709  22229928.13609  22229927.54009
  20206651.04109 -24222388.59909 -18841454.43709  20206651.39309  20206650.20109
  22826020.70909 -12787836.98609  -9914393.45809  22826020.78809  22826020.25009
  25236828.84807   -527314.81207   -388540.39707  25236826.30907  25236827.71507
 07  1 15  2 27 30.0000000  0  9G08G09G18G29G10G28G26G17G22
  24604258.92807  -4757237.93607  -3666378.84006  24604260.05106  24604258.00006
  21713082.63709 -17418125.63209 -13548068.67209  21713083.17409  21713081.38709
  23229097.27608 -11873007.73108  -9206804.96409  23229096.08509  23229096.00609
  20648119.17209 -22938300.95409 -17821674.02109  20648119.29909  20648118.36209
  25255335.61607   1236472.12707    996801.61906  25255336.55406  25255333.60406
  22243285.55609 -15887887.18009 -12330339.31409  22243284.99909  22243284.58909
  20211734.05209 -24195677.62909 -18820640.69209  20211734.36409  20211733.09409
  22812329.36709 -12859785.01409  -9970456.85009  22812329.52309  22812328.92709
  25221900.42407   -605762.77607   -449668.71307  25221898.01207  25221899.31107
 07  1 15  2 28  0.0000000  0  9G08G09G18G29G10G28G26G17G22
  24622808.24707  -4659761.94907  -3590423.67306  24622809.40906  24622807.27906
  21697144.05209 -17501883.00909 -13613334.14809  21697144.44309  21697142.90009
  23222438.57209 -11907999.25809  -9234071.08909  23222437.25409  23222437.58609
  20655289.67309 -22900620.18009 -17792312.38009  20655289.64309  20655288.86209
  25276266.86407   1346467.13107   1082512.13606  25276267.45906  25276264.60706
  22256702.36709 -15817381.82009 -12275400.07309  22256701.62509  22256701.14609
  20216920.88109 -24168419.86709 -18799400.87909  20216921.34009  20216920.15809
  22798712.66409 -12931341.62009 -10026215.22909  22798713.37709  22798711.77509
  25207038.41607   -683860.96007   -510524.42907  25207036.48207  25207037.65407
 07  1 15  2 28 30.0000000  0  9G08G09G18G29G10G28G26G17G22
  24641369.32707  -4562224.81107  -3514420.63806  24641368.59406  24641366.77706
  21681253.30309 -17585388.17309 -13678403.08809  21681253.89909  21681252.30709
  23215886.95908 -11942428.18408  -9260898.82109  23215885.73809  23215885.74809
  20662548.88009 -22862473.19609 -17762587.45809  20662548.82109  20662547.97209
  25297184.40607   1456387.90307   1168164.62406  25297185.31506  25297182.18906
  22270178.49209 -15746564.30809 -12220217.59709  22270178.03309  22270177.39809
  20222211.92009 -24140615.41909 -18777735.07909  20222212.30109  20222211.14909
  22785170.93409 -13002504.07209 -10081666.47609  22785170.86609  22785170.31909
  25192243.55607   -761606.83707   -571105.63507  25192241.97307  25192243.05707
 07  1 15  2 29  0.0000000  0  9G08G09G18G29G10G28G26G17G22
  24659941.63107  -4464627.41407  -3438370.80606  24659940.44906  24659939.32506
  21665411.16209 -17668639.92009 -13743274.56409  21665411.67009  21665410.01909
  23209442.92609 -11976293.14509  -9287287.11109  23209441.49009  23209441.54809
  20669896.66709 -22823860.12709 -17732499.35309  20669896.65709  20669895.84709
  25318086.95407   1566231.97907   1253757.41505  25318088.09705  25318085.87005
  22283713.57009 -15675436.60009 -12164793.41909  22283713.06209  22283712.46609
  20227606.97309 -24112264.59309 -18755643.52909  20227607.33509  20227606.27009
  22771704.46009 -13073269.60109 -10136808.45309  22771704.66609  22771704.29409
  25177516.52707   -838997.61707   -631410.17007  25177514.91507  25177515.98007
 07  1 15  2 29 30.0000000  0 10G08G09G18G29G10G28G26G17G22G12
  24678524.52307  -4366970.73407  -3362274.72105  24678524.03505  24678523.01905
  21649617.63809 -17751636.66509 -13807947.33609  21649617.85309  21649616.54409
  23203106.10109 -12009592.51709  -9313234.67209  23203104.81109  23203105.09409
  20677333.13209 -22784781.34309 -17702048.35309  20677333.13209  20677332.21409
  25338974.09707   1675997.06807   1339288.75406  25338976.27606  25338973.04206
  22297307.37509 -15604000.62709 -12109129.02609  22297306.78909  22297306.35909
  20233105.94309 -24083367.66809 -18733126.44809  20233106.23609  20233105.12209
  22758314.37509 -13143635.13009 -10191638.74409  22758315.06909  22758314.01409
  25162858.25807   -916031.00007   -691436.16907  25162855.83607  25162856.76407
  25182245.24807    -16811.38807                                                
 07  1 15  2 30  0.0000000  0 10G08G09G18G29G10G28G26G17G22G12
  24697119.39207  -4269255.04707  -3286132.62906  24697119.24606  24697117.48806
  21633872.47809 -17834377.29009 -13872420.54109  21633873.13209  21633871.56009
  23196876.97209 -12042325.62409  -9338740.98909  23196876.03409  23196875.84909
  20684858.04009 -22745237.45009 -17671234.93309  20684858.13709  20684857.14109
  25359846.32407   1785680.40007   1424756.20206  25359848.76606  25359845.19106
  22310959.51709 -15532258.42609 -12053226.02009  22310959.01909  22310958.41409
  20238708.69109 -24053925.02409 -18710184.13009  20238708.97509  20238707.91009
  22745000.79609 -13213598.37309 -10246155.54309  22745001.56809  22745000.61109
  25148267.85107   -992704.75207   -751181.98507  25148265.11607  25148266.42507
  25161157.53007   -127619.12307    -78282.19706  25161159.59106  25161157.12906
 07  1 15  2 30 30.0000000  0 10G08G09G18G29G10G28G26G17G22G12
  24715724.06907  -4171481.25307  -3209945.29606  24715725.32906  24715722.91606
  21618176.45309 -17916860.50309 -13936693.16309  21618176.86309  21618175.54409
  23190756.18509 -12074491.14509  -9363805.03609  23190754.90509  23190755.01309
  20692471.26409 -22705228.70309 -17640059.29409  20692471.68409  20692470.55109
  25380703.51807   1895279.82007                                                
  22324669.50809 -15460212.17209 -11997086.08509  22324668.90209  22324668.35509
  20244415.24909 -24023936.92409 -18686816.78009  20244415.58109  20244414.58509
  22731764.42709 -13283156.35209 -10300356.54009  22731764.89609  22731763.74309
  25133746.19307  -1069016.95507   -810646.04907  25133743.45807  25133744.93307
  25140085.53907   -238357.26707   -164571.64606  25140086.10506  25140085.35306
 07  1 15  2 31  0.0000000  0  9G08G09G18G29G28G26G17G22G12
  24734342.35307  -4073650.55207  -3133713.59806  24734341.01406  24734340.20406
  21602529.67009 -17999085.14209 -14000764.29309  21602530.07009  21602528.67309
  23184743.60209 -12106088.61509  -9388426.43909  23184742.33309  23184742.41109
  20700173.13609 -22664755.53809 -17608521.76709  20700173.43909  20700172.22809
  22338436.69309 -15387863.97309 -11940710.86209  22338436.10709  22338435.73609
  20250225.45009 -23993403.97109 -18663024.87309  20250225.78209  20250224.78509
  22718605.57009 -13352306.64709 -10354239.86109  22718606.08809  22718604.59309
  25119293.71607  -1144964.86907   -869826.24007  25119291.28307  25119292.58307
  25119026.41307   -349024.40307   -250805.76606  25119026.66706  25119026.23706
 07  1 15  2 31 30.0000000  0  9G08G09G18G29G28G26G17G22G12
  24752968.94907  -3975763.53807  -3057438.07306  24752968.70506  24752966.77106
  21586932.12909 -18081050.26509 -14064633.21109  21586932.66709  21586931.21109
  23178838.90209 -12137116.94009  -9412604.34809  23178837.57409  23178837.89609
  20707963.22709 -22623818.49909 -17576622.78209  20707963.54009  20707962.28909
  22352261.23809 -15315215.86509 -11884101.95309  22352260.64209  22352260.25109
  20256139.40109 -23962326.35409 -18638808.55209  20256139.66409  20256138.73609
  22705524.65509 -13421046.29709 -10407803.20709  22705525.15309  22705523.99109
  25104910.38907  -1220546.11807   -928720.72807  25104908.68907  25104910.50607
  25097981.29507   -459618.51207   -336983.03006  25097980.45506  25097979.97606
 07  1 15  2 32  0.0000000  0  9G08G09G18G29G28G26G17G22G12
  24771606.48707  -3877820.33907  -2981118.72706  24771607.16106  24771604.86506
  21571384.46709 -18162754.52709 -14128298.86209  21571384.76009  21571383.27509
  23173043.24709 -12167574.87209  -9436337.80009  23173041.55709  23173041.89909
  20715841.47809 -22582417.96509 -17544362.63509  20715841.75109  20715840.61809
  22366142.71309 -15242270.01509 -11827261.03309  22366141.88209  22366141.68709
  20262156.72109 -23930704.53709 -18614168.17909  20262157.12109  20262156.16409
  22692522.54209 -13489372.82309 -10461044.65009  22692523.48009  22692521.01809
  25090598.86907  -1295758.61707   -987327.88507  25090596.11407  25090597.69707
  25076949.55007   -570138.11107   -423102.20306  25076949.14906  25076948.73906
 07  1 15  2 32 30.0000000  0  9G08G09G18G29G28G26G17G22G12
  24790255.25807  -3779821.97707  -2904756.33606  24790256.15706  24790253.35306
  21555886.55409 -18244196.29109 -14191759.96209  21555886.76909  21555885.53909
  23167355.92309 -12197461.10709  -9459625.77709  23167354.58509  23167354.61409
  20723807.92809 -22540554.34309 -17511741.63409  20723808.17209  20723806.94109
  22380080.05309 -15169028.04909 -11770189.36909  22380079.05709  22380079.15509
  20268277.66409 -23898538.97409 -18589104.10509  20268277.98609  20268276.96109
  22679599.88509 -13557283.39509 -10513961.96309  22679599.60209  22679598.63509
  25076356.41207  -1370599.95307  -1045645.81707  25076353.95107  25076355.61107
  25055932.40907   -680581.11707   -509161.71106  25055932.60406  25055932.38906
 07  1 15  2 33  0.0000000  0  9G08G09G18G29G28G26G17G22G12
  24808913.43607  -3681769.57907  -2828351.98006  24808915.58506  24808912.12706
  21540438.81309 -18325374.40709 -14255015.62509  21540439.14509  21540437.91409
  23161777.22409 -12226775.41809  -9482468.09409  23161776.74509  23161776.12009
  20731862.37109 -22498228.11209 -17478760.15909  20731862.56709  20731861.44309
  22394073.70909 -15095492.03509 -11712888.56909  22394072.60509  22394072.44909
  20274501.84009 -23865830.16209 -18563616.71609  20274502.23109  20274501.17609
  22666756.64509 -13624775.34109 -10566553.09709  22666756.43009  22666755.59009
  25062185.15707  -1445067.87307  -1103672.78106  25062183.32106  25062184.21006
  25034931.03407   -790946.24507   -595160.49806  25034931.36606  25034930.10606
 07  1 15  2 33 30.0000000  0  9G08G09G18G29G28G26G17G22G12
  24827583.05307  -3583663.78807  -2751905.83506  24827584.44006  24827580.85506
  21525041.42709 -18406287.96109 -14318065.14309  21525041.77909  21525040.51909
  23156308.25409 -12255516.68509  -9504863.88009  23156307.43309  23156306.76909
  20740004.67209 -22455439.99309 -17445418.77309  20740004.79909  20740003.80309
  22408122.49709 -15021664.38109 -11655360.52809  22408121.67709  22408121.33509
  20280829.33609 -23832578.68109 -18537706.47009  20280829.81509  20280828.67209
  22653993.51609 -13691846.35209 -10618816.23609  22653993.98509  22653992.35409
  25048086.49107  -1519160.33507  -1161407.17206  25048084.37206  25048084.70406
  25013944.18407   -901231.85907   -681097.30507  25013944.64307  25013943.38307
 07  1 15  2 34  0.0000000  0  9G08G09G18G29G28G26G17G22G12
  24846261.71507  -3485504.89707  -2675418.38606  24846263.32706  24846260.47506
  21509694.79809 -18486935.24909 -14380907.17209  21509695.02309  21509693.83109
  23150948.11309 -12283683.71909  -9526812.22109  23150947.35109  23150946.99909
  20748234.94709 -22412190.10909 -17411717.56509  20748235.04509  20748233.95009
  22422226.50709 -14947546.66609 -11597606.46809  22422225.56909  22422225.64709
  20287260.12409 -23798784.65609 -18511373.46009  20287260.54409  20287259.44009
  22641310.93709 -13758493.38509 -10670748.99209  22641311.22009  22641310.30209
  25034059.14507  -1592874.52007  -1218846.80907  25034056.84907  25034057.96307
  24992973.76507  -1011435.73507   -766970.49707  24992973.02307  24992973.16007
 07  1 15  2 34 30.0000000  0  9G08G09G18G29G28G26G17G22G12
  24864949.68706  -3387293.93406  -2598890.31706  24864950.80006  24864949.66706
  21494398.85809 -18567315.36809 -14443541.01309  21494399.34609  21494397.80309
  23145697.34908 -12311276.02208  -9548312.70309  23145696.47009  23145696.59709
  20756552.76609 -22368479.31709 -17377657.20809  20756552.98109  20756551.86809
  22436385.47309 -14873141.29909 -11539628.25909  22436384.68209  22436384.48609
  20293794.00709 -23764448.94809 -18484618.36209  20293794.37809  20293793.34309
  22628709.83709 -13824713.98109 -10722349.45009  22628709.62209  22628709.29909
  25020104.09407  -1666208.80107  -1275990.42006  25020101.81806  25020103.04906
  24972017.72607  -1121556.79607   -852779.11706  24972017.20806  24972017.71606
 07  1 15  2 35  0.0000000  0  9G08G09G18G29G28G26G17G22G12
  24883649.93707  -3289031.71907  -2522322.37606  24883649.75206  24883647.84706
  21479154.15209 -18647427.04709 -14505965.68309  21479154.45509  21479153.11709
  23140556.71409 -12338292.61409  -9569364.59109  23140555.41509  23140555.24909
  20764958.38409 -22324307.94909 -17343237.96409  20764958.51109  20764957.30009
  22450598.72209 -14798450.14109 -11481427.36409  22450597.85309  22450597.58909
  20300430.84009 -23729571.98009 -18457441.50509  20300431.16209  20300430.17609
  22616190.36109 -13890505.46909 -10773615.55109  22616190.21509  22616189.52109
  25006222.28707  -1739160.36407  -1332835.79906  25006219.96206  25006220.51906
  24951079.03407  -1231593.27607   -938521.83506  24951078.14506  24951078.29206
 07  1 15  2 35 30.0000000  0  9G08G09G18G29G28G26G17G22G12
  24902357.88507  -3190718.20507  -2445714.46506  24902359.25306  24902357.07506
  21463961.00509 -18727268.86609 -14568180.07209  21463960.98509  21463959.78309
  23135525.13409 -12364732.73509  -9589967.27709  23135524.04009  23135523.78609
  20773451.38009 -22279676.63209 -17308460.31209  20773451.60509  20773450.31609
  22464866.01009 -14723475.06809 -11423005.23009  22464864.80909  22464864.87709
  20307170.59209 -23694154.24409 -18429843.26909  20307170.95409  20307169.98709
  22603752.57909 -13955865.57209 -10824545.47009  22603752.40309  22603752.20709
  24992412.41407  -1811726.97507  -1389381.23506  24992410.96806  24992411.64206
  24930156.34407  -1341543.26607  -1024197.14107  24930156.31507  24930155.80707
 07  1 15  2 36  0.0000000  0  9G08G09G18G29G28G26G17G22G12
  24921076.28607  -3092354.69607  -2369067.55706  24921076.98906  24921074.73306
  21448819.06309 -18806839.32409 -14630183.00809  21448819.20009  21448817.84209
  23130603.65409 -12390595.35709  -9610119.95809  23130602.71609  23130602.08109
  20782031.94109 -22234585.81609 -17273324.60909  20782032.03809  20782030.96409
  22479186.91709 -14648218.23409 -11364363.54509  22479186.10609  22479185.83309
  20314013.33309 -23658196.11109 -18401823.94709  20314013.57709  20314012.55209
  22591397.40809 -14020791.19509 -10875136.84009  22591397.35909  22591397.29009
  24978677.31807  -1883906.77907  -1445625.26906  24978675.58006  24978676.46906
  24909250.48407  -1451405.12107  -1109803.78707  24909250.32807  24909250.18207
 07  1 15  2 36 30.0000000  0  9G08G09G18G29G28G26G17G22G12
  24939803.00907  -2993941.83707  -2292382.13706  24939803.61406  24939801.99306
  21433728.95209 -18886137.49409 -14691973.77909  21433729.37209  21433727.88809
  23125791.86309 -12415879.74909  -9629822.08309  23125791.08109  23125790.73909
  20790699.71309 -22189036.07609 -17237831.30009  20790699.77209  20790698.81509
  22493561.07209 -14572681.64909 -11305503.87009  22493560.19309  22493559.79209
  20320958.53509 -23621698.43909 -18373384.20409  20320958.84809  20320957.78309
  22579125.57109 -14085280.10909 -10925387.91909  22579125.40509  22579125.28809
  24965015.89607  -1955697.30207  -1501565.93506  24965014.18706  24965014.96806
  24888361.16307  -1561177.04007  -1195340.32507  24888361.47507  24888361.10407
 07  1 15  2 37  0.0000000  0  9G08G09G18G29G28G26G17G22G12
  24958541.32707  -2895480.55407  -2215659.07606  24958540.18406  24958537.42906
  21418691.17109 -18965162.27709 -14753551.51609  21418691.34709  21418689.79409
  23121090.51308 -12440585.33508  -9649073.18509  23121089.94709  23121089.57509
  20799454.77609 -22143028.27409 -17201981.06209  20799454.72809  20799453.93609
  22507987.94609 -14496867.55209 -11246427.96309  22507986.83309  22507987.02809
  20328006.35409 -23584661.74709 -18344524.44409  20328006.68609  20328005.58209
  22566937.18609 -14149329.69809 -10975296.67809  22566937.03909  22566937.04909
  24951430.20907  -2027096.57407  -1557201.77606  24951427.30706  24951428.63606
  24867489.71707  -1670857.75607  -1280805.80607  24867489.62907  24867489.51207
 07  1 15  2 37 30.0000000  0  9G08G09G18G29G28G26G17G22G12
  24977284.98807  -2796971.49707  -2138898.72606  24977286.97106  24977284.15806
  21403705.29909 -19043912.31409 -14814915.16309  21403705.98309  21403704.27409
  23116499.35108 -12464711.30208  -9667872.64609  23116498.79509  23116498.32609
  20808296.74909 -22096562.84309 -17165774.23309  20808296.69109  20808296.03609
  22522467.34609 -14420777.81009 -11187137.24709  22522466.45709  22522466.25209
  20335156.65309 -23547086.72209 -18315245.20509  20335157.00509  20335155.87209
  22554833.19909 -14212937.39009 -11024861.11409  22554832.91609  22554832.58409
  24937917.71607  -2098102.41207  -1612531.01506  24937915.16606  24937916.81706
  24846635.64008  -1780445.57208  -1366198.89307  24846635.92307  24846635.20107
 07  1 15  2 38  0.0000000  0  9G08G09G18G29G28G26G17G22G12
  24996040.36207  -2698414.70507  -2062101.20706  24996042.15906  24996038.37906
  21388772.25509 -19122386.22109 -14876063.63809  21388772.87009  21388771.29809
  23112019.19808 -12488257.01008  -9686219.94509  23112017.99609  23112017.69309
  20817225.91509 -22049640.49609 -17129211.36809  20817225.75809  20817224.93809
  22536998.87909 -14344414.51809 -11127633.39109  22536997.43309  22536997.95109
  20342409.34509 -23508973.96709 -18285546.95809  20342409.65709  20342408.41709
  22542813.46609 -14276100.75009 -11074079.30009  22542813.37809  22542812.87009
  24924481.27907  -2168712.27607  -1667551.72206  24924479.06206  24924479.78506
  24825800.18107  -1889938.75307  -1451518.29907  24825799.61507  24825799.44907
 07  1 15  2 38 30.0000000  0  8G09G18G29G28G26G17G22G12
  21373892.07709 -19200582.72309 -14936995.96109  21373892.47809  21373891.31509
  23107648.96808 -12511221.73008  -9704114.53709  23107647.99109  23107647.41509
  20826241.59909 -22002261.67409 -17092292.80709  20826241.77509  20826240.76909
  22551582.06809 -14267779.51109 -11067917.80609  22551580.70009  22551580.73009
  20349763.99909 -23470324.06409 -18255430.15309  20349764.46809  20349763.25709
  22530878.81509 -14338817.13009 -11122949.19609  22530878.63909  22530878.39509
  24911119.92307  -2238923.98607  -1722262.16807  24911117.85207  24911118.72207
  24804983.04807  -1999335.55807  -1536762.54007  24804982.53107  24804982.17907
 07  1 15  2 39  0.0000000  0  8G09G18G29G28G26G17G22G12
  21359064.82509 -19278500.79309 -14997711.32409  21359065.09809  21359064.21909
  23103389.32708 -12533604.70508  -9721555.81409  23103388.75009  23103388.09609
  20835344.24209 -21954427.07709 -17055019.10409  20835344.28109  20835343.30409
  22566216.20909 -14190874.75509 -11007992.03109  22566215.38809  22566215.38809
  20357221.11409 -23431137.70709 -18224895.33109  20357221.40709  20357220.10809
  22519029.95009 -14401083.71009 -11171468.60109  22519029.83309  22519028.99309
  24897835.81607  -2308735.48307  -1776660.75706  24897833.31506  24897834.27206
  24784183.47907  -2108634.06507  -1621930.22007  24784184.02607  24784183.78207
 07  1 15  2 39 30.0000000  0  8G09G18G29G28G26G17G22G12
  21344290.63509 -19356139.37009 -15058208.90909  21344291.12309  21344289.93109
  23099241.02508 -12555405.61008  -9738543.53309  23099240.14609  23099239.53109
  20844533.44209 -21906137.61009 -17017390.95609  20844533.64709  20844532.40709
  22580901.44809 -14113702.61609 -10947857.89609  22580900.43209  22580900.61809
  20364779.64509 -23391415.79209 -18193943.19509  20364780.35809  20364779.06909
  22507266.98909 -14462898.91709 -11219636.27009  22507266.58909  22507266.30509
  24884627.06207  -2378144.98707  -1830746.11307  24884625.31307  24884626.56307
  24763404.12007  -2217833.07207  -1707020.34107  24763403.78807  24763403.55407
 07  1 15  2 40  0.0000000  0  9G05G09G18G29G28G26G17G22G12
  25160579.48407    -85567.70007    -44940.88506  25160579.87506  25160577.93106
  21329570.07309 -19433496.51809 -15118487.19109  21329570.58109  21329569.33009
  23095203.56608 -12576623.46408  -9755076.92309  23095202.32609  23095201.92509
  20853809.18109 -21857393.62009 -16979408.63409  20853809.28809  20853808.20409
  22595637.50309 -14036264.92409 -10887516.84009  22595636.60409  22595636.69209
  20372440.64609 -23351158.64309 -18162573.99409  20372440.96909  20372439.79709
  22495590.24409 -14524259.55209 -11267449.73009  22495590.06809  22495589.85309
  24871495.61508  -2447149.85808  -1884516.15906  24871494.14906  24871495.33106
  24742642.77508  -2326930.86408  -1792031.61107  24742643.55607  24742642.77507
 07  1 15  2 40 30.0000000  0  9G05G09G18G29G28G26G17G22G12
  25138926.41007   -199353.16207   -133604.90006  25138928.38306  25138925.40406
  21314903.31509 -19510571.29209 -15178545.43909  21314903.71609  21314902.56309
  23091277.07608 -12597257.44308  -9771155.35209  23091275.92409  23091275.52309
  20863171.20409 -21808195.93509 -16941072.78009  20863171.36009  20863170.32509
  22610423.54209 -13958563.77509 -10826970.49209  22610422.84809  22610422.49709
  20380202.97509 -23310367.08909 -18130788.37009  20380203.36609  20380202.26209
  22484000.70109 -14585163.34709 -11314907.20609  22484000.26109  22484000.06609
  24858442.21708  -2515747.64808  -1937969.02107  24858440.02907  24858441.96307
  24721902.83108  -2435925.49908  -1876962.51307  24721902.20607  24721901.98207
 07  1 15  2 41  0.0000000  0  9G05G09G18G29G28G26G17G22G12
  25117284.75507   -313077.57907   -222221.31306  25117286.29806  25117284.40306
  21300290.34309 -19587362.39409 -15238382.64809  21300290.83109  21300289.73709
  23087461.43809 -12617307.89209  -9786779.08409  23087460.32509  23087460.34409
  20872619.45309 -21758545.42209 -16902384.07709  20872619.51209  20872618.73009
  22625259.55709 -13880601.17809 -10766220.43509  22625258.55109  22625258.05209
  20388066.97409 -23269041.92509 -18098586.95009  20388067.36509  20388066.32009
  22472498.76109 -14645607.98009 -11362006.92409  22472498.16609  22472498.01909
  24845466.25408  -2583936.96808  -1991103.56407  24845464.08607  24845466.02907
  24701181.59507  -2544815.44407  -1961811.84207  24701181.10607  24701180.58907
 07  1 15  2 41 30.0000000  0  9G05G09G18G29G28G26G17G22G12
  25095655.78907   -426739.26407   -310788.87006  25095657.06806  25095654.73406
  21285731.88809 -19663868.51909 -15297997.79709  21285732.13209  21285731.11609
  23083757.37509 -12636773.66809  -9801947.23309  23083756.34009  23083756.19309
  20882153.81109 -21708442.61809 -16863342.93509  20882153.68409  20882152.93109
  22640144.59909 -13802379.05109 -10705268.14309  22640143.67109  22640143.45609
  20396032.30109 -23227183.96009 -18065970.35409  20396032.65209  20396031.61709
  22461084.28809 -14705590.77609 -11408746.76309  22461083.71209  22461083.80909
  24832568.83908  -2651715.44708  -2043917.97407  24832566.21107  24832567.68607
  24680480.10008  -2653599.09208  -2046578.32207  24680480.36407  24680479.65107
 07  1 15  2 42  0.0000000  0  9G05G09G18G29G28G26G17G22G12
  25074039.49207   -540336.43507   -399306.15806  25074040.18606  25074038.31006
  21271227.72509 -19740088.27009 -15357389.80109  21271227.77409  21271226.78709
  23080164.37809 -12655654.43309  -9816659.52209  23080163.67509  23080163.46009
  20891773.85709 -21657888.16409 -16823949.85709  20891773.86609  20891772.97709
  22655079.02109 -13723899.29209 -10644115.09309  22655077.75109  22655077.60409
  20404098.88609 -23184793.67209 -18032938.96709  20404099.29609  20404098.33909
  22449758.30709 -14765109.29809 -11455124.81509  22449757.72109  22449757.51609
  24819749.67808  -2719080.79608  -2096410.49207  24819747.35307  24819748.44707
  24659800.37007  -2762274.62607  -2131260.55507  24659800.22307  24659799.26607
 07  1 15  2 42 30.0000000  0  9G05G09G18G29G28G26G17G22G12
  25052434.82007   -653867.75007   -487772.14106  25052436.47106  25052433.19906
  21256778.47109 -19816020.26309 -15416557.58709  21256778.43209  21256777.39709
  23076682.92709 -12673949.66409  -9830915.54909  23076682.14609  23076681.66709
  20901479.72809 -21606883.03209 -16784205.60409  20901479.71809  20901478.94609
  22670061.71809 -13645164.15009 -10582763.04409  22670060.84809  22670060.75109
  20412266.53609 -23141872.21809 -17999493.68609  20412266.97509  20412265.99909
  22438521.00309 -14824161.39209 -11501139.42409  22438520.25109  22438520.64209
  24807009.49508  -2786030.94708  -2148579.46207  24807007.19007  24807008.31307
  24639141.01607  -2870840.66507  -2215857.47607  24639140.48807  24639140.19507
 07  1 15  2 43  0.0000000  0  9G05G09G18G29G28G26G17G22G12
  25030842.29007   -767331.54207   -576185.49306  25030845.05506  25030841.25506
  21242383.91009 -19891663.83009 -15475500.62509  21242384.05709  21242382.75809
  23073313.06109 -12691658.84809  -9844714.92309  23073312.39709  23073311.94709
  20911271.13109 -21555427.89709 -16744110.69809  20911271.47309  20911270.29109
  22685092.45609 -13566175.44209 -10521213.39609  22685091.58609  22685091.57709
  20420535.16209 -23098420.28109 -17965635.03709  20420535.52309  20420534.54609
  22427373.01209 -14882744.58109 -11546788.65609  22427372.55309  22427372.25009
  24794348.71908  -2852563.82708  -2200423.29307  24794346.26707  24794347.62507
  24618501.79507  -2979295.40807  -2300367.66007  24618501.89207  24618501.72607
 07  1 15  2 43 30.0000000  0  9G05G09G18G29G28G26G17G22G12
  25009264.15007   -880726.17807   -664544.96606  25009266.38706  25009263.28006
  21228044.55109 -19967017.29009 -15534217.59609  21228044.69709  21228043.37909
  23070054.75009 -12708781.46109  -9858057.21609  23070053.81209  23070053.57709
  20921148.34009 -21503523.61809 -16703665.81709  20921148.45709  20921147.31409
  22700171.77209 -13486935.39309 -10459467.90709  22700170.54109  22700170.34609
  20428904.56809 -23054438.65909 -17931363.64909  20428904.95909  20428903.85509
  22416314.55809 -14940856.40609 -11592070.58509  22416314.20709  22416314.11909
  24781767.25308  -2918677.33708  -2251940.32307  24781765.22107  24781766.85307
  24597885.83208  -3087637.32408  -2384789.95008  24597885.68608  24597885.02208
 07  1 15  2 44  0.0000000  0  9G05G09G18G29G28G26G17G22G12
  24987700.03606   -994050.02806   -752849.28106  24987701.22806  24987698.18006
  21213760.78309 -20042079.25609 -15592707.42509  21213760.84209  21213759.65009
  23066908.49209 -12725316.88909  -9870941.97309  23066907.19309  23066907.14409
  20931110.54409 -21451170.79809 -16662871.42009  20931111.00309  20931109.64509
  22715298.04509 -13407446.06209 -10397528.17509  22715296.81509  22715296.89309
  20437374.56009 -23009927.97009 -17896680.00109  20437375.08709  20437373.90509
  22405346.17909 -14998494.50709 -11636983.38609  22405345.79809  22405345.72009
  24769266.84608  -2984369.20008  -2303128.81907  24769264.52107  24769265.57607
  24577291.08708  -3195864.51608  -2469122.83907  24577290.79407  24577290.09007
 07  1 15  2 44 30.0000000  0  9G05G09G18G29G28G26G17G22G12
  24966148.96307  -1107301.69007   -841097.34106  24966150.73106  24966147.37106
  21199532.44209 -20116848.99409 -15650969.54609  21199532.85209  21199531.22109
  23063873.74009 -12741265.39709  -9883369.37909  23063872.23609  23063872.46109
  20941158.30009 -21398370.39409 -16621728.25409  20941158.58309  20941157.32309
  22730471.47109 -13327709.17509 -10335395.54809  22730470.43509  22730470.14209
  20445945.18509 -22964889.46309 -17861585.06209  20445945.56609  20445944.25709
  22394468.82109 -15055656.67909 -11681525.32509  22394468.04009  22394468.45009
  24756846.56808  -3049637.79608  -2353987.48807  24756844.08707  24756845.07407
  24556717.45107  -3303975.73007  -2553365.35208  24556717.91008  24556717.48008
 07  1 15  2 45  0.0000000  0  9G05G09G18G29G28G26G17G22G12
  24944611.85907  -1220479.59807   -929287.94506  24944613.57906  24944610.25706
  21185360.21009 -20191324.63509 -15709002.50209  21185360.54209  21185358.95009
  23060950.13409 -12756626.19509  -9895338.83409  23060949.22509  23060948.92309
  20951290.91409 -21345123.32109 -16580237.04509  20951291.19709  20951289.98609
  22745691.67709 -13247726.75309 -10273071.58909  22745690.40709  22745690.29009
  20454615.88909 -22919323.85109 -17826079.39209  20454616.41609  20454615.17609
  22383682.34009 -15112340.61809 -11725694.62309  22383681.45109  22383681.81209
  24744507.19308  -3114480.73408  -2404514.45807  24744504.56507  24744506.25507
  24536167.55208  -3411969.37108  -2637516.24807  24536167.51307  24536166.54607
 07  1 15  2 45 30.0000000  0  9G05G09G18G29G28G26G17G22G12
  24923088.77307  -1333581.95207  -1017419.66906  24923091.31306  24923087.47406
  21171244.16609 -20265505.18309 -15766805.51209  21171244.41009  21171242.79909
  23058138.95209 -12771398.92509  -9906850.05309  23058137.94609  23058137.98509
  20961508.52309 -21291430.17709 -16538398.23809  20961508.60109  20961507.56509
  22760958.17609 -13167500.83009 -10210557.89409  22760956.87609  22760956.85709
  20463386.85509 -22873231.86809 -17790163.56309  20463387.48009  20463386.27809
  22372986.95809 -15168543.77709 -11769489.28109  22372986.40109  22372986.75309
  24732249.64708  -3178896.15508  -2454708.31807  24732246.74607  24732248.59207
  24515639.37808  -3519843.23908  -2721573.79308  24515639.68108  24515639.13408
 07  1 15  2 46  0.0000000  0  9G05G09G18G29G28G26G17G22G12
  24901581.86407  -1446607.14807  -1105491.26206  24901583.47506  24901580.01706
  21157184.28109 -20339389.44709 -15824377.64909  21157184.65209  21157183.04009
  23055439.98909 -12785583.10809  -9917902.66309  23055438.70009  23055438.66109
  20971810.66709 -21237291.84209 -16496212.52309  20971810.90209  20971809.71009
  22776270.85909 -13087033.38109 -10147855.99109  22776269.24809  22776269.29609
  20472257.97609 -22826614.61909 -17753838.43609  20472258.42609  20472257.18509
  22362383.76109 -15224263.98709 -11812907.61509  22362382.95009  22362383.25309
  24720072.89608  -3242881.92008  -2504567.38207  24720070.94207  24720072.47607
  24495134.81508  -3627596.12808  -2805537.11408  24495134.82508  24495134.39508
 07  1 15  2 46 30.0000000  0  9G05G09G18G29G28G26G17G22G12
  24880088.81507  -1559553.96607  -1193501.77906  24880089.69406  24880087.30106
  21143181.21809 -20412976.31709 -15881718.05809  21143181.62909  21143179.98809
  23052852.88509 -12799179.05009  -9928496.91009  23052851.73209  23052851.65409
  20982197.46509 -21182709.42209 -16453680.77009  20982197.40609  20982196.53709
  22791628.35109 -13006326.76009 -10084967.72609  22791627.72609  22791627.56909
  20481228.72609 -22779473.06009 -17717104.75809  20481229.12609  20481228.02309
  22351872.85609 -15279499.02809 -11855947.90509  22351872.53309  22351872.28909
  24707979.44008  -3306436.14908  -2554090.19507  24707977.01807  24707979.00107
  24474653.18808  -3735226.46708  -2889404.90908  24474653.61708  24474652.68908
 07  1 15  2 47  0.0000000  0  9G05G09G18G29G28G26G17G22G12
  24858610.51707  -1672420.47607  -1281449.72006  24858611.64106  24858610.07806
  21129234.88109 -20486263.64109 -15938825.05409  21129235.36009  21129233.75809
  23050377.90209 -12812185.89809  -9938632.12309  23050376.68109  23050376.43709
  20992668.52509 -21127683.60609 -16410803.52309  20992668.59309  20992667.54809
  22807031.51909 -12925382.53309 -10021894.30809  22807030.66009  22807030.47409
  20490299.19109 -22731807.91609 -17679963.09309  20490299.63109  20490298.34209
  22341454.59409 -15334246.72109 -11898608.44609  22341454.60409  22341453.99809
  24695968.37108  -3369556.60208  -2603274.97107  24695966.44707  24695967.47207
  24454195.63907  -3842732.42007  -2973175.78208  24454196.52808  24454194.67208
 07  1 15  2 47 30.0000000  0  9G05G09G18G29G28G26G17G22G12
  24837147.99507  -1785205.14207  -1369333.91806  24837149.55806  24837148.24906
  21115345.77709 -20559250.82909 -15995698.18009  21115346.34309  21115344.74109
  23048014.46509 -12824603.47109  -9948308.16309  23048013.77209  23048013.39109
  21003223.73009 -21072215.25409 -16367581.44209  21003223.87609  21003222.81109
  22822479.77909 -12844202.69509  -9958637.30809  22822478.60609  22822478.53809
  20499469.00209 -22683620.21109 -17642414.24109  20499469.42209  20499468.23009
  22331129.68909 -15388504.72309 -11940887.40709  22331129.67909  22331129.21009
  24684039.53208  -3432241.39008  -2652120.24807  24684038.87807  24684038.60407
  24433762.17007  -3950112.32007  -3056848.45208  24433762.94208  24433761.15408
 07  1 15  2 48  0.0000000  0  9G05G09G18G29G28G26G17G22G12
  24815701.71807  -1897906.54107  -1457153.20806  24815703.50606  24815700.63406
  21101514.24809 -20631936.32609 -16052336.21509  21101514.63809  21101513.19309
  23045763.63809 -12836431.86209  -9957525.09209  23045762.76909  23045762.53509
  21013862.97209 -21016305.31109 -16324015.26109  21013863.04109  21013862.15209
  22837972.25009 -12762789.33309  -9895198.32909  22837971.26309  22837971.06809
  20508738.28409 -22634910.88209 -17604458.92709  20508738.49909  20508737.37509
  22320898.46309 -15442271.04309 -11982783.22509  22320897.99409  22320897.74009
  24672193.58908  -3494488.87108  -2700624.77707  24672192.84607  24672192.74807
  24413352.23307  -4057364.81907  -3140421.81508  24413353.48408  24413351.28608
 07  1 15  2 48 30.0000000  0  9G05G09G18G29G28G26G17G22G12
  24794271.83207  -2010522.98307  -1544906.28206  24794272.89706  24794271.37306
  21087740.29309 -20704319.04409 -16108738.31709  21087740.67409  21087739.24809
  23043625.19709 -12847670.81909  -9966282.72209  23043624.07409  23043624.09309
  21024586.09609 -20959954.73709 -16280105.73109  21024586.33109  21024585.39309
  22853508.74709 -12681144.38709  -9831578.89809  22853507.64409  22853507.41909
  20518106.34409 -22585681.05409 -17566098.02509  20518106.62709  20518105.54309
  22310761.18909 -15495543.05209 -12024293.88209  22310760.94509  22310759.88009
  24660433.07908  -3556296.72208  -2748786.74307  24660430.95907  24660431.53607
  24392967.35207  -4164488.31807  -3223894.66708  24392968.48508  24392965.93608
 07  1 15  2 49  0.0000000  0  9G05G09G18G29G28G26G17G22G12
  24772859.22707  -2123053.02207  -1632592.05206  24772859.26606  24772857.67306
  21074024.18809 -20776397.59509 -16164903.40709  21074024.50009  21074023.19109
  23041598.69209 -12858320.15209  -9974580.91109  23041597.62709  23041597.36309
  21035392.94509 -20903164.53209 -16235853.63309  21035393.01409  21035392.08609
  22869089.08509 -12599270.38709  -9767780.98209  22869088.26509  22869087.69809
  20527573.28909 -22535931.77209 -17527332.35109  20527573.63109  20527572.52709
  22300718.35709 -15548318.59509 -12065417.66609  22300718.37709  22300717.52709
  24648754.90808  -3617662.91708  -2796604.56207  24648753.27607  24648753.95007
  24372606.99007  -4271481.14307  -3307265.69308  24372608.29908  24372605.74008
 07  1 15  2 49 30.0000000  0  9G05G09G18G29G28G26G17G22G12
  24751460.92207  -2235494.89907  -1720209.10906  24751462.19206  24751459.92606
  21060366.24309 -20848170.54009 -16220830.36609  21060366.53609  21060365.40309
  23039684.23009 -12868379.46909  -9982419.34709  23039683.55609  23039683.51709
  21046283.36309 -20845935.47409 -16191259.57209  21046283.43109  21046282.43509
  22884712.30709 -12517168.48909  -9703805.49409  22884711.27109  22884710.90009
  20537138.90609 -22485663.97509 -17488162.63709  20537139.21809  20537138.26109
  22290770.23909 -15600595.40409 -12106152.81409  22290770.30709  22290769.78009
  24637161.43808  -3678585.80508  -2844076.91707  24637159.90407  24637160.43207
  24352272.43608  -4378341.65608  -3390533.63408  24352273.44208  24352271.44908
 07  1 15  2 50  0.0000000  0  9G05G09G18G29G28G26G17G22G12
  24730080.99207  -2347847.09607  -1807756.27706  24730082.77006  24730080.36706
  21046766.49909 -20919637.07609 -16276518.56509  21046766.94809  21046765.64909
  23037882.18408 -12877848.92808  -9989798.15109  23037881.64609  23037881.22609
  21057256.93909 -20788268.67209 -16146324.40509  21057256.98809  21057256.07009
  22900378.65609 -12434841.07209  -9639654.26709  22900377.63009  22900377.64009
  20546803.08509 -22434878.65509 -17448589.65909  20546803.33909  20546802.44109
  22280917.57809 -15652371.72509 -12146497.98509  22280917.19709  22280917.08009
  24625653.74508  -3739063.23708  -2891202.20007  24625651.39107  24625652.34807
  24331962.91807  -4485068.05407  -3473697.07408  24331964.34408  24331961.67808
 07  1 15  2 50 30.0000000  0  9G05G09G18G29G28G26G17G22G12
  24708718.62507  -2460108.18207  -1895232.48106  24708719.55306  24708717.61906
  21033225.46209 -20990795.91009 -16331966.99309  21033225.67709  21033224.52509
  23036192.45409 -12886728.35009  -9996717.18509  23036192.22009  23036191.36009
  21068313.74209 -20730165.10609 -16101048.89709  21068313.72309  21068312.83409
  22916087.89809 -12352290.02509  -9575328.77909  22916086.72609  22916086.10009
  20556565.39809 -22383576.98809 -17408614.33609  20556565.71109  20556564.79309
  22271160.36409 -15703645.33309 -12186451.43409  22271160.35409  22271159.79709
  24614229.77708  -3799093.21708  -2937978.80107  24614227.65707  24614229.12207
  24311679.58008  -4591658.98908  -3556754.93108  24311681.01608  24311678.57408
 07  1 15  2 51  0.0000000  0  9G05G09G18G29G28G26G17G22G12
  24687373.75407  -2572276.34607  -1982636.26406  24687374.75006  24687372.32806
  21019743.34909 -21061645.74409 -16387174.64009  21019743.36909  21019742.16709
  23034615.16908 -12895017.42208 -10003176.19409  23034614.62209  23034613.85009
  21079453.47909 -20671625.62109 -16055433.71409  21079453.40109  21079452.58009
  22931838.75309 -12269517.32309  -9510830.57209  22931837.88409  22931837.46409
  20566425.80609 -22331759.96709 -17368237.43609  20566426.20609  20566425.19009
  22261499.48609 -15754413.96009 -12226011.38109  22261499.20309  22261499.11509
  24602892.13208  -3858674.09208  -2984405.45007  24602889.69007  24602890.98907
  24291422.19607  -4698112.81007  -3639705.96908  24291423.59308  24291421.62908
 07  1 15  2 51 30.0000000  0  9G05G09G18G29G28G26G17G22G12
  24666046.09507  -2684350.16607  -2069966.49906  24666047.34506  24666045.32306
  21006320.06109 -21132184.74309 -16442140.07809  21006320.23709  21006319.10409
  23033150.15208 -12902716.47308 -10009175.46409  23033149.63409  23033148.83309
  21090675.96409 -20612651.38309 -16009479.76609  21090675.99309  21090675.07509
  22947631.83809 -12186524.95909  -9446161.20609  22947630.80209  22947630.26509
  20576384.12209 -22279428.57309 -17327459.72709  20576384.51309  20576383.42809
  22251935.14009 -15804675.32909 -12265176.06609  22251935.14009  22251934.29009
  24591640.03908  -3917803.66408  -3030480.43707  24591637.72407  24591639.28707
  24271190.64008  -4804428.07708  -3722549.01008  24271192.22208  24271190.23908
 07  1 15  2 52  0.0000000  0  9G05G09G18G29G28G26G17G22G12
  24644738.48007  -2796327.94707  -2157221.92506  24644738.67506  24644736.92706
  20992956.45809 -21202411.57509 -16496862.27209  20992956.59509  20992955.48109
  23031797.45208 -12909825.13408 -10014714.68709  23031796.65109  23031795.90809
  21101980.90409 -20553243.19709 -15963187.67709  21101980.90409  21101980.07409
  22963466.22309 -12103314.78909  -9381322.12409  22963464.70909  22963464.83609
  20586440.00509 -22226583.99109 -17286282.13209  20586440.51309  20586439.39909
  22242467.56909 -15854427.54509 -12303944.00509  22242467.29509  22242466.79709
  24580474.19108  -3976480.43808  -3076202.60307  24580471.33907  24580473.51707
  24250986.75808  -4910602.79208  -3805282.54408  24250987.66608  24250985.77108
 07  1 15  2 52 30.0000000  0  9G05G09G18G29G28G26G17G22G12
  24623448.37006  -2908208.39806  -2244401.52006  24623448.40906  24623445.47906
  20979652.12009 -21272325.68709 -16551340.78509  20979652.22809  20979651.36809
  23030556.95208 -12916343.77208 -10019794.15109  23030555.83809  23030555.41809
  21113368.26009 -20493402.32109 -15916558.42809  21113368.56309  21113367.42009
  22979341.61609 -12019888.88609  -9316314.91809  22979340.61909  22979340.53109
  20596593.31809 -22173227.52009 -17244705.66309  20596594.03109  20596592.57609
  22233097.21309 -15903668.78109 -12342313.77009  22233097.24209  22233096.48109
  24569394.92108  -4034702.66708  -3121570.55907  24569392.90807  24569394.27607
  24230809.99308  -5016635.75208  -3887905.62808  24230810.10008  24230808.68408
 07  1 15  2 53  0.0000000  0  9G05G09G18G29G28G26G17G22G12
  24602176.23506  -3019989.75006  -2331503.85306  24602177.31906  24602173.86106
  20966407.88709 -21341925.43109 -16605574.33509  20966408.01409  20966406.81309
  23029428.68108 -12922272.07808 -10024413.60709  23029427.89009  23029427.01109
  21124837.72009 -20433129.71909 -15869592.75709  21124837.81809  21124836.92909
  22995257.57709 -11936249.18509  -9251141.12509  22995256.56109  22995256.61909
  20606844.04209 -22119360.18509 -17202731.12009  20606844.64809  20606843.21209
  22223824.62009 -15952396.75509 -12380283.60109  22223824.40509  22223823.62309
  24558402.01308  -4092468.31308  -3166582.74007  24558400.26407  24558401.53407
  24210659.33908  -5122525.35508  -3970417.00208  24210659.68108  24210658.88008
 07  1 15  2 53 30.0000000  0  9G05G09G18G29G28G26G17G22G12
  24580924.09507  -3131670.35507  -2418527.70106  24580925.17906  24580922.15106
  20953223.54509 -21411209.44809 -16659561.86309  20953223.63209  20953222.57709
  23028412.97208 -12927610.35708 -10028573.31409  23028411.85809  23028411.09609
  21136389.20509 -20372426.26009 -15822291.35509  21136389.48809  21136388.30609
  23011214.09609 -11852397.41609  -9185802.09009  23011213.16809  23011212.98309
  20617191.81509 -22064982.95209 -17160359.25409  20617192.17609  20617190.75009
  22214650.20909 -16000609.22809 -12417851.74609  22214650.30609  22214649.10509
  24547497.25508  -4149775.35908  -3211237.56307  24547494.96007  24547496.65907
  24190537.22808  -5228269.73708  -4052815.20108  24190537.06208  24190536.53408
 07  1 15  2 54  0.0000000  0  9G05G09G18G29G28G26G17G22G12
  24559691.28707  -3243248.86707  -2505472.00306  24559692.75206  24559690.38806
  20940099.37509 -21480176.51309 -16713302.41509  20940099.61909  20940098.50609
  23027509.66708 -12932358.75208 -10032273.36909  23027508.31009  23027507.95809
  21148022.36409 -20311293.33409 -15774655.31409  21148022.60809  21148021.50409
  23027210.94009 -11768335.60109  -9120299.38109  23027210.42209  23027209.23009
  20627636.16809 -22010097.13909 -17117591.09009  20627636.62709  20627635.34709
  22205574.07709 -16048304.50809 -12455016.87409  22205573.95009  22205573.25709
  24536679.74908  -4206621.99808  -3255533.65308  24536677.13108  24536678.60608
  24170442.35108  -5333867.63008  -4135099.23408  24170442.54708  24170441.46208
 07  1 15  2 54 30.0000000  0  9G05G09G18G29G28G26G17G22G12
  24538478.65007  -3354723.63607  -2592335.46606  24538479.84206  24538477.01906
  20927036.14109 -21548825.10109 -16766794.80209  20927036.18009  20927035.18409
  23026717.72308 -12936517.29408 -10035513.77609  23026716.65809  23026716.56009
  21159737.04009 -20249731.90609 -15726685.37209  21159737.25409  21159736.30709
  23043246.28009 -11684066.02409  -9054634.77809  23043245.78209  23043245.27409
  20638177.17009 -21954703.97809 -17074427.59009  20638177.59009  20638176.30009
  22196596.91009 -16095480.60609 -12491777.45509  22196596.55809  22196596.33409
  24525950.07008  -4263006.43308  -3299469.56708  24525947.45208  24525949.15208
  24150375.60808  -5439317.32908  -4217267.82208  24150375.84208  24150375.24608
 07  1 15  2 55  0.0000000  0  9G05G09G18G29G28G26G17G22G12
  24517285.29706  -3466093.02306  -2679116.80806  24517287.29906  24517284.33906
  20914033.66609 -21617154.24709 -16820038.27709  20914033.64709  20914032.62109
  23026039.05308 -12940085.92008 -10038294.53008  23026038.24208  23026037.47008
  21171533.14509 -20187742.98509 -15678382.31709  21171533.50609  21171532.26609
  23059321.69109 -11599590.33109  -8988809.56109  23059320.74409  23059320.45109
  20648814.45809 -21898804.67109 -17030869.68409  20648814.85909  20648813.73609
  22187718.73609 -16142135.24809 -12528131.70709  22187718.67709  22187718.28609
  24515308.51308  -4318926.78808  -3343043.85708  24515306.33408  24515308.32708
  24130337.38808  -5544617.20908  -4299319.65108  24130337.53508  24130337.16308
 07  1 15  2 55 30.0000000  0  9G05G09G18G29G28G26G17G22G12
  24496112.83806  -3577355.53506  -2765814.83006  24496115.03606  24496110.44406
  20901091.90209 -21685162.72109 -16873031.88109  20901091.97109  20901090.99409
  23025471.93808 -12943064.98108 -10040615.88509  23025471.19609  23025471.21509
  21183410.54309 -20125327.73209 -15629747.06209  21183410.60209  21183409.61509
  23075435.54109 -11514910.55809  -8922825.32409  23075435.18909  23075434.65209
  20659547.87809 -21842400.30209 -16986918.22809  20659548.25909  20659547.17509
  22178940.17909 -16188266.68409 -12564078.25409  22178940.05209  22178939.96409
  24504756.12108  -4374381.52508  -3386255.32808  24504753.57108  24504755.58408
  24110329.01108  -5649765.64208  -4381253.48008  24110328.62008  24110327.93608
 07  1 15  2 56  0.0000000  0  9G05G09G18G29G28G26G17G22G12
  24474961.39106  -3688509.52906  -2852428.37006  24474963.51006  24474958.78206
  20888211.59109 -21752849.00109 -16925774.42309  20888211.74809  20888210.76109
  23025017.42409 -12945454.54709 -10042477.89109  23025015.90009  23025016.75009
  21195368.64809 -20062487.29209 -15580780.49209  21195368.71609  21195367.84709
  23091587.91709 -11430028.36009  -8856683.35109  23091587.28209  23091587.26209
  20670377.13609 -21785492.23209 -16942574.27409  20670377.56609  20670376.41309
  22170261.63209 -16233872.88609 -12599615.53909  22170261.13409  22170261.05609
  24494292.60208  -4429369.02608  -3429102.71908  24494290.11108  24494291.45008
  24090348.53208  -5754761.41908  -4463068.34108  24090348.73708  24090347.90708
 07  1 15  2 56 30.0000000  0  9G05G09G18G29G28G26G17G22G12
  24453830.31107  -3799553.64507  -2938956.27106  24453832.26406  24453827.36106
  20875392.96809 -21820211.68509 -16978264.81209  20875393.09509  20875392.01109
  23024675.04109 -12947254.95809 -10043880.81209  23024673.66409  23024674.17209
  21207407.53809 -19999222.67109 -15531483.38709  21207407.60609  21207406.61009
  23107778.68308 -11344945.89408  -8790385.32809  23107778.24309  23107777.73509
  20681301.98709 -21728081.60909 -16897838.71909  20681302.44709  20681301.19609
  22161683.25009 -16278952.12609 -12634742.19809  22161682.90809  22161682.97709
  24483917.87808  -4483887.20208  -3471584.41108  24483915.47508  24483916.94108
  24070398.28708  -5859602.65908  -4544762.80108  24070398.20908  24070396.91008
 07  1 15  2 57  0.0000000  0  9G05G09G18G29G28G26G17G22G12
  24432721.47307  -3910486.08307  -3025397.13006  24432723.01706  24432718.51306
  20862636.09109 -21887249.85109 -17030502.33309  20862636.24709  20862635.04609
  23024444.39908 -12948466.24808 -10044824.67909  23024443.74509  23024443.26609
  21219526.85009 -19935535.19609 -15481856.78709  21219526.89909  21219525.96109
  23124007.08608 -11259665.09308  -8723932.76409  23124006.53009  23124006.12909
  20692322.17809 -21670169.78209 -16852712.62009  20692322.60809  20692321.40709
  22153205.62909 -16323502.37609 -12669456.66409  22153205.08209  22153205.12109
  24473632.99408  -4537934.57008  -3513699.24308  24473630.75708  24473632.30108
  24050477.23908  -5964287.86108  -4626335.66108  24050477.66908  24050476.05708
 07  1 15  2 57 30.0000000  0  9G05G09G18G29G28G26G17G22G12
  24411633.45307  -4021305.55407  -3111749.98106  24411635.32806  24411629.95506
  20849941.03809 -21953962.19209 -17082485.96009  20849941.26209  20849940.10009
  23024326.13309 -12949088.94209 -10045309.89909  23024325.13709  23024324.91209
  21231726.45009 -19871425.99709 -15431901.57509  21231726.54709  21231725.52209
  23140272.73708 -11174188.06508  -8657327.28309  23140272.05309  23140271.70209
  20703437.51409 -21611758.08309 -16807197.01409  20703437.97309  20703436.81009
  22144829.20009 -16367521.93909 -12703757.61109  22144828.22309  22144828.76009
  24463437.87308  -4591509.35808  -3555445.82408  24463435.65508  24463437.10108
  24030586.07308  -6068815.86408  -4707786.03908  24030586.32708  24030585.02808
 07  1 15  2 58  0.0000000  0  9G05G09G18G29G28G26G17G22G12
  24390566.19906  -4132010.42706  -3198013.53306  24390568.38706  24390563.58106
  20837308.52209 -22020347.24309 -17134214.55509  20837308.67809  20837307.54509
  23024319.54909 -12949123.04209 -10045336.47309  23024318.23109  23024318.30909
  21244006.04309 -19806896.21009 -15381618.62709  21244006.13009  21244004.99709
  23156575.64408 -11088516.40308  -8590570.15709  23156575.18509  23156574.45309
  20714647.88609 -21552847.63409 -16761292.77409  20714648.36509  20714647.10409
  22136553.91209 -16411008.65009 -12737643.35609  22136553.16009  22136553.46209
  24453333.26508  -4644609.96308  -3596822.92108  24453331.27208  24453332.23908
  24010725.80408  -6173184.45808  -4789112.18908  24010725.76508  24010724.55408
 07  1 15  2 58 30.0000000  0  9G05G09G18G29G28G26G17G22G12
  24369522.05807  -4242599.02707  -3284186.44306  24369523.71906  24369519.12806
  20824738.32909 -22086403.67709 -17185687.08909  20824738.48509  20824737.39109
  23024424.86309 -12948569.08409 -10044904.81309  23024423.60209  23024423.51409
  21256365.60909 -19741946.96109 -15331008.82909  21256365.64809  21256364.33009
  23172914.78308 -11002652.16708  -8523662.95609  23172914.07909  23172914.15709
  20725952.81609 -21493439.89309 -16715001.02909  20725953.18709  20725952.16209
  22128380.33309 -16453960.53709 -12771112.32809  22128379.41509  22128379.95209
  24443319.40508  -4697234.36308  -3637828.94208  24443317.29508  24443318.36008
  23990895.14408  -6277392.51208  -4870313.24708  23990895.55408  23990894.34308
 07  1 15  2 59  0.0000000  0  9G05G09G18G29G28G26G17G22G12
  24348499.81807  -4353070.00107  -3370267.76506  24348502.12306  24348497.51306
  20812231.01509 -22152130.11509 -17236902.48409  20812231.06409  20812230.01809
  23024642.18008 -12947427.32408 -10044015.13409  23024641.09609  23024640.76409
  21268804.44709 -19676579.74209 -15280073.34509  21268804.58409  21268803.35309
  23189290.49408 -10916597.21408  -8456607.14309  23189290.03509  23189289.80009
  20737352.10909 -21433536.13609 -16668322.77709  20737352.50009  20737351.40609
  22120308.97009 -16496376.07109 -12804163.37609  22120307.76909  22120308.34509
  24433395.75708  -4749381.40108  -3678462.98408  24433393.96008  24433395.07308
  23971096.04508  -6381438.67808  -4951388.17608  23971096.26008  23971095.32208
 07  1 15  2 59 30.0000000  0  9G05G09G18G29G28G26G17G22G12
  24327501.40307  -4463421.85107  -3456256.19306  24327503.10206  24327498.28706
  20799786.79509 -22217525.58509 -17287859.98509  20799786.73609  20799785.65209
  23024970.98509 -12945698.41309 -10042667.92809  23024970.27209  23024969.94909
  21281322.76009 -19610795.56909 -15228812.95709  21281323.00409  21281321.62709
  23205702.45608 -10830353.68008  -8389404.40609  23205701.77209  23205701.05909
  20748845.53109 -21373137.76709 -16621259.11809  20748845.87309  20748844.78909
  22112339.87309 -16538253.60509 -12836795.19809  22112339.06309  22112339.23809
  24423564.01008  -4801049.02408  -3718723.48208  24423562.12508  24423562.79908
  23951327.72608  -6485321.24508  -5032335.61808  23951328.42008  23951327.25808
 07  1 15  3  0  0.0000000  0  9G05G09G18G29G28G26G17G22G12
  24306524.71207  -4573652.63907  -3542150.29506  24306526.28506  24306522.49506
  20787405.52309 -22282588.66509 -17338558.47909  20787405.67909  20787404.51709
  23025412.00909 -12943382.21609 -10040863.10209  23025410.90509  23025410.64109
  21293920.14909 -19544595.48109 -15177228.47709  21293920.46109  21293919.26909
  23222149.94508 -10743922.99408  -8322055.82709  23222148.71409  23222148.28409
  20760432.83709 -21312245.84109 -16573810.86609  20760433.29609  20760432.06509
  22104473.44209 -16579591.02309 -12869006.16109  22104473.01209  22104472.82709
  24413823.37308  -4852235.58408  -3758609.10908  24413821.75208  24413822.45508
  23931591.43908  -6589038.30908  -5113154.09108  23931591.48708  23931590.80408
 07  1 15  3  0 30.0000000  0  9G05G09G18G29G28G26G17G22G12
  24285572.00407  -4683761.11607  -3627949.09307  24285573.72307  24285569.92307
  20775087.97009 -22347318.02709 -17388996.93009  20775088.12609  20775086.96409
  23025964.29509 -12940479.23509 -10038601.04509  23025963.25009  23025963.02509
  21306596.65109 -19477980.89009 -15125321.00109  21306596.87609  21306595.54809
  23238632.08308 -10657307.15208  -8254562.96309  23238631.60409  23238630.82309
  20772113.78209 -21250862.07909 -16525979.36509  20772114.20209  20772112.96209
  22096710.31209 -16620386.77209 -12900795.04809  22096709.89209  22096709.33509
  24404174.71608  -4902939.67508  -3798118.78308  24404172.91808  24404173.53408
  23911886.28208  -6692588.51708  -5193842.53808  23911886.47808  23911885.81408
 07  1 15  3  1  0.0000000  0  9G05G09G18G29G28G26G17G22G12
  24264642.46507  -4793745.68307  -3713651.34507  24264644.21407  24264640.91207
  20762834.11709 -22411712.34709 -17439174.30809  20762834.22409  20762833.07109
  23026628.33209 -12936990.18309 -10035882.29809  23026627.11109  23026627.28709
  21319351.55509 -19410953.06609 -15073091.53209  21319351.69209  21319350.41309
  23255149.37808 -10570508.08108  -8186927.34509  23255148.31309  23255148.12709
  20783888.17309 -21188987.75709 -16477765.60909  20783888.56309  20783887.27409
  22089050.72709 -16660639.00009 -12932160.41309  22089050.23909  22089049.59409
  24394618.19408  -4953159.46708  -3837251.08308  24394616.62108  24394617.21708
  23892213.26408  -6795970.62608  -5274400.01108  23892213.47908  23892212.48308
 07  1 15  3  1 30.0000000  0  9G05G09G18G29G28G26G17G22G12
  24243737.48507  -4903604.90607  -3799255.92307  24243738.63807  24243736.02007
  20750644.14909 -22475770.25709 -17489089.55109  20750644.44209  20750643.36809
  23027403.66109 -12932915.36309 -10032707.11909  23027402.45909  23027402.81109
  21332184.79209 -19343513.37209 -15020541.12909  21332184.89009  21332183.92309
  23271701.23308 -10483527.94708  -8119150.61509  23271700.42209  23271700.02209
  20795755.40209 -21126624.25009 -16429170.67309  20795755.98809  20795754.59109
  22081494.47209 -16700346.21209 -12963101.09309  22081494.22809  22081493.82809
  24385153.84708  -5002893.36708  -3876004.75508  24385152.50808  24385153.25108
  23872572.57008  -6899183.18908  -5354825.38908  23872572.49208  23872572.18908
 07  1 15  3  2  0.0000000  0  9G05G09G18G29G28G26G17G22G12
  24222855.90008  -5013337.22908  -3884761.59107  24222856.90607  24222854.94307
  20738518.73109 -22539490.49109 -17538741.67009  20738518.83809  20738517.69509
  23028290.57309 -12928255.30609 -10029075.91709  23028289.32309  23028289.29409
  21345096.38209 -19275662.93009 -14967670.65709  21345096.51809  21345095.31709
  23288287.24808 -10396368.37908  -8051234.09409  23288286.59409  23288285.82209
  20807715.62709 -21063773.08809 -16380195.74609  20807716.16409  20807714.88409
  22074042.32909 -16739506.58409 -12993615.65909  22074042.63209  22074041.51909
  24375782.90508  -5052140.43808  -3914379.09008  24375781.32208  24375782.28908
  23852964.22908  -7002224.37908  -5435117.19908  23852964.61008  23852964.18008
 07  1 15  3  2 30.0000000  0  9G05G09G18G29G28G26G17G22G12
  24201999.06807  -5122941.01007  -3970167.13907  24201999.91807  24201997.83707
  20726457.66709 -22602871.85109 -17588129.73109  20726457.75509  20726456.70009
  23029288.54309 -12923010.49509 -10024989.05609  23029287.54709  23029287.39109
  21358085.81609 -19207403.09109 -14914481.17909  21358085.67909  21358084.77009
  23304907.02308 -10309031.50908  -7983179.40009  23304905.62609  23304905.29409
  20819768.63109 -21000435.39609 -16330841.71109  20819769.02209  20819767.84009
  22066694.89409 -16778118.28109 -13023702.67909  22066695.07009  22066694.18109
  24366504.82108  -5100898.52608  -3952372.40408  24366502.94608  24366503.92308
  23833389.37408  -7105092.81308  -5515274.39708  23833389.24708  23833389.20708
 07  1 15  3  3  0.0000000  0  9G05G09G18G29G28G26G17G22G12
  24181166.79408  -5232414.77108  -4055471.33307  24181167.85907  24181165.79807
  20714461.22109 -22665913.12409 -17637252.79509  20714461.48509  20714460.29309
  23030397.94209 -12917181.47609 -10020446.98209  23030396.62309  23030396.54509
  21371152.99609 -19138735.03409 -14860973.60909  21371152.78109  21371151.82409
  23321560.01108 -10221518.91108  -7914987.77609  23321559.45409  23321558.84809
  20831913.57609 -20936612.86809 -16281109.88009  20831914.09409  20831912.86309
  22059451.83409 -16816179.70009 -13053360.91809  22059451.69709  22059451.20909
  24357319.45008  -5149166.16908  -3989983.52908  24357317.84808  24357318.60008
  23813847.41808  -7207786.91708  -5595295.75708  23813847.10608  23813847.04708
 07  1 15  3  3 30.0000000  0  9G05G09G18G29G28G26G17G22G12
  24160359.91808  -5341756.98008  -4140673.04107  24160360.48407  24160359.47807
  20702530.01909 -22728612.82009 -17686109.69209  20702530.12609  20702529.05209
  23031617.91809 -12910769.10409 -10015450.33209  23031616.97109  23031616.69709
  21384297.21009 -19069660.28209 -14807149.13209  21384297.29809  21384296.53609
  23338246.00608 -10133832.66508  -7846660.84709  23338245.08709  23338245.13609
  20844150.51109 -20872307.02509 -16231001.44309  20844151.10709  20844149.82709
  22052314.22409 -16853689.29409 -13082589.17109  22052314.06809  22052312.92509
  24348228.26608  -5196941.84008  -4027211.31508  24348226.35108  24348227.17208
  23794338.42208  -7310305.32508  -5675180.21408  23794338.33408  23794338.36308
 07  1 15  3  4  0.0000000  0  9G05G09G18G29G28G26G17G22G12
  24139577.68708  -5450966.22108  -4225771.14807  24139578.79107  24139576.89607
  20690663.84509 -22790969.97709 -17734699.67609  20690663.90309  20690662.79009
  23032949.25409 -12903773.42309 -10009999.16609  23032948.09209  23032947.88709
  21397519.16209 -19000180.08709 -14753008.72609  21397518.87809  21397518.22409
  23354965.40808 -10045974.32508  -7778199.80509  23354963.70909  23354963.88509
  20856479.30709 -20807519.37409 -16180517.57209  20856479.78609  20856478.53509
  22045281.46809 -16890645.16009 -13111385.93009  22045281.37009  22045280.57909
  24339230.41908  -5244224.17208  -4064054.67808  24339228.61208  24339229.90108
  23774863.71208  -7412646.49908  -5754926.56908  23774862.88208  23774863.74108
 07  1 15  3  4 30.0000000  0  9G05G09G18G29G28G26G17G22G12
  24118821.72408  -5560040.82608  -4310764.29307  24118822.55407  24118820.62007
  20678862.93309 -22852982.94509 -17783021.46109  20678863.33409  20678862.16109
  23034391.30609 -12896195.14609 -10004094.02609  23034390.30009  23034390.22209
  21410817.77509 -18930295.71409 -14698553.37709  21410817.64809  21410816.80809
  23371716.58808  -9957945.93708  -7709606.27909  23371715.57209  23371715.16209
  20868899.32109 -20742251.04009 -16129659.13609  20868899.93609  20868898.54909
  22038354.72909 -16927046.03109 -13139750.22909  22038354.40609  22038354.03509
  24330327.11008  -5291011.54108  -4100512.34008  24330325.36208  24330326.15308
  23755422.53708  -7514808.96508  -5834533.66008  23755422.37108  23755422.66408
 07  1 15  3  5  0.0000000  0  9G05G09G18G29G28G26G17G22G12
  24098091.10008  -5668979.29508  -4395651.43307  24098091.56907  24098090.36707
  20667127.89009 -22914650.58209 -17831074.16109  20667128.28109  20667127.09909
  23035944.05309 -12888035.08409  -9997735.54709  23035943.20309  23035942.79309
  21424192.85609 -18860008.59709 -14643784.19609  21424192.75809  21424191.97709
  23388499.26108  -9869749.39208  -7640881.70008  23388498.37208  23388498.82108
  20881410.54209 -20676503.75509 -16078427.49309  20881411.04009  20881409.66309
  22031533.75209 -16962890.25709 -13167680.78709  22031533.19509  22031532.66709
  24321518.05708  -5337302.56008  -4136583.24208  24321516.30908  24321517.23708
  23736015.96308  -7616790.94908  -5914000.12908  23736015.60108  23736016.24608
 07  1 15  3  5 30.0000000  0  9G05G09G18G29G28G26G17G22G12
  24077387.21208  -5777780.20708  -4480431.33507  24077388.31607  24077385.86407
  20655459.10609 -22975971.59109 -17878856.75909  20655459.28209  20655458.19709
  23037607.55509 -12879293.91909  -9990924.26609  23037606.46009  23037606.38209
  21437644.48209 -18789319.98509 -14588702.16709  21437644.58009  21437643.63209
  23405314.37508  -9781386.36808  -7572027.40709  23405313.87609  23405313.75009
  20894012.79509 -20610279.06109 -16026823.84209  20894013.23509  20894011.92609
  22024819.13309 -16998176.40309 -13195176.47009  22024818.74209  22024818.20509
  24312804.35308  -5383095.77508  -4172266.24708  24312802.21408  24312803.34708
  23716644.28008  -7718591.46608  -5993325.18508  23716643.86008  23716644.11408
 07  1 15  3  6  0.0000000  0  9G05G09G18G29G28G26G17G22G12
  24056708.82008  -5886441.94908  -4565102.78907  24056710.77307  24056708.36007
  20643856.33709 -23036944.56709 -17926368.16109  20643856.45409  20643855.30109
  23039381.65409 -12869972.46509  -9983660.81309  23039379.89509  23039380.21809
  21451172.13609 -18718231.41609 -14533308.48109  21451172.14509  21451171.27609
  23422161.09908  -9692858.73008  -7503044.85908  23422159.84908  23422159.82908
  20906705.52309 -20543578.41609 -15974849.32209  20906705.85609  20906704.67409
  22018210.96109 -17032902.66309 -13222235.87409  22018210.25809  22018210.22909
  24304184.99308  -5428389.67808  -4207560.18808  24304182.77608  24304184.29008
  23697306.99308  -7820208.59608  -6072507.34308  23697306.75808  23697306.85608
 07  1 15  3  6 30.0000000  0  9G05G09G18G29G28G26G17G22G12
  24036058.08208  -5994963.03908  -4649664.66007  24036059.28307  24036057.31007
  20632320.11009 -23097568.51309 -17973607.59309  20632320.13909  20632319.08409
  23041265.33508 -12860071.29008  -9975945.62209  23041264.32909  23041264.31909
  21464775.68009 -18646744.18509 -14477604.14909  21464775.97309  21464774.74209
  23439038.06608  -9604168.43308  -7433935.53308  23439037.02108  23439036.73808
  20919488.54109 -20476403.36009 -15922505.12809  20919488.89309  20919487.94509
  22011709.59709 -17067067.83809 -13248858.06809  22011709.06909  22011708.65909
  24295661.20708  -5473182.95208  -4242464.02408  24295658.94008  24295660.18108
  23678004.97908  -7921641.00508  -6151545.54408  23678004.93008  23678004.53908
 07  1 15  3  7  0.0000000  0  9G05G09G18G29G28G26G17G22G12
  24015434.49008  -6103341.98308  -4734115.78807  24015435.59407  24015433.40607
  20620850.34709 -23157842.15409 -18020574.05709  20620850.50409  20620849.28309
  23043259.25308 -12849591.09108  -9967779.24609  23043258.55009  23043258.67709
  21478454.74409 -18574859.74709 -14421590.31309  21478454.94909  21478453.86509
  23455945.49208  -9515317.35408  -7364700.94009  23455945.37409  23455945.02309
  20932361.60409 -20408755.61109 -15869792.59809  20932361.91609  20932360.88109
  22005315.08909 -17100670.37509 -13275041.84809  22005314.88409  22005314.39609
  24287232.71108  -5517474.23908  -4276976.69208  24287230.42508  24287231.76408
  23658738.19008  -8022887.21508  -6230438.69408  23658738.24908  23658737.90708
 07  1 15  3  7 30.0000000  0  9G05G09G18G29G28G26G17G22G12
  23994837.58608  -6211577.34508  -4818454.99507  23994839.42207  23994836.73607
  20609447.43009 -23217764.30209 -18067266.63009  20609447.69409  20609446.47309
  23045363.91508 -12838532.54508  -9959162.21409  23045363.20209  23045362.96809
  21492209.24909 -18502579.59309 -14365268.12009  21492209.35709  21492208.37009
  23472883.77508  -9426307.26208  -7295342.46008  23472883.06208  23472882.50508
  20945324.11609 -20340636.47909 -15816712.75709  20945324.63409  20945323.56909
  21999028.09309 -17133708.82409 -13300786.08909  21999027.84809  21999027.42809
  24278900.21008  -5561262.15808  -4311097.11908  24278897.76808  24278899.09608
  23639507.28108  -8123945.85408  -6309185.66909  23639507.48609  23639507.27109
 07  1 15  3  8  0.0000000  0  9G05G09G18G29G28G26G17G22G12
  23974269.17608  -6319667.42008  -4902681.01207  23974269.79107  23974268.10107
  20598111.97409 -23277333.21409 -18113683.95509  20598112.09109  20598110.71309
  23047578.46208 -12826896.43208  -9950095.13309  23047577.59309  23047577.05609
  21506038.86409 -18429904.89409 -14308638.49409  21506038.87409  21506038.06309
  23489851.75508  -9337139.80808  -7225861.32608  23489851.41308  23489850.94408
  20958376.12609 -20272047.73009 -15763266.99009  20958376.68309  20958375.42309
  21992848.84209 -17166181.72909 -13326089.64109  21992848.72409  21992847.95309
  24270663.83008  -5604545.01808  -4344824.00708  24270661.28008  24270662.94108
  23620312.65108  -8224815.40608  -6387785.29409  23620312.26009  23620312.14309
 07  1 15  3  8 30.0000000  0  9G05G09G18G29G28G26G17G22G12
  23953727.59008  -6427611.02208  -4986792.88207  23953729.03607  23953726.93607
  20586843.75309 -23336548.19509 -18159825.48909  20586843.75309  20586842.66909
  23049902.21008 -12814683.70908  -9940578.73909  23049901.34109  23049901.09709
  21519943.26509 -18356837.41309 -14251702.80909  21519943.12909  21519942.37609
  23506849.33308  -9247817.12708  -7156259.26908  23506849.58708  23506847.90708
  20971517.03909 -20202990.98709 -15709456.55109  20971517.86909  20971516.22809
  21986777.10209 -17198087.78909 -13350951.48709  21986777.06309  21986776.57409
  24262523.49208  -5647322.06308  -4378156.75508  24262520.92308  24262522.59408
  23601153.43208  -8325494.79208  -6466236.75909  23601153.75409  23601153.38309
 07  1 15  3  9  0.0000000  0  9G05G09G18G29G28G26G17G22G12
  23933215.41708  -6535406.30908  -5070789.18508  23933216.63808  23933214.35208
  20575643.13009 -23395407.37909 -18205689.77609  20575643.25709  20575642.11409
  23052336.05808 -12801895.02608  -9930613.53809  23052334.92509  23052334.54409
  21533922.05309 -18283378.24809 -14194461.90809  21533921.82909  21533921.56509
  23523876.18708  -9158340.54508  -7086537.26708  23523875.66908  23523875.14108
  20984746.86309 -20133467.76409 -15655282.62409  20984747.59609  20984745.88609
  21980814.12309 -17229425.19309 -13375370.23009  21980813.74209  21980813.14609
  24254479.67708  -5689591.44008  -4411093.92608  24254477.55708  24254478.89508
  23582031.75208  -8425982.08508  -6544538.52909  23582032.02609  23582031.63509
 07  1 15  3  9 30.0000000  0  9G05G09G18G29G28G26G17G22G12
  23912730.73208  -6643052.00108  -5154668.93707  23912732.03107  23912729.59907
  20564510.41609 -23453910.14709 -18251276.34809  20564510.49409  20564509.52709
  23054878.89208 -12788531.53208  -9920200.43609  23054878.05209  23054877.81809
  21547975.17909 -18209529.10209 -14136917.11709  21547975.13009  21547974.54409
  23540932.06208  -9068712.23408  -7016697.06908  23540931.78908  23540930.23608
  20998065.19909 -20063479.64609 -15600746.44509  20998065.75609  20998064.41809
  21974959.23209 -17260192.59209 -13399344.81409  21974958.83209  21974958.56809
  24246533.18408  -5731352.08808  -4443634.66808  24246530.77108  24246532.32408
  23562946.62608  -8526275.88208  -6622689.50409  23562946.91009  23562945.78609
 07  1 15  3 10  0.0000000  0  9G05G09G18G29G28G26G17G22G12
  23892275.32308  -6750546.57408  -5238430.92708  23892276.51508  23892274.58108
  20553445.89609 -23512054.72909 -18296583.80909  20553445.98409  20553444.92909
  23057531.12208 -12774593.98408  -9909340.01909  23057530.60509  23057530.01909
  21562102.25109 -18135291.36109 -14079069.53209  21562102.03609  21562101.38209
  23558016.06108  -8978933.96708  -6946739.99608  23558015.66108  23558014.74308
  21011471.88109 -19993028.34309 -15545849.33709  21011472.28109  21011470.78709
  21969212.91709 -17290389.19209 -13422874.62509  21969212.71209  21969212.44809
  24238683.03708  -5772602.79708  -4475778.06608  24238680.81008  24238682.44108
  23543898.21008  -8626374.76308  -6700688.61409  23543898.32709  23543897.85909
 07  1 15  3 10 30.0000000  0  9G05G09G18G29G28G26G17G22G12
  23871848.68208  -6857888.51108  -5322073.99308  23871849.95208  23871848.04708
  20542449.43309 -23569839.89609 -18341611.20909  20542449.78409  20542448.61209
  23060292.17308 -12760083.62108  -9898033.25309  23060291.83109  23060291.21609
  21576302.72409 -18060666.60009 -14020920.37309  21576302.79209  21576302.05009
  23575129.58008  -8889007.36408  -6876667.34608  23575128.56508  23575126.99208
  21024966.26309 -19922115.52209 -15490592.60409  21024966.41009  21024965.35509
  21963575.59809 -17320013.34709 -13445958.37709  21963575.20709  21963575.25609
  24230930.82808  -5813342.20208  -4507523.04208  24230928.72808  24230929.88008
  23524887.41208  -8726277.53608  -6778534.93109  23524887.56909  23524886.73809
