     2.10           Observation data    G (GPS)             RINEX VERSION / TYPE
sbf2rin                                 (16-JAN-07 00:59)   PGM / RUN BY / DATE 
LLI: only bit 0 (loss of lock bit) supported                COMMENT             
UTC2                                                        MARKER NAME         
Unknown                                                     MARKER NUMBER       
Unknown             Unknown                                 OBSERVER / AGENCY   
1271                SEPT POLARX2        2.6.0               REC # / TYPE / VERS 
Unknown             Unknown                                 ANT # / TYPE        
  4186742.4829   834904.0974  4723617.9689                  APPROX POSITION XYZ 
        0.0000        0.0000        0.0000                  ANTENNA: DELTA H/E/N
     1     1                                                WAVELENGTH FACT L1/2
     5    C1    L1    L2    P2    P1                        # / TYPES OF OBSERV 
    30.000                                                  INTERVAL            
  2007     1    15     0     0    0.0000000     GPS         TIME OF FIRST OBS   
  2007     1    15    23    59   30.0000000     GPS         TIME OF LAST OBS    
                                                            COMMENT             
                                                            END OF HEADER       
 07  1 15  0  0  0.0000000  0  9G13G08G24G29G10G28G26G21G27
  24649812.76807  -2685610.06907  -1854366.78506  24649811.80106  24649811.71306
  20471966.64309 -26472698.32209 -20587662.30609  20471966.42809  20471965.37309
  24174467.87308  -6097668.96608  -4673049.31207  24174469.23107  24174467.05307
  21982721.36609 -15924934.10809 -12356949.49009  21982720.82909  21982720.69209
  20675993.26809 -22824464.68909 -17728911.96309  20675993.40409  20675991.69509
  22058248.54209 -16875021.97209 -13088291.87109  22058247.40909  22058247.30109
  22602396.31309 -11659997.92009  -9047823.23309  22602396.69409  22602395.82509
  25095196.69307  -1082724.89807   -810755.35406  25095194.89606  25095195.36406
  22374520.46109 -14007595.09909 -10849280.70009  22374521.03809  22374519.04509
 07  1 15  0  0 30.0000000  0  9G13G08G24G29G10G28G26G21G27
  24668360.62107  -2588140.43307  -1778416.42006  24668358.74606  24668359.04906
  20477958.11609 -26441212.80709 -20563128.13709  20477957.89209  20477956.90509
  24188646.44508  -6023161.52308  -4614991.58908  24188647.52908  24188645.04808
  21969469.75809 -15994571.66809 -12411212.51909  21969469.37709  21969469.09309
  20679476.67209 -22806159.05409 -17714647.84209  20679476.87709  20679475.19709
  22045114.78009 -16944039.64809 -13142071.87609  22045113.85209  22045113.57809
  22584914.72009 -11751864.87909  -9119407.86509  22584915.07209  22584913.81209
  25086846.42307  -1126600.01207   -844943.75806  25086845.71006  25086845.92506
  22387441.87809 -13939693.20709 -10796370.14609  22387442.60109  22387440.23709
 07  1 15  0  1  0.0000000  0  9G13G08G24G29G10G28G26G21G27
  24686924.44607  -2490584.49307  -1702398.85106  24686923.09806  24686922.86406
  20484030.43209 -26409302.39609 -20538262.88209  20484030.22709  20484029.20209
  24202873.03808  -5948400.32808  -4556736.14408  24202874.96208  24202872.20808
  21956254.77109 -16064016.86509 -12465325.65509  21956254.42009  21956253.98009
  20683072.52109 -22787263.28709 -17699923.87909  20683072.70709  20683070.89009
  22032058.08109 -17012652.93909 -13195536.77009  22032056.96709  22032056.97709
  22567467.21008 -11843551.21808  -9190851.73809  22567467.83509  22567466.37009
  25078591.68807  -1169979.73907   -878746.15006  25078590.73106  25078591.09206
  22400395.86209 -13871620.36209 -10743326.38509  22400396.20409  22400394.12309
 07  1 15  0  1 30.0000000  0  9G13G08G24G29G10G28G26G21G27
  24705504.41807  -2392942.62707  -1626314.25206  24705504.50606  24705504.22306
  20490183.35809 -26376968.17009 -20513067.38109  20490183.28909  20490182.33209
  24217147.37908  -5873388.16708  -4498285.18908  24217149.49908  24217146.65608
  21943076.59209 -16133268.40409 -12519287.89209  21943076.29909  21943075.70309
  20686780.69709 -22767777.44909 -17684740.11809  20686780.70709  20686779.15409
  22019078.92309 -17080859.37909 -13248684.64409  22019077.52609  22019077.60509
  22550054.59208 -11935055.20208  -9262153.52409  22550054.77709  22550053.84909
  25070431.21807  -1212862.52807   -912161.34706  25070430.86606  25070430.88606
  22413381.98409 -13803377.62809 -10690150.23809  22413382.35509  22413380.22609
 07  1 15  0  2  0.0000000  0 10G13G08G24G29G10G28G26G19G21G27
  24724102.11107  -2295215.72107  -1550163.43106  24724101.21206  24724101.33906
  20496416.90209 -26344211.50009 -20487542.70009  20496416.62809  20496415.60209
  24231469.46808  -5798127.61508  -4439640.66308  24231471.55808  24231468.33508
  21929935.68009 -16202325.19809 -12573098.37609  21929935.16209  21929934.75209
  20690600.85809 -22747702.00609 -17669096.92309  20690600.82909  20690599.35409
  22006177.38609 -17148657.11109 -13301514.05009  22006176.29209  22006176.00809
  22532677.03208 -12026375.68408  -9333312.32709  22532677.42309  22532676.21209
  25253860.49808    -25160.22208     -7017.10007  25253855.63407  25253859.28707
  25062366.13707  -1255247.44007   -945188.57006  25062365.44306  25062365.20906
  22426400.32309 -13734966.30109 -10636842.71909  22426400.73309  22426398.98509
 07  1 15  0  2 30.0000000  0 10G13G08G24G29G10G28G26G19G21G27
  24742714.60207  -2197404.49607  -1473946.89206  24742713.87906  24742714.27006
  20502730.25309 -26311033.72909 -20461689.89309  20502730.22409  20502729.08109
  24245837.57608  -5722621.98808  -4380805.15108  24245839.44108  24245836.82308
  21916831.93609 -16271186.23109 -12626756.32109  21916831.40909  21916831.05709
  20694533.14009 -22727037.35109 -17652994.60009  20694533.10109  20694531.78309
  21993354.15209 -17216044.09309 -13354023.38009  21993353.18409  21993352.99909
  22515334.46408 -12117511.11208  -9404326.93509  22515334.99109  22515333.66309
  25247238.48408    -59959.22008    -34133.26507  25247234.70407  25247237.00007
  25054395.01807  -1297132.89107   -977826.61506  25054395.23206  25054394.38306
  22439450.70209 -13666387.54209 -10583404.73409  22439450.60409  22439448.84609
 07  1 15  0  3  0.0000000  0 10G13G08G24G29G10G28G26G19G21G27
  24761344.40307  -2099509.47007  -1397665.06906  24761342.65406  24761344.00206
  20509123.58909 -26277436.26809 -20435510.05509  20509123.55009  20509122.42609
  24260251.58508  -5646873.68308  -4321780.51108  24260253.77308  24260251.46808
  21903765.64509 -16339850.38809 -12680260.85809  21903765.01909  21903764.58009
  20698577.70109 -22705783.59809 -17636433.24309  20698577.55509  20698576.09909
  21980609.38709 -17283017.67309 -13406210.58209  21980608.37109  21980608.38109
  22498027.26608 -12208460.14008  -9475196.28409  22498028.04809  22498026.70009
  25240702.98908    -94301.94608    -60893.81408  25240700.45908  25240701.38708
  25046519.72707  -1338517.85707  -1010074.64906  25046519.80506  25046518.62306
  22452532.31009 -13597642.44909 -10529837.14009  22452532.20309  22452530.76709
 07  1 15  0  3 30.0000000  0 10G13G08G24G29G10G28G26G19G21G27
  24779988.18207  -2001531.44707  -1321318.56906  24779986.24806  24779989.06106
  20515596.70309 -26243420.23209 -20409004.05709  20515596.64409  20515595.42309
  24274712.21008  -5570885.68108  -4262569.12808  24274713.86108  24274711.26208
  21890736.89309 -16408316.47209 -12733611.05309  21890736.49209  21890735.89709
  20702733.92509 -22683941.42209 -17619413.37709  20702734.05209  20702732.48909
  21967943.79609 -17349576.33309 -13458074.47609  21967942.67209  21967942.92609
  22480756.06608 -12299221.24308  -9545919.20709  22480756.92509  22480755.47009
  25234253.85706   -128186.53006    -87297.37607  25234252.79207  25234252.31307
  25038740.91807  -1379400.83407  -1041931.52806  25038739.63906  25038739.33606
  22465645.37309 -13528732.45609 -10476141.05109  22465645.43209  22465644.19109
 07  1 15  0  4  0.0000000  0 10G13G08G24G29G10G28G26G19G21G27
  24798649.67107  -1903471.09407  -1244907.90106  24798646.96606  24798649.59306
  20522149.04809 -26208987.07309 -20382173.02609  20522149.05809  20522147.77909
  24289216.73408  -5494660.84108  -4203173.21408  24289218.97108  24289215.90308
  21877746.23809 -16476583.42809 -12786806.08509  21877745.75009  21877745.04609
  20707002.26009 -22661511.43709 -17601935.47809  20707002.29909  20707000.60909
  21955357.50409 -17415718.14609 -13509613.55109  21955356.66409  21955356.36109
  22463520.92009 -12389792.89409  -9616494.50909  22463521.34009  22463520.10909
  25227894.50606   -161611.61906   -113342.65306  25227892.47406  25227890.44206
  25031057.08807  -1419780.82507  -1073396.48306  25031054.42106  25031056.09206
  22478789.88009 -13459658.83009 -10422317.46309  22478789.49909  22478788.40509
 07  1 15  0  4 30.0000000  0 10G13G08G24G29G10G28G26G19G21G27
  24817324.76807  -1805329.08807  -1168433.60006  24817322.79506  24817325.85306
  20528780.52809 -26174138.18509 -20355018.05209  20528780.58709  20528779.24809
  24303766.92508  -5418201.82508  -4143594.79007  24303768.18507  24303765.00007
  21864793.45509 -16544650.08509 -12839845.04009  21864793.03509  21864792.68409
  20711382.32609 -22638493.92209 -17583999.76909  20711382.38509  20711380.71509
  21942850.76609 -17481440.85309 -13560826.04809  21942849.65309  21942850.12209
  22446322.09309 -12480173.68709  -9686921.10609  22446322.26909  22446321.40009
  25221621.56608   -194574.96908   -139028.29808  25221619.52408  25221618.94808
  25023468.84207  -1459656.18207  -1104468.22006  25023466.72206  25023467.94306
  22491964.77709 -13390422.68909 -10368367.23509  22491964.93309  22491964.18109
 07  1 15  0  5  0.0000000  0 10G13G08G24G29G10G28G26G19G21G27
  24836015.79807  -1707106.38107  -1091896.46106  24836013.95106  24836015.70006
  20535490.86809 -26138875.19609 -20327540.40109  20535490.98509  20535489.58809
  24318359.23707  -5341512.07607  -4083836.56107  24318361.85507  24318358.74907
  21851879.09209 -16612515.57609 -12892727.23709  21851878.71109  21851878.18309
  20715874.05609 -22614889.56109 -17565606.77009  20715874.34909  20715872.43409
  21930424.43209 -17546742.58109 -13611710.51109  21930423.37709  21930423.29009
  22429159.81009 -12570362.28709  -9757197.93709  22429160.07409  22429159.10709
  25215437.45008   -227075.25908   -164353.20208  25215434.74408  25215435.59408
  25015977.48807  -1499025.43507  -1135145.56006  25015975.20206  25015976.43306
  22505170.86409 -13321025.47409 -10314291.49209  22505170.23909  22505169.80909
 07  1 15  0  5 30.0000000  0 10G13G08G24G29G10G28G26G19G21G27
  24854722.50508  -1608803.51708  -1015296.83506  24854720.17006  24854723.25706
  20542279.87309 -26103199.06309 -20299740.81909  20542279.88209  20542278.66109
  24332996.78707  -5264593.81707  -4023900.28707  24332998.87707  24332995.06807
  21839003.35209 -16680178.34509 -12945451.46609  21839002.90309  21839002.46409
  20720477.44709 -22590698.66409 -17546756.73109  20720477.73109  20720476.06009
  21918078.22909 -17611621.01709 -13662265.12909  21918077.36909  21918076.88109
  22412034.27609 -12660357.00209  -9827323.69109  22412034.66709  22412033.71909
  25209341.04508   -259110.30708   -189315.64107  25209337.76307  25209339.13007
  25008582.16807  -1537887.55707  -1165427.81006  25008580.09706  25008581.25006
  22518407.22409 -13251468.28409 -10260091.09109  22518406.41309  22518406.33509
 07  1 15  0  6  0.0000000  0 10G13G08G24G29G10G28G26G19G21G27
  24873443.47407  -1510421.62307   -938635.56706  24873441.75506  24873444.87106
  20549147.04409 -26067111.33009 -20271620.50909  20549147.18109  20549145.98009
  24347676.71207  -5187450.18607  -3963788.40807  24347678.80307  24347674.54407
  21826166.04209 -16747637.53209 -12998017.06709  21826165.59309  21826165.47609
  20725192.41409 -22565921.96509 -17527450.22309  20725192.50209  20725190.81209
  21905812.99609 -17676074.40509 -13712488.54509  21905811.99909  21905811.67709
  22394946.26209 -12750156.56909  -9897297.37209  22394946.46709  22394945.46109
  25203333.50308   -290678.81708   -213914.59707  25203329.02907  25203331.54907
  25001283.19407  -1576242.46407  -1195314.74206  25001281.88506  25001282.30506
  22531673.78809 -13181752.42909 -10205767.06109  22531673.24109  22531672.79109
 07  1 15  0  6 30.0000000  0 10G13G08G24G29G10G28G26G19G21G27
  24892179.75107  -1411960.87907   -861912.93406  24892178.21706  24892180.81606
  20556092.29509 -26030613.60509 -20243180.72209  20556092.42209  20556091.26909
  24362399.31607  -5110084.03807  -3903503.14507  24362401.20107  24362397.37207
  21813368.16709 -16814891.99009 -13050423.14209  21813367.53209  21813367.46309
  20730018.66209 -22540559.99309 -17507687.66009  20730018.78009  20730017.14809
  21893629.30909 -17740100.65609 -13762379.12509  21893628.16609  21893628.30309
  22377895.29009 -12839759.53509  -9967117.85709  22377895.40709  22377894.44009
  25197414.85307   -321779.36607   -238148.81007  25197410.89707  25197413.63207
  24994081.56107  -1614088.10707  -1224804.85306  24994080.20406  24994080.54606
  22544970.25209 -13111878.92209 -10151320.17909  22544969.51009  22544969.38309
 07  1 15  0  7  0.0000000  0 10G13G08G24G29G10G28G26G19G21G27
  24910930.79707  -1313422.42107   -785129.71506  24910930.56306  24910932.28206
  20563115.57509 -25993707.27309 -20214422.53809  20563115.44809  20563114.33509
  24377163.59108  -5032498.29508  -3843046.76507  24377164.85107  24377162.29207
  21800609.23809 -16881940.46909 -13102668.71509  21800608.54509  21800608.36909
  20734956.18309 -22514613.23709 -17487469.42109  20734956.27009  20734954.62009
  21881527.18809 -17803697.87009 -13811935.39709  21881526.10409  21881526.09409
  22360882.08309 -12929164.45309 -10036784.01909  22360882.15109  22360881.31109
  25191583.79706   -352409.99406   -262016.82206  25191583.19206  25191584.39306
  24986976.98807  -1651423.68107  -1253897.53906  24986975.26906  24986975.68906
  22558296.31509 -13041848.92609 -10096751.35509  22558295.51409  22558295.38709
 07  1 15  0  7 30.0000000  0 10G13G08G24G29G10G28G26G19G21G27
  24929697.62907  -1214806.77107   -708286.36006  24929697.07206  24929698.30306
  20570216.16309 -25956393.37709 -20185346.77209  20570216.05609  20570214.97109
  24391969.37308  -4954695.46008  -3782421.20707  24391970.07607  24391967.80007
  21787889.82309 -16948781.88209 -13154752.93609  21787889.21709  21787888.97309
  20740004.82809 -22488082.11109 -17466795.82309  20740004.90609  20740003.26509
  21869507.09309 -17866863.98509 -13861155.74009  21869506.17509  21869506.17509
  22343906.88409 -13018369.60809 -10106294.52509  22343907.06009  22343906.01509
  25185846.94807   -382569.04407   -285517.19506  25185845.76606  25185843.52906
  24979969.49307  -1688247.66307  -1282591.55106  24979967.94006  24979968.41906
  22571652.26009 -12971663.49109 -10042061.41409  22571651.64409  22571651.49809
 07  1 15  0  8  0.0000000  0 10G13G08G24G29G10G28G26G19G21G27
  24948478.03007  -1116114.53007   -631383.34606  24948478.23506  24948478.24406
  20577394.02909 -25918673.52109 -20155954.67509  20577393.88209  20577392.76909
  24406815.21408  -4876678.57108  -3721628.83707  24406816.38707  24406814.66707
  21775209.95009 -17015414.92309 -13206674.78409  21775209.41209  21775209.03109
  20745164.75609 -22460967.40609 -17445667.49109  20745164.67709  20745163.19309
  21857569.41409 -17929596.85309 -13910038.49709  21857568.62309  21857568.20309
  22326969.95909 -13107373.62009 -10175648.29709  22326970.16409  22326969.12809
  25180198.93208   -412254.77508   -308648.85308  25180196.71508  25180195.96308
  24973059.93707  -1724559.24407  -1310886.29806  24973057.82706  24973058.63706
  22585037.33409 -12901324.09909  -9987251.50509  22585037.16709  22585036.57209
 07  1 15  0  8 30.0000000  0 10G13G08G24G29G10G28G26G19G21G27
  24967273.05307  -1017346.64607   -554421.33006  24967272.65306  24967272.21306
  20584649.01609 -25880548.77909 -20126247.08009  20584648.76209  20584647.77609
  24421702.00508  -4798450.58408  -3660672.00407  24421702.98207  24421701.47807
  21762569.79509 -17081838.54709 -13258433.45009  21762569.50209  21762569.41409
  20750435.31009 -22433270.00609 -17424085.11109  20750435.33909  20750433.73709
  21845714.54209 -17991894.99909 -13958582.50309  21845713.70209  21845713.48709
  22310071.49109 -13196175.07709 -10244844.23709  22310071.64709  22310070.85609
  25174639.80908   -441465.83908   -331410.68108  25174637.91408  25174638.95908
  24966247.42907  -1760356.77107  -1338780.46506  24966245.99306  24966246.25706
  22598451.60509 -12830831.77509  -9932322.42609  22598450.74609  22598450.26709
 07  1 15  0  9  0.0000000  0 10G13G08G24G29G10G28G26G19G21G27
  24986081.28407   -918503.86007   -477400.95406  24986081.05906  24986081.40106
  20591980.48009 -25842020.62909 -20096225.14009  20591980.38309  20591979.41609
  24436627.63508  -4720014.45808  -3599552.98107  24436628.75907  24436627.53807
  21749969.95509 -17148051.67609 -13310028.09509  21749969.63209  21749969.05609
  20755816.85309 -22404990.49709 -17402049.13709  20755816.80509  20755815.19309
  21833942.72109 -18053756.35609 -14006786.15209  21833941.79309  21833941.48009
  22293211.99009 -13284772.31609 -10313881.03709  22293212.40009  22293211.15909
  25169172.44008   -470200.68508   -353801.41708  25169169.47108  25169171.18008
  24959533.87507  -1795639.46307  -1366273.47306  24959531.65806  24959532.31206
  22611894.59609 -12760187.67009  -9877275.07709  22611894.51809  22611893.82409
 07  1 15  0  9 30.0000000  0 10G13G08G24G29G10G28G26G19G21G27
  25004904.50907   -819587.11807   -400322.93405  25004904.16705  25004905.29005
  20599388.62609 -25803090.82409 -20065890.22409  20599388.52909  20599387.57109
  24451593.03208  -4641372.92608  -3538273.90307  24451593.95107  24451592.38807
  21737410.30209 -17214052.97009 -13361457.66809  21737409.98909  21737409.58909
  20761308.81909 -22376129.44409 -17379560.00709  20761308.82909  20761307.45109
  21822254.48809 -18115178.91409 -14054647.88109  21822253.58009  21822253.30609
  22276391.55209 -13373163.99609 -10382757.66209  22276391.78609  22276391.06409
  25163794.18907   -498457.59407   -375819.77407  25163791.51307  25163793.78907
  24952917.79107  -1830406.27707  -1393364.49706  24952916.24706  24952916.17906
  22625366.48209 -12689392.92309  -9822110.34509  22625366.41309  22625365.01609
 07  1 15  0 10  0.0000000  0 10G13G08G24G29G10G28G26G19G21G27
  25023742.91407   -720596.72307   -323187.58306  25023741.34106  25023742.52306
  20606872.91709 -25763760.57109 -20035243.26809  20606872.76109  20606871.76509
  24466596.82908  -4562528.98508  -3476837.09807  24466597.40607  24466595.80407
  21724891.12909 -17279841.40109 -13412721.37409  21724890.79709  21724890.54309
  20766911.36309 -22346687.63509 -17356618.34309  20766911.42109  20766909.96609
  21810649.86309 -18176160.69109 -14102166.14209  21810649.16909  21810648.59309
  22259610.60809 -13461348.48209 -10451472.83509  22259611.16509  22259610.14909
  25158508.05407   -526235.13707   -397464.61106  25158505.03606  25158507.38006
  24946400.23007  -1864657.24307  -1420053.57706  24946398.62806  24946398.41306
  22638866.48109 -12618448.95409  -9766829.34009  22638866.16809  22638865.54309
 07  1 15  0 10 30.0000000  0 10G13G08G24G29G10G28G26G19G21G27
  25042594.70207   -621533.53707   -245995.49806  25042592.77706  25042593.86206
  20614433.21609 -25724031.05009 -20004285.19609  20614433.01109  20614431.99509
  24481638.12708  -4483485.50108  -3415244.81307  24481639.30907  24481637.18007
  21712412.91509 -17345415.74109 -13463818.25409  21712412.44609  21712411.98709
  20772624.38709 -22316666.03509 -17333224.89609  20772624.42609  20772622.87309
  21799129.65609 -18236700.08809 -14149339.69209  21799128.67009  21799128.18109
  22242869.69509 -13549324.39209 -10520025.48109  22242869.69509  22242868.78709
  25153313.37107   -553531.73207   -418734.71606  25153308.59406  25153312.03206
  24939980.78407  -1898390.67607  -1446339.36506  24939978.88906  24939978.78106
  22652395.01409 -12547356.83709  -9711432.89209  22652394.92609  22652393.67509
 07  1 15  0 11  0.0000000  0 10G13G08G24G29G10G28G26G19G21G27
  25061458.59307   -522398.48107   -168747.41606  25061458.03606  25061458.34906
  20622068.93709 -25683904.20709 -19973017.52209  20622068.94709  20622067.73509
  24496717.00408  -4404245.05908  -3353499.02008  24496718.37208  24496715.82208
  21699975.51309 -17410774.84909 -13514747.42209  21699975.00509  21699974.78109
  20778447.52109 -22286065.21209 -17309380.10509  20778447.49209  20778445.99709
  21787693.95609 -18296794.92709 -14196166.82909  21787693.13609  21787692.92109
  22226168.09009 -13637090.14809 -10588414.36909  22226168.20709  22226167.56309
  25148209.04506   -580346.14606   -439629.02105  25148204.27805  25148207.71705
  24933660.46707  -1931605.06707  -1472220.69506  24933658.14206  24933658.70906
  22665951.22009 -12476117.54409  -9655921.76409  22665951.25909  22665949.83309
 07  1 15  0 11 30.0000000  0 10G13G08G24G29G10G28G26G19G21G27
  25080337.62507   -423191.96307    -91443.65106  25080335.64206  25080337.19506
  20629780.24609 -25643381.03009 -19941441.01909  20629780.09909  20629778.89809
  24511832.58108  -4324810.71508  -3291602.17407  24511834.65207  24511831.60407
  21687579.24709 -17475917.45009 -13565507.88009  21687578.73909  21687578.27009
  20784380.74509 -22254885.88809 -17285084.53509  20784380.71509  20784379.21109
  21776343.20209 -18356443.68109 -14242646.36909  21776342.22509  21776341.85409
  22209507.11209 -13724644.17709 -10656638.28209  22209507.31709  22209506.47709
  25143199.97107   -606676.43907   -460146.10506  25143195.09706  25143196.70906
  24927438.43107  -1964299.91907  -1497697.21506  24927436.14506  24927437.91306
  22679535.45209 -12404732.12809  -9600296.76909  22679535.65809  22679533.76309
 07  1 15  0 12  0.0000000  0 10G13G08G24G29G10G28G26G19G21G27
  25099228.68207   -323914.97907    -14084.89206  25099227.37306  25099228.88706
  20637566.64409 -25602463.15709 -19909556.96509  20637566.59509  20637565.38409
  24526984.64208  -4245185.30308  -3229556.43207  24526986.48907  24526983.57807
  21675224.28109 -17540842.40209 -13616098.74009  21675223.93909  21675223.64609
  20790424.05909 -22223128.93809 -17260338.87209  20790423.87309  20790422.34909
  21765077.57009 -18415644.58109 -14288776.93409  21765076.76909  21765076.30009
  22192886.53609 -13811984.97509 -10724696.03109  22192887.04409  22192885.72509
  25138283.22808   -632521.41708   -480284.99507  25138279.03807  25138279.97507
  24921316.61807  -1996474.14607  -1522768.04206  24921314.00006  24921314.53706
  22693147.28009 -12333201.95809  -9544558.97609  22693147.34909  22693145.68809
 07  1 15  0 12 30.0000000  0 10G13G08G24G29G10G28G26G19G21G27
  25118132.99407   -224568.19107     63328.17506  25118132.73106  25118133.19006
  20645427.82909 -25561151.82809 -19877366.32009  20645427.77109  20645426.62809
  24542172.70108  -4165371.81808  -3167364.13907  24542174.76207  24542171.18707
  21662911.12409 -17605548.61709 -13666519.15909  21662910.81109  21662910.24509
  20796576.80809 -22190795.19509 -17235143.75709  20796576.79809  20796575.29409
  21753897.77309 -18474395.34909 -14334556.74909  21753896.79609  21753896.48409
  22176307.27109 -13899111.11609 -10792586.52109  22176307.49609  22176306.27509
  25133457.65408   -657879.56208   -500044.61807  25133454.63607  25133455.60307
  24915292.65507  -2028126.90907  -1547432.51606  24915290.23306  24915290.92606
  22706786.39209 -12261528.12609  -9488709.24909  22706786.47909  22706784.69209
 07  1 15  0 13  0.0000000  0 10G13G08G24G29G10G28G26G19G21G27
  25137052.16507   -125152.42007    140794.95306  25137051.13906  25137051.28606
  20653363.95809 -25519448.37109 -19844870.12309  20653363.63609  20653362.60009
  24557395.96508  -4085373.09508  -3105027.49307  24557397.76207  24557394.53807
  21650639.82409 -17670034.73709 -13716768.07409  21650639.40409  21650639.13109
  20802839.33509 -22157885.50709 -17209499.85409  20802839.26609  20802837.83009
  21742803.71409 -18532694.64609 -14379984.77109  21742803.11809  21742802.62909
  22159768.67109 -13986020.92709 -10860308.44209  22159769.04309  22159768.05609
  25128724.67508   -682749.60208   -519423.85008  25128722.70108  25128723.22908
  24909369.01407  -2059256.60907  -1571689.41005  24909366.84605  24909367.40205
  22720452.45409 -12189711.77609  -9432748.47609  22720452.93209  22720451.11509
 07  1 15  0 13 30.0000000  0 10G13G08G24G29G10G28G26G19G21G27
  25155982.83207    -25668.30907    218315.09705  25155981.95305  25155983.03805
  20661374.33609 -25477354.62109 -19812069.79909  20661373.86709  20661372.90009
  24572653.90607  -4005192.09407  -3042548.80507  24572655.76207  24572651.95207
  21638410.65609 -17734299.66909 -13766844.63109  21638410.19709  21638409.80609
  20809211.40409 -22124400.69609 -17183407.80309  20809211.22809  20809209.82209
  21731796.12409 -18590540.56609 -14425059.50809  21731795.38109  21731794.82509
  22143271.78309 -14072712.93509 -10927860.64209  22143272.12509  22143270.90409
  25124085.64807   -707129.95107   -538421.51108  25124083.08808  25124083.82108
  24903545.17707  -2089863.36707  -1595538.84506  24903543.20406  24903543.84806
  22734145.61309 -12117754.17309  -9376677.61509  22734146.11209  22734143.89409
 07  1 15  0 14  0.0000000  0 10G13G08G24G29G10G28G26G19G21G27
  25174925.82807     73883.31407    295887.72406  25174926.23806  25174926.69706
  20669458.55409 -25434871.90409 -19778966.38509  20669458.11409  20669457.24509
  24587945.18707  -3924831.76607  -2979930.39707  24587948.19607  24587944.00507
  21626223.77509 -17798342.11509 -13816747.82609  21626223.27709  21626222.92509
  20815692.46009 -22090341.75309 -17156868.37509  20815692.48909  20815690.96609
  21720874.98409 -18647931.13109 -14469779.42809  21720874.14409  21720873.81209
  22126816.52809 -14159185.65909 -10995241.97909  22126816.87909  22126815.84409
  25119538.86407   -731019.52307   -557036.73607  25119537.10507  25119537.47707
  24897819.74707  -2119946.66407  -1618980.38706  24897818.87706  24897819.25806
  22747865.50909 -12045656.43209  -9320497.56309  22747865.98809  22747863.65309
 07  1 15  0 14 30.0000000  0 10G13G08G24G29G10G28G26G19G21G27
  25193884.21907    173501.14207    373512.01306  25193883.28106  25193883.94506
  20677616.52309 -25392001.55409 -19745560.91709  20677616.15209  20677615.39009
  24603271.64407  -3844294.89507  -2917174.43607  24603273.72507  24603269.71007
  21614079.30809 -17862161.10809 -13866476.90309  21614078.98609  21614078.57609
  20822282.80509 -22055709.65809 -17129882.33809  20822282.71709  20822281.42709
  21710040.86209 -18704864.76509 -14514143.29709  21710040.03209  21710039.55309
  22110403.41309 -14245437.48209 -11062451.18909  22110403.60909  22110402.46609
  25115084.68407   -754416.73007   -575268.27907  25115084.25407  25115084.55707
  24892195.39007  -2149504.89907  -1642012.79906  24892193.19206  24892194.14906
  22761611.69209 -11973419.54309  -9264209.09409  22761612.05309  22761610.20709
 07  1 15  0 15  0.0000000  0  9G08G24G29G10G28G26G19G21G27
  20685848.00909 -25348745.15109 -19711854.62709  20685847.62809  20685846.76909
  24618630.25907  -3763584.33107  -2854283.10507  24618632.39807  24618628.48107
  21601977.84309 -17925755.14909 -13916030.69309  21601977.22709  21601977.12009
  20828981.93109 -22020505.18609 -17102450.29709  20828982.11609  20828980.49509
  21699294.11809 -18761339.56609 -14558149.63809  21699293.17109  21699293.08309
  22094032.46909 -14331466.87409 -11129487.07409  22094032.90909  22094031.68809
  25110726.88007   -777320.28907   -593115.17406  25110724.78006  25110725.56106
  24886671.73607  -2178537.54807  -1664635.62006  24886668.79606  24886669.81206
  22775384.31809 -11901044.45009  -9207812.92509  22775384.82609  22775382.91109
 07  1 15  0 15 30.0000000  0  9G08G24G29G10G28G26G19G21G27
  20694152.36809 -25305104.00309 -19677848.53709  20694152.27009  20694151.41109
  24634021.02207  -3682702.99107  -2791258.69306  24634023.00506  24634019.96706
  21589919.18209 -17989123.07909 -13965408.29609  21589918.89909  21589918.56609
  20835789.85709 -21984729.20509 -17074572.92709  20835789.94509  20835788.40109
  21688634.94809 -18817353.80509 -14601797.10009  21688634.00009  21688633.30709
  22077704.27109 -14417272.24109 -11196348.39309  22077704.40809  22077703.46109
  25106463.62407   -799728.67007   -610576.23906  25106459.73606  25106461.37706
  24881245.93207  -2207043.41307  -1686848.03006  24881244.36906  24881244.78906
  22789183.00509 -11828532.42809  -9151310.06509  22789183.37709  22789181.89209
 07  1 15  0 16  0.0000000  0  9G08G24G29G10G28G26G19G21G27
  20702529.96009 -25261079.56809 -19643543.78209  20702529.86309  20702528.82709
  24649444.49907  -3601653.73107  -2728103.43706  24649445.92506  24649443.30706
  21577904.02009 -18052263.64309 -14014608.73509  21577903.50209  21577903.47309
  20842706.35909 -21948382.79109 -17046251.05709  20842706.41809  20842704.82509
  21678063.56609 -18872905.81309 -14645084.37209  21678062.82409  21678062.12109
  22061418.89809 -14502851.90109 -11263033.84109  22061419.19109  22061418.16609
  25102294.10607   -821640.81507   -627650.63406  25102290.17906  25102292.57206
  24875921.56307  -2235021.20607  -1708648.92406  24875920.45906  24875920.85006
  22803007.30609 -11755884.62609  -9094701.39309  22803007.43309  22803006.10509
 07  1 15  0 16 30.0000000  0  9G08G24G29G10G28G26G19G21G27
  20710979.94609 -25216673.51809 -19608941.66609  20710980.08309  20710978.90109
  24664899.41007  -3520439.66607  -2664819.80307  24664900.65107  24664898.31607
  21565932.25909 -18115175.87309 -14063631.24909  21565931.53609  21565931.61409
  20849731.21209 -21911467.27009 -17017485.72909  20849731.31009  20849729.61009
  21667580.53009 -18927994.17309 -14688010.36309  21667579.68109  21667579.04609
  22045176.86809 -14588204.46409 -11329542.32709  22045177.04409  22045176.04709
  25098219.31207   -843055.41807   -644337.33107  25098215.51207  25098217.54407
  24870698.82507  -2262471.67007  -1730038.92706  24870696.69606  24870697.95606
  22816857.56109 -11683102.19709  -9037987.82009  22816857.72709  22816856.37909
 07  1 15  0 17  0.0000000  0  9G08G24G29G10G28G26G19G21G27
  20719502.56009 -25171887.30309 -19574043.32009  20719502.52109  20719501.10509
  24680384.52607  -3439063.45007  -2601409.75807  24680386.18707  24680383.78407
  21554004.14309 -18177858.41009 -14112474.78609  21554003.54709  21554003.38109
  20856864.14309 -21873983.49809 -16988277.61009  20856864.24109  20856862.61009
  21657186.06509 -18982616.94509 -14730573.55609  21657185.63509  21657184.70709
  22028978.34609 -14673328.44509 -11395872.70309  22028978.65809  22028977.44709
  25094239.30107   -863971.26207   -660635.39608  25094237.00508  25094238.11908
  24865575.38307  -2289393.52707  -1751017.02006  24865573.80006  24865574.35706
  22830732.74609 -11610186.11909  -8981170.10409  22830732.72609  22830731.69109
 07  1 15  0 17 30.0000000  0  9G08G24G29G10G28G26G19G21G27
  20728096.93309 -25126722.51409 -19538849.98009  20728097.29509  20728095.44809
  24695901.07708  -3357528.10208  -2537875.76307  24695901.74107  24695899.93407
  21542119.97509 -18240310.04009 -14161138.39109  21542119.51609  21542119.33109
  20864105.04409 -21835932.50309 -16958627.49509  20864105.06409  20864103.43309
  21646880.56009 -19036772.63709 -14772772.79209  21646879.91509  21646879.36809
  22012823.59609 -14758222.13209 -11462023.62709  22012823.75209  22012822.94109
  25090353.73107   -884387.04407   -676543.77807  25090352.10907  25090352.82207
  24860552.88707  -2315786.03307  -1771582.60806  24860552.26206  24860551.33406
  22844633.54309 -11537137.35609  -8924249.00609  22844633.37609  22844632.61509
 07  1 15  0 18  0.0000000  0  9G08G24G29G10G28G26G19G21G27
  20736763.57309 -25081180.31109 -19503362.55609  20736763.58209  20736761.80509
  24711446.28707  -3275836.48707  -2474220.02107  24711447.35207  24711445.41807
  21530279.95109 -18302529.40309 -14209621.01209  21530279.52109  21530279.42409
  20871453.71109 -21797315.18009 -16928536.08909  20871453.76909  20871452.16709
  21636664.50409 -19090459.18409 -14814606.46409  21636663.77109  21636663.22409
  21996713.03809 -14842883.89909 -11527993.82809  21996713.02909  21996712.31609
  25086564.86807   -904301.16007   -692061.23107  25086562.78707  25086563.08007
  24855631.79707  -2341648.49007  -1791735.21906  24855630.77206  24855630.18606
  22858559.27809 -11463956.84409  -8867225.23409  22858559.35609  22858558.20409
 07  1 15  0 18 30.0000000  0  9G08G24G29G10G28G26G19G21G27
  20745501.33609 -25035262.04509 -19467582.09109  20745501.57009  20745499.77309
  24727020.52008  -3193991.41208  -2410444.67907  24727022.06407  24727020.03207
  21518484.49009 -18364515.42409 -14257921.80909  21518484.18809  21518483.80709
  20878909.94709 -21758132.89909 -16898004.45309  20878909.89809  20878908.26709
  21626537.88809 -19143675.42509 -14856073.66009  21626537.17509  21626536.68609
  21980646.71209 -14927312.20709 -11593782.11209  21980647.18109  21980646.15509
  25082870.30907   -923712.91307   -707187.23807  25082868.62907  25082868.61907
  24850810.67707  -2366980.13307  -1811474.19406  24850810.35506  24850809.80806
  22872509.76709 -11390645.90409  -8810099.84009  22872509.66009  22872508.62409
 07  1 15  0 19  0.0000000  0  9G08G24G29G10G28G26G19G21G27
  20754310.62309 -24988969.34709 -19431509.86309  20754310.73109  20754309.14809
  24742624.66408  -3111995.74808  -2346551.99107  24742625.72907  24742623.40407
  21506733.78809 -18426266.79009 -14306039.75409  21506733.25109  21506732.98709
  20886473.30309 -21718386.67909 -16867033.38609  20886473.43009  20886471.80909
  21616500.94609 -19196419.58609 -14897173.00309  21616499.98909  21616499.98909
  21964625.34009 -15011505.50309 -11659387.27109  21964625.51609  21964624.59809
  25079271.87207   -942621.05807   -721920.80007  25079270.25007  25079269.91807
  24846091.92107  -2391780.23207  -1830798.97806  24846090.72906  24846090.72906
  22886484.63809 -11317205.74109  -8752873.74709  22886484.65809  22886484.12009
 07  1 15  0 19 30.0000000  0  9G08G24G29G10G28G26G19G21G27
  20763190.84909 -24942303.69009 -19395147.01309  20763191.02509  20763189.47209
  24758255.64108  -3029852.67708  -2282544.42507  24758257.12607  24758254.88907
  21495027.67009 -18487782.23609 -14353973.86609  21495027.26909  21495026.91709
  20894143.78009 -21678077.75309 -16835623.84609  20894144.04409  20894142.35409
  21606554.35209 -19248689.59309 -14937902.88109  21606553.42409  21606553.16009
  21948649.16709 -15095462.25509 -11724808.11109  21948648.84409  21948648.30709
  25075769.72207   -961024.37507   -736260.98407  25075768.23707  25075767.59207
  24841473.66107  -2416048.32607  -1849709.18306  24841472.36206  24841472.54806
  22900484.42809 -11243637.42809  -8695547.79709  22900484.72109  22900482.98209
 07  1 15  0 20  0.0000000  0  9G08G24G29G10G28G26G19G21G27
  20772141.83709 -24895267.00009 -19358495.05109  20772141.82809  20772140.35309
  24773914.86908  -2947564.86308  -2218424.09007  24773916.26607  24773913.60907
  21483366.68109 -18549060.64309 -14401723.27209  21483366.25109  21483366.07509
  20901921.30909 -21637206.95909 -16803776.48309  20901921.49409  20901919.69709
  21596698.03709 -19300484.72909 -14978262.72709  21596697.00209  21596696.94309
  21932718.01609 -15179180.83109 -11790043.35909  21932718.19209  21932716.98009
  25072363.84907   -978921.89107   -750207.03607  25072362.51007  25072361.67007
  24836957.08107  -2439783.59807  -1868204.23506  24836955.78206  24836956.53406
  22914508.50209 -11169942.09109  -8638122.88109  22914508.20009  22914506.73409
 07  1 15  0 20 30.0000000  0  9G08G24G29G10G28G26G19G21G27
  20781162.89409 -24847860.35109 -19321554.80609  20781163.09009  20781161.67309
  24789599.95408  -2865135.38208  -2154193.37807  24789602.04407  24789599.41707
  21471751.11509 -18610100.57909 -14449286.85809  21471750.78309  21471750.43109
  20909805.41109 -21595775.56209 -16771492.29109  20909805.62609  20909803.76009
  21586932.50109 -19351802.86109 -15018250.88309  21586931.47509  21586931.41609
  21916832.40509 -15262659.42209 -11855091.60209  21916832.65909  21916831.64309
  25069054.35107   -996312.21407   -763757.91007  25069052.85607  25069052.29007
  24832542.12207  -2462985.94607  -1886284.03906  24832540.68606  24832541.22306
  22928555.87409 -11096120.42509  -8580599.51609  22928556.25509  22928555.06409
 07  1 15  0 21  0.0000000  0  9G08G24G29G10G28G26G19G21G27
  20790254.11809 -24800085.39609 -19284327.56909  20790254.33309  20790252.98409
  24805312.73207  -2782567.10907  -2089854.47307  24805313.90407  24805310.96407
  21460181.35309 -18670900.99209 -14496663.80409  21460180.60109  21460180.49409
  20917795.93009 -21553785.05109 -16738772.41809  20917796.06709  20917794.40609
  21577258.08409 -19402642.84309 -15057866.45709  21577256.88209  21577256.73609
  21900992.83309 -15345896.75509 -11919951.85309  21900992.90109  21900992.21809
  25065841.86307  -1013194.38307   -776912.84707  25065840.05607  25065840.01707
  24828228.04107  -2485654.34807  -1903947.73006  24828227.10406  24828227.06406
  22942627.55009 -11022173.57009  -8522978.61209  22942627.69709  22942626.54409
 07  1 15  0 21 30.0000000  0  9G08G24G29G10G28G26G19G21G27
  20799415.27309 -24751943.40809 -19246814.33409  20799415.40009  20799414.09109
  24821050.35107  -2699862.75407  -2025409.57307  24821052.09007  24821048.68107
  21448657.30809 -18731460.61509 -14543853.12309  21448656.71209  21448656.54609
  20925892.44609 -21511236.46909 -16705617.69309  20925892.79809  20925891.10809
  21567674.64009 -19453002.80009 -15097107.98009  21567673.58509  21567673.37009
  21885199.45609 -15428891.00909 -11984622.69109  21885199.69009  21885198.80109
  25062726.98207  -1029567.24307   -789670.89907  25062724.01207  25062724.42207
  24824016.46007  -2507788.83607  -1921195.39306  24824015.24906  24824015.13206
  22956723.04109 -10948102.74209  -8465261.09909  22956723.13909  22956721.82009
 07  1 15  0 22  0.0000000  0  9G08G24G29G10G28G26G19G21G27
  20808645.81309 -24703435.97609 -19209016.33809  20808645.91109  20808644.61209
  24836813.24207  -2617025.21707  -1960860.84106  24836815.60606  24836811.60006
  21437179.29109 -18791777.96309 -14590853.65809  21437178.69509  21437178.44109
  20934095.37909 -21468130.98609 -16672029.02309  20934095.42809  20934093.86509
  21558183.13709 -19502880.97709 -15135974.08509  21558182.21809  21558182.04309
  21869452.97609 -15511640.75009 -12049103.00409  21869452.93709  21869452.07809
  25059708.01607  -1045429.56007   -802031.12907  25059705.71107  25059705.98407
  24819905.99207  -2529388.66707  -1938026.47606  24819904.76106  24819905.02506
  22970841.36109 -10873908.90209  -8407447.73409  22970841.71309  22970840.38409
 07  1 15  0 22 30.0000000  0  9G08G24G29G10G28G26G19G21G27
  20817945.56309 -24654564.51309 -19170934.68309  20817945.84609  20817944.44009
  24852601.11007  -2534057.14607  -1896210.35806  24852603.93306  24852599.72206
  21425747.56709 -18851851.91709 -14637664.53809  21425747.05909  21425746.80509
  20942403.74309 -21424469.93309 -16638007.44009  20942403.94809  20942402.37509
  21548783.56409 -19552276.46009 -15174464.06909  21548782.46009  21548782.32309
  21853752.97509 -15594144.12609 -12113391.34309  21853753.13209  21853752.33109
  25056786.83207  -1060780.70607   -813993.05207  25056784.34107  25056784.93707
  24815897.59407  -2550453.11107  -1954440.34706  24815896.16806  24815895.96306
  22984983.04709 -10799593.02809  -8349539.27809  22984983.76009  22984982.28509
 07  1 15  0 23  0.0000000  0  9G08G24G29G10G28G26G19G21G27
  20827314.56109 -24605330.44409 -19132570.47709  20827314.72709  20827313.22309
  24868414.41407  -2450961.60607  -1831460.63407  24868416.63207  24868412.40207
  21414362.33009 -18911681.27009 -14684284.81009  21414362.02709  21414361.49009
  20950817.81009 -21380254.56409 -16603553.92609  20950817.83909  20950816.23709
  21539476.15609 -19601187.52309 -15212576.58609  21539474.98309  21539474.86609
  21838100.35109 -15676399.79509 -12177486.66709  21838100.41909  21838099.44309
  25053963.19507  -1075619.51607   -825555.75807  25053960.33307  25053961.75907
  24811991.26607  -2570981.83307  -1970436.73506  24811990.00606  24811989.55706
  22999148.05009 -10725156.09909  -8291536.48909  22999148.43109  22999147.26909
 07  1 15  0 23 30.0000000  0  9G08G24G29G10G28G26G19G21G27
  20836752.20109 -24555735.30709 -19093924.92109  20836752.17209  20836750.86309
  24884249.77607  -2367741.57907  -1766613.85306  24884252.30606  24884248.43806
  21403023.95309 -18971264.69909 -14730713.45609  21403023.57209  21403023.21009
  20959336.99609 -21335486.21109 -16568669.50809  20959336.93709  20959335.34509
  21530261.19609 -19649612.57009 -15250310.38609  21530260.13109  21530260.12109
  21822494.80109 -15758405.89209 -12241387.51509  21822494.96709  21822494.38109
  25051237.23307  -1089944.91607   -836718.41307  25051234.48807  25051235.41607
  24808186.73507  -2590974.40007  -1986015.38006  24808185.06406  24808185.08406
  23013335.74609 -10650599.22309  -8233440.24309  23013336.11709  23013334.53409
 07  1 15  0 24  0.0000000  0  9G08G24G29G10G28G26G19G21G27
  20846258.28909 -24505780.98609 -19054999.48409  20846258.29909  20846256.81409
  24900110.16507  -2284400.43307  -1701672.71707  24900111.43507  24900107.81107
  21391732.80609 -19030600.98309 -14776949.52209  21391732.26809  21391731.82909
  20967961.11309 -21290166.25309 -16533355.27809  20967961.05509  20967959.60909
  21521138.93809 -19697550.32609 -15287664.48409  21521137.94209  21521137.80509
  21806937.47709 -15840160.93709 -12305092.73809  21806937.67209  21806936.66609
  25048608.34907  -1103755.93507   -847480.22107  25048606.61007  25048607.07907
  24804484.78107  -2610430.52907  -2001176.01706  24804482.75006  24804482.78906
  23027546.14309 -10575923.26109  -8175251.21409  23027546.98309  23027545.36109
 07  1 15  0 24 30.0000000  0  9G08G24G29G10G28G26G19G21G27
  20855832.21809 -24455468.70009 -19015795.11009  20855832.38409  20855830.92909
  24915991.11607  -2200940.63407  -1636639.17407  24915994.08607  24915990.57907
  21380488.73309 -19089688.67709 -14822991.88209  21380488.21509  21380487.85309
  20976689.96809 -21244295.95709 -16497612.20509  20976690.00709  20976688.31709
  21512109.88109 -19744999.31509 -15324637.72109  21512108.66009  21512108.48409
  21791428.09709 -15921663.17909 -12368600.96709  21791428.36009  21791427.42209
  25046079.02507  -1117051.62907   -857840.48207  25046076.49507  25046076.70007
  24800883.45207  -2629349.38207  -2015917.99406  24800882.19206  24800883.13006
  23041778.73309 -10501129.66909  -8116970.51209  23041779.14409  23041777.94209
 07  1 15  0 25  0.0000000  0  9G08G24G29G10G28G26G19G21G27
  20865474.50709 -24404800.09709 -18976313.09109  20865474.40009  20865473.00309
  24931895.64807  -2117364.85807  -1571515.21906  24931898.19806  24931894.75906
  21369292.15309 -19148526.70509 -14868839.70009  21369291.79209  21369291.31309
  20985523.26609 -21197876.75009 -16461441.41309  20985523.17809  20985521.73209
  21503173.83809 -19791957.87909 -15361228.80909  21503172.98909  21503172.68609
  21775967.03109 -16002911.19009 -12431911.10309  21775967.24609  21775966.31809
  25043647.01307  -1129831.27707   -867798.63007  25043644.78607  25043644.41507
  24797385.83507  -2647731.12807  -2030241.43106  24797384.57506  24797384.68206
  23056034.07509 -10426219.39709  -8058598.88909  23056034.54409  23056032.85409
 07  1 15  0 25 30.0000000  0  9G08G24G29G10G28G26G19G21G27
  20875183.81709 -24353776.56209 -18936554.49809  20875183.96309  20875182.61509
  24947821.36808  -2033675.93608  -1506303.09807  24947823.94707  24947820.83107
  21358143.36109 -19207113.59409 -14914491.81609  21358143.09709  21358142.44309
  20994460.77409 -21150909.80509 -16424843.81109  20994460.86209  20994459.26009
  21494331.57309 -19838424.65309 -15397436.67909  21494330.50809  21494330.19509
  21760554.63109 -16083902.89009 -12495021.51309  21760555.13909  21760554.11309
  25041313.38907  -1142093.44707   -877353.53407  25041311.07407  25041311.29907
  24793990.12107  -2665574.36907  -2044145.25706  24793988.94906  24793989.66206
  23070311.20009 -10351192.81709  -8000136.64509  23070311.64909  23070310.05709
 07  1 15  0 26  0.0000000  0  9G08G24G29G10G28G26G19G21G27
  20884960.61609 -24302399.85209 -18896520.70209  20884960.62609  20884959.27809
  24963767.57207  -1949876.88607  -1441005.15706  24963770.33606  24963766.77106
  21347042.61009 -19265448.30409 -14959947.43609  21347042.26809  21347041.76009
  21003502.15909 -21103396.82709 -16387820.72809  21003502.21709  21003500.54709
  21485582.92709 -19884398.73109 -15433260.63409  21485582.02909  21485581.75509
  21745191.87409 -16164636.95309 -12557931.17009  21745191.73809  21745191.05409
  25039077.28407  -1153837.98207   -886505.09307  25039076.59007  25039076.44307
  24790697.26907  -2682880.32407  -2057630.43506  24790696.56506  24790696.39906
  23084609.83509 -10276051.38709  -7941584.88509  23084610.31309  23084608.97509
 07  1 15  0 26 30.0000000  0  9G08G24G29G10G28G26G19G21G27
  20894804.43709 -24250670.86509 -18856212.41209  20894804.27109  20894803.12809
  24979735.02207  -1865970.74407  -1375623.77006  24979737.34706  24979734.05506
  21335990.29109 -19323529.38109 -15005205.42109  21335989.82209  21335989.40209
  21012647.17709 -21055338.97209 -16350373.06609  21012647.46009  21012645.70209
  21476928.58609 -19929878.42109 -15468699.35109  21476927.51209  21476927.41409
  21729877.76509 -16245111.87809 -12620638.90509  21729877.91109  21729877.27609
  25036941.63607  -1165063.63007   -895252.33207  25036940.15107  25036939.99507
  24787507.30707  -2699647.69507  -2070695.95106  24787505.19706  24787505.15806
  23098930.34109 -10200795.91709  -7882944.27909  23098930.83009  23098929.62809
 07  1 15  0 27  0.0000000  0  9G08G24G29G10G28G26G19G21G27
  20904714.67309 -24198591.62009 -18815631.18609  20904714.75109  20904713.48109
  24995721.01307  -1781960.53507  -1310161.25407  24995724.06107  24995720.91507
  21324986.44209 -19381355.52209 -15050264.75309  21324985.77809  21324985.40709
  21021895.78909 -21006737.76309 -16312502.01109  21021895.96409  21021894.24509
  21468368.31509 -19974862.46509 -15503751.85309  21468367.12309  21468367.16209
  21714613.74709 -16325325.79809 -12683143.25309  21714613.70809  21714613.09309
  25034904.64907  -1175769.71707   -903594.72707  25034902.84207  25034902.96907
  24784418.09707  -2715876.71207  -2083341.92506  24784416.60206  24784417.39306
  23113272.70009 -10125427.35709  -7824215.54909  23113273.44209  23113271.97709
 07  1 15  0 27 30.0000000  0  9G08G24G29G10G28G26G19G21G27
  20914691.24609 -24146163.46709 -18774778.08009  20914691.38309  20914690.25009
  25011727.24407  -1697848.74707  -1244619.65707  25011729.64707  25011726.63807
  21314031.14309 -19438925.52109 -15095124.49609  21314030.73309  21314030.11709
  21031247.38909 -20957594.61709 -16274208.66509  21031247.57509  21031245.79709
  21459902.77809 -20019349.28609 -15538416.90609  21459901.66409  21459901.76209
  21699399.63609 -16405277.01709 -12745442.89609  21699399.47009  21699398.93309
  25032965.96207  -1185955.08007   -911531.34007  25032964.83907  25032964.70207
  24781433.18407  -2731566.98607  -2095568.10506  24781431.03406  24781431.86506
  23127636.72409 -10049947.03409  -7765399.73509  23127636.23609  23127634.87809
 07  1 15  0 28  0.0000000  0  9G08G24G29G10G28G26G19G21G27
  20924734.02009 -24093388.22909 -18733654.52009  20924734.05909  20924732.83809
  25027752.02508  -1613638.61708  -1179001.39007  25027754.25207  25027751.38007
  21303124.97809 -19496238.16909 -15139783.70109  21303124.42209  21303123.84509
  21040701.84109 -20907911.25809 -16235494.37109  21040702.03609  21040700.11209
  21451531.92609 -20063337.95509 -15572693.78609  21451531.06609  21451530.67509
  21684235.67709 -16484964.13609 -12807536.75109  21684235.51109  21684234.94409
  25031127.29407  -1195619.14607   -919061.76707  25031125.79907  25031125.88707
  24778549.91107  -2746718.49907  -2107374.50106  24778547.34206  24778548.36706
  23142020.88209  -9974355.93009  -7706497.59009  23142021.38009  23142019.76809
 07  1 15  0 28 30.0000000  0  9G08G24G29G10G28G26G19G21G27
  20934842.66209 -24040267.19409 -18692261.51209  20934842.59409  20934841.36309
  25043794.97607  -1529332.67107  -1113308.43907  25043796.82207  25043794.45807
  21292267.74409 -19553292.05309 -15184241.27509  21292267.59809  21292266.73809
  21050258.71509 -20857689.01609 -16196360.17209  21050258.98809  21050257.19109
  21443256.21809 -20106826.78009 -15606581.17909  21443255.15309  21443254.89909
  21669122.19009 -16564385.45509 -12869423.48909  21669122.04409  21669121.68209
  25029387.46207  -1204761.19907   -926185.43307  25029386.07507  25029386.24107
  24775769.25507  -2761330.58607  -2118760.56206  24775767.35006  24775767.81906
  23156426.51009  -9898654.87509  -7647509.77509  23156426.99809  23156425.43509
 07  1 15  0 29  0.0000000  0  9G08G24G29G10G28G26G19G21G27
  20945016.86009 -23986801.32309 -18650599.80209  20945016.84109  20945015.61009
  25059855.86108  -1444933.77108  -1047543.04507  25059857.05207  25059854.83507
  21281460.11409 -19610085.94309 -15228496.24809  21281459.90809  21281459.36109
  21059917.98109 -20806929.49109 -16156807.30309  21059918.25409  21059916.26109
  21435075.91809 -20149814.80709 -15640078.33809  21435075.12709  21435074.58009
  21654059.98809 -16643538.96109 -12931101.54209  21654059.44109  21654059.28509
  25027748.04907  -1213380.42607   -932901.70107  25027745.49007  25027745.58807
  24773090.83607  -2775402.52807  -2129725.72706  24773090.28906  24773090.31806
  23170852.85709  -9822844.58209  -7588436.83709  23170852.56409  23170851.60709
 07  1 15  0 29 30.0000000  0  9G08G24G29G10G28G26G19G21G27
  20955256.03809 -23932992.84509 -18608671.11909  20955256.12609  20955254.87509
  25075933.02007  -1360444.94107   -981707.59407  25075934.56307  25075932.01407
  21270702.45809 -19666618.54009 -15272547.62209  21270702.11609  21270701.63809
  21069679.21909 -20755634.14309 -16116836.91709  21069679.16109  21069677.59809
  21426991.05609 -20192300.73809 -15673184.25309  21426990.32309  21426989.68809
  21639048.68909 -16722423.54709 -12992570.05309  21639048.28909  21639048.02509
  25026205.96907  -1221476.12207   -939210.01507  25026204.73907  25026204.96307
  24770516.31307  -2788935.19007  -2140270.64006  24770514.76006  24770515.42406
  23185299.64009  -9746926.14009  -7529279.62909  23185299.99109  23185298.50709
 07  1 15  0 30  0.0000000  0  9G08G24G29G10G28G26G19G21G27
  20965560.57609 -23878843.00509 -18566476.44009  20965560.63409  20965559.26709
  25092027.85007  -1275869.35407   -915804.54306  25092028.44606  25092026.61006
  21259994.64109 -19722888.44009 -15316394.29809  21259994.29009  21259993.91909
  21079541.93209 -20703804.56309 -16076450.23909  21079542.19609  21079540.58409
  21419002.22709 -20234282.79209 -15705897.53309  21419001.41609  21419000.83909
  21624089.05509 -16801037.10009 -13053827.36409  21624088.68409  21624088.31309
  25024765.92007  -1229047.69507   -945109.92707  25024763.80107  25024764.65007
  24768044.00707  -2801928.14507  -2150395.07206  24768042.31706  24768042.33606
  23199766.69209  -9670900.71809  -7470039.06309  23199766.84809  23199765.56909
 07  1 15  0 30 30.0000000  0  9G08G24G29G10G28G26G19G21G27
  20975929.81009 -23824353.48509 -18524017.07709  20975929.65309  20975928.47109
  25108138.01707  -1191209.56007   -849835.90606  25108139.05306  25108136.59106
  21249337.07309 -19778894.30009 -15360035.22209  21249336.72209  21249336.11609
  21089506.35309 -20651442.28309 -16035648.47209  21089506.19709  21089504.64409
  21411109.32309 -20275760.50709 -15738217.82109  21411108.37609  21411108.09209
  21609181.27209 -16879377.97709 -13114872.19709  21609180.93009  21609180.57909
  25023425.78307  -1236094.15707   -950600.61307  25023422.85207  25023424.13207
  24765674.21107  -2814381.20007  -2160098.74606  24765672.78406  24765672.63806
  23214254.35509  -9594768.96909  -7410715.63409  23214254.72709  23214253.37909
 07  1 15  0 31  0.0000000  0  9G08G24G29G10G28G26G19G21G27
  20986363.13409 -23769525.84809 -18481294.24309  20986363.05609  20986361.92309
  25124263.88207  -1106468.41107   -783803.85506  25124265.33706  25124262.02606
  21238729.84209 -19834634.96309 -15403469.50009  21238729.73409  21238728.96309
  21099571.56509 -20598548.99309 -15994432.93409  21099571.62409  21099569.87509
  21403312.63909 -20316732.32009 -15770143.90109  21403311.68109  21403311.52509
  21594325.64309 -16957444.73209 -13175703.43209  21594325.32009  21594325.03709
  25022184.31607  -1242615.08007   -955681.80607  25022181.01407  25022183.48507
  24763407.06107  -2826294.22607  -2169381.61306  24763405.16606  24763405.43906
  23228762.11209  -9518531.89409  -7351310.14009  23228762.31809  23228760.57909
 07  1 15  0 31 30.0000000  0  9G08G24G29G10G28G26G19G21G27
  20996860.65709 -23714361.32109 -18438308.89909  20996860.57909  20996859.55309
  25140403.45207  -1021648.91007   -717710.72807  25140405.92307  25140402.74807
  21228173.33809 -19890109.07509 -15446696.07409  21228173.29909  21228172.37109
  21109737.47009 -20545126.18709 -15952804.77809  21109737.69409  21109735.91709
  21395612.53409 -20357197.29209 -15801675.04009  21395611.40109  21395611.25509
  21579522.60609 -17035235.47909 -13236319.60009  21579522.40109  21579521.91209
  25021044.15707  -1248609.67007   -960352.88907  25021040.81607  25021043.08207
  24761242.97707  -2837667.25907  -2178243.73106  24761241.00406  24761241.70706
  23243289.16209  -9442190.50509  -7291823.35909  23243288.92809  23243288.27309
 07  1 15  0 32  0.0000000  0  9G08G24G29G10G28G26G19G21G27
  21007421.86909 -23658861.18109 -18395062.03409  21007422.07409  21007420.90209
  25156558.85607   -936753.54407   -651558.49107  25156561.07307  25156557.62507
  21217667.99109 -19945315.26509 -15489713.87909  21217668.04909  21217667.16009
  21120004.13609 -20491175.32809 -15910765.15809  21120004.15509  21120002.51409
  21388008.83409 -20397153.86309 -15832810.02009  21388007.86709  21388007.85809
  21564772.29009 -17112748.54309 -13296719.38409  21564772.23109  21564771.78209
  25020003.28407  -1254077.18907   -964613.30207  25020000.49007  25020002.34607
  24759181.53007  -2848499.94407  -2186684.76506  24759179.63506  24759180.13306
  23257835.92409  -9365745.81609  -7232256.07809  23257836.70609  23257834.86909
 07  1 15  0 32 30.0000000  0  9G08G24G29G10G28G26G19G21G27
  21018046.82109 -23603027.55409 -18351555.30709  21018046.71309  21018045.52209
  25172727.66307   -851785.63207   -585349.72507  25172730.09507  25172726.67607
  21207213.83009 -20000252.33909 -15532521.98209  21207213.72309  21207212.93109
  21130370.60509 -20436698.63909 -15868315.79809  21130370.70309  21130369.17909
  21380502.30109 -20436601.14809 -15863548.15409  21380501.25609  21380501.21709
  21550075.19109 -17189982.42009 -13356901.61809  21550074.92809  21550074.44909
  25019063.09407  -1259017.30007   -968462.73907  25019061.26707  25019062.12707
  24757223.18907  -2858792.65607  -2194705.06306  24757221.20606  24757221.75306
  23272402.47809  -9289198.82209  -7172609.10009  23272402.67309  23272401.40309
 07  1 15  0 33  0.0000000  0  9G08G24G29G10G28G26G19G21G27
  21028734.51509 -23546862.08609 -18307790.00409  21028734.72009  21028733.48909
  25188909.93007   -766747.83607   -519086.51906  25188912.04006  25188908.52306
  21196811.24709 -20054918.91109 -15575119.30509  21196811.17809  21196810.41609
  21140837.03509 -20381697.51409 -15825457.78909  21140837.18109  21140835.41309
  21373092.79709 -20475538.06909 -15893888.60109  21373091.75209  21373091.76109
  21535431.51709 -17266935.46109 -13416865.01509  21535431.24309  21535430.76509
  25018224.76007  -1263429.56307   -971900.86107  25018221.91707  25018222.58107
  24755366.11707  -2868545.45507  -2202304.64006  24755364.91506  24755364.80806
  23286987.95209  -9212550.31909  -7112882.99209  23286988.33309  23286986.65309
 07  1 15  0 33 30.0000000  0  9G08G24G29G10G28G26G19G21G27
  21039485.30309 -23490365.73409 -18263766.87009  21039485.57609  21039484.24809
  25205104.90607   -681642.85007   -452770.93306  25205107.08406  25205103.08906
  21186460.21109 -20109313.58809 -15617504.75709  21186460.17209  21186459.33209
  21151402.85809 -20326173.47509 -15782192.31309  21151403.03409  21151401.38309
  21365780.79109 -20513963.43209 -15923830.43809  21365779.58009  21365779.48209
  21520841.53909 -17343605.80109 -13476608.12709  21520841.38309  21520840.94309
  25017485.33007  -1267313.08007   -974926.95407  25017482.34107  25017483.66007
  24753612.32607  -2877758.00707  -2209483.23206  24753611.80806  24753611.47606
  23301592.82709  -9135801.20209  -7053078.50509  23301593.89109  23301591.79109
 07  1 15  0 34  0.0000000  0  9G08G24G29G10G28G26G19G21G27
  21050298.94109 -23433540.06109 -18219487.13109  21050299.20509  21050297.57309
  25221311.80907   -596473.76807   -386405.37506  25221314.13406  25221310.29506
  21176161.40709 -20163435.07709 -15659677.34109  21176161.07509  21176160.24509
  21162067.94809 -20270128.21009 -15738520.68809  21162068.03609  21162066.36509
  21358566.16709 -20551876.04309 -15953372.72609  21358565.29809  21358564.88809
  21506305.71709 -17419991.59709 -13536129.52109  21506305.73709  21506305.10209
  25016846.41807  -1270667.35207   -977540.65307  25016843.84807  25016845.23607
  24751961.99307  -2886430.43207  -2216240.97406  24751961.72906  24751961.26006
  23316216.74008  -9058952.20708  -6993196.19409  23316217.19909  23316215.45109
 07  1 15  0 34 30.0000000  0  9G08G24G29G10G28G26G19G21G27
  21061174.70609 -23376386.92909 -18174952.22709  21061175.14509  21061173.56309
  25237530.74807   -511243.30307   -319992.01406  25237533.13106  25237528.83306
  21165914.80609 -20217282.09009 -15701636.05109  21165914.21009  21165913.62409
  21172831.98209 -20213563.69509 -15694444.45809  21172832.03109  21172830.38009
  21351449.26609 -20589275.06209 -15982514.80609  21351448.35809  21351447.97709
  21491824.45209 -17496091.47209 -13595428.11809  21491824.42309  21491823.77809
  25016309.09607  -1273492.12307   -979741.76807  25016306.20507  25016307.22107
  24750415.03807  -2894562.44407  -2222577.61106  24750414.59906  24750414.06106
  23330858.90108  -8982004.71608  -6933237.12109  23330859.85809  23330858.12909
 07  1 15  0 35  0.0000000  0  9G08G24G29G10G28G26G19G21G27
  21072112.59809 -23318907.53309 -18130163.09509  21072112.96009  21072111.40609
  25253760.70407   -425954.50807   -253533.18106  25253762.87306  25253758.88706
  21155720.44609 -20270853.35009 -15743379.88709  21155720.10409  21155719.34209
  21183694.31609 -20156481.49609 -15649964.83409  21183694.59909  21183692.58609
  21344430.47909 -20626159.30809 -16011255.76509  21344429.59009  21344429.17009
  21477397.92909 -17571903.53709 -13654502.44809  21477397.80209  21477397.24509
  25015872.53707  -1275786.75907   -981529.76607  25015869.02007  25015870.52407
  24748971.23807  -2902154.66907  -2228493.61105  24748968.97205  24748968.93305
  23345520.33408  -8904959.24608  -6873201.70309  23345521.04709  23345519.36709
 07  1 15  0 35 30.0000000  0  9G08G24G29G10G28G26G19G21G27
  21083112.48109 -23261103.52209 -18085121.01109  21083112.91009  21083111.33809
  25270001.08407   -340609.91607   -187030.88606  25270003.18406  25269999.22806
  21145579.19709 -20324147.43809 -15784907.75209  21145578.48409  21145577.94609
  21194654.82209 -20098883.38109 -15605083.19509  21194655.08509  21194653.21009
  21337509.79609 -20662527.62909 -16039594.70709  21337508.81909  21337508.54609
  21463026.51009 -17647426.15309 -13713351.23409  21463026.35309  21463025.76709
  25015536.46407  -1277550.83607   -982904.36907  25015534.09007  25015535.16507
  24747629.31306  -2909207.22606  -2233989.06406  24747626.88006  24747627.99406
  23360200.38708  -8827816.78508  -6813090.71609  23360200.60109  23360198.78409
 07  1 15  0 36  0.0000000  0  9G08G24G29G10G28G26G19G21G27
  21094174.04109 -23202976.48609 -18039827.22309  21094173.96309  21094172.68309
  25286251.73007   -255212.44407   -120487.36306  25286254.32906  25286250.76306
  21135490.41409 -20377163.16409 -15826218.70909  21135490.05209  21135489.35909
  21205713.12909 -20040771.16709 -15559800.96309  21205713.44109  21205711.69309
  21330687.31509 -20698379.19809 -16067530.98409  21330686.69009  21330686.27009
  21448710.37909 -17722657.66409 -13771973.19009  21448710.37909  21448709.62709
  25015302.09107  -1278783.87207   -983865.16007  25015299.46307  25015300.40107
  24746389.77007  -2915720.06407  -2239064.00706  24746387.19106  24746388.52006
  23374898.13909  -8750578.10209  -6752904.73309  23374898.20809  23374897.40609
 07  1 15  0 36 30.0000000  0  9G08G24G29G10G28G26G19G21G27
  21105296.44809 -23144527.70909 -17994282.72309  21105296.47809  21105295.39309
  25302512.29207   -169765.08807    -53904.98706  25302513.96206  25302511.33406
  21125454.88809 -20429898.95709 -15867311.53309  21125454.74109  21125454.04809
  21216869.07109 -19982146.62309 -15514119.51109  21216869.40409  21216867.68409
  21323963.71909 -20733712.84609 -16095063.68509  21323962.86909  21323962.50809
  21434449.96809 -17797596.25309 -13830366.89009  21434449.96809  21434449.20609
  25015168.38107  -1279485.22307   -984411.67507  25015165.70407  25015166.66207
  24745252.86407  -2921693.17007  -2243718.39606  24745250.97906  24745251.50606
  23389614.71508  -8673243.86008  -6692644.29609  23389615.09609  23389613.04509
 07  1 15  0 37  0.0000000  0  9G08G24G29G10G28G26G19G21G27
  21116479.81109 -23085759.12709 -17948489.02209  21116479.76209  21116478.83409
  25318780.53107    -84270.59007     12714.12906  25318782.49406  25318780.16906
  21115473.33309 -20482353.67809 -15908185.34609  21115472.79609  21115472.28809
  21228122.10209 -19923011.77509 -15468040.41809  21228122.32709  21228120.48109
  21317338.65809 -20768527.76009 -16122192.17909  21317337.71009  21317337.60309
  21420245.67709 -17872240.40109 -13888531.15409  21420245.70609  21420244.79709
  25015135.64707  -1279654.80907   -984543.81306  25015133.63506  25015133.92806
  24744219.07307  -2927126.98107  -2247952.54106  24744217.16906  24744217.64706
  23404348.91408  -8595815.39608  -6632310.46009  23404348.67009  23404347.92709
 07  1 15  0 37 30.0000000  0  9G08G24G29G10G28G26G19G21G27
  21127723.63009 -23026672.22109 -17902447.27709  21127723.71809  21127722.89809
  25335058.52907      1268.66507     79368.13206  25335060.12106  25335057.68806
  21105545.38709 -20534525.99609 -15948839.10009  21105544.95709  21105544.14609
  21239471.92809 -19863368.19709 -15421564.90809  21239471.97709  21239470.42409
  21310812.56009 -20802822.75109 -16148915.54109  21310811.62209  21310811.65109
  21406097.64109 -17946588.30409 -13946464.57909  21406097.76809  21406096.95709
  25015205.42307  -1279292.14307   -984261.25006  25015202.06206  25015203.12706
  24743287.70407  -2932021.70307  -2251766.63906  24743286.24906  24743286.31706
  23419100.82308  -8518293.51708  -6571903.80309  23419100.77409  23419099.52409
 07  1 15  0 38  0.0000000  0  9G08G24G29G10G28G26G19G21G27
  21139027.85709 -22967268.07909 -17856158.33609  21139028.00409  21139027.02709
  25351344.33107     86849.50007    146054.52106  25351345.51306  25351343.49106
  21095671.29409 -20586414.45909 -15989271.66909  21095670.77609  21095670.27809
  21250918.11009 -19803217.67909 -15374694.37909  21250918.35409  21250916.65409
  21304385.62109 -20836597.00209 -16175233.13609  21304384.54609  21304384.62509
  21392006.40909 -18020638.23509 -14004165.81909  21392006.48709  21392005.70609
  25015375.54907  -1278396.82607   -983563.57806  25015372.22806  25015372.95106
  24742458.67907  -2936377.24307  -2255160.57206  24742458.11306  24742457.81006
  23433870.52908  -8440679.18808  -6511425.12709  23433870.84209  23433868.98609
 07  1 15  0 38 30.0000000  0  9G08G24G29G10G28G26G19G21G27
  21150392.17909 -22907548.54309 -17809623.63709  21150392.26709  21150391.21209
  25367637.11907    172469.01907    212771.03606  25367637.97806  25367636.70806
  21085851.32709 -20638017.83509 -16029482.09409  21085851.09309  21085850.42909
  21262460.48109 -19742562.27209 -15327430.43309  21262460.59809  21262459.00609
  21298057.86109 -20869849.76509 -16201144.37509  21298056.75709  21298056.61009
  21377972.33209 -18094388.49809 -14061633.55809  21377972.25409  21377971.66809
  25015646.57407  -1276968.55007   -982450.60006  25015643.25206  25015644.82506
  24741732.10507  -2940194.46907  -2258135.04306  24741731.63606  24741731.33306
  23448656.95008  -8362973.07608  -6450874.91909  23448657.47709  23448656.24709
 07  1 15  0 39  0.0000000  0  8G08G29G10G28G26G19G21G27
  21161816.04009 -22847515.15209 -17762844.37709  21161816.24509  21161814.93609
  21076086.04509 -20689334.90809 -16069469.42309  21076085.61509  21076084.98009
  21274098.71909 -19681403.90409 -15279774.57109  21274098.66009  21274097.04909
  21291829.45509 -20902580.04509 -16226648.48109  21291828.39009  21291828.32209
  21363995.39009 -18167837.46709 -14118866.52109  21363995.38009  21363994.83309
  25016020.45007  -1275007.19207   -980922.21606  25016016.74806  25016017.73406
  24741108.89007  -2943473.40007  -2260690.07506  24741107.20006  24741108.00106
  23463461.61808  -8285176.10908  -6390253.92209  23463462.00809  23463460.17209
 07  1 15  0 39 30.0000000  0  8G08G29G10G28G26G19G21G27
  21173299.33209 -22787169.47409 -17715821.77709  21173299.62509  21173298.26709
  21066375.65109 -20740364.07709 -16109232.41509  21066375.24109  21066374.53709
  21285832.04309 -19619744.36909 -15231728.19109  21285832.34609  21285830.37309
  21285700.60909 -20934786.94009 -16251744.75909  21285699.37809  21285699.63209
  21350076.33609 -18240983.28809 -14175863.26209  21350076.04309  21350075.43709
  25016494.91107  -1272512.44007   -978978.20406  25016491.32606  25016493.29906
  24740587.21807  -2946214.04207  -2262825.65506  24740585.66506  24740585.80206
  23478282.60908  -8207289.17708  -6329562.82209  23478283.46809  23478281.97409
 07  1 15  0 40  0.0000000  0  8G08G29G10G28G26G19G21G27
  21184841.92809 -22726512.86709 -17668556.89809  21184842.01609  21184840.74609
  21056720.04809 -20791104.20309 -16148770.17709  21056719.63809  21056718.99309
  21297660.52109 -19557585.59309 -15183292.79209  21297660.58909  21297658.92909
  21279671.56709 -20966469.48809 -16276432.45609  21279670.45309  21279670.26809
  21336214.98409 -18313824.17609 -14232622.39309  21336214.86709  21336214.26109
  25017070.63207  -1269483.86307   -976618.26006  25017067.54506  25017069.84106
  24740168.17307  -2948416.93807  -2264542.19806  24740166.02406  24740166.58106
  23493121.61208  -8129312.92708  -6268802.13309  23493121.71009  23493120.08909
 07  1 15  0 40 30.0000000  0  8G08G29G10G28G26G19G21G27
  21196443.48609 -22665546.60909 -17621050.73309  21196443.44609  21196442.24509
  21047119.78309 -20841553.73109 -16188081.50109  21047119.41209  21047118.88409
  21309583.53809 -19494929.36509 -15134469.76709  21309583.90909  21309581.99409
  21273742.45509 -20997626.69809 -16300710.79809  21273741.47909  21273741.08809
  21322411.95909 -18386358.54309 -14289142.67409  21322412.15409  21322411.43109
  25017748.95007  -1265921.24207   -973842.18406  25017746.78206  25017747.28906
  24739850.70007  -2950082.17707  -2265839.80106  24739848.70706  24739849.89906
  23507976.33408  -8051248.34708  -6207972.60209  23507977.40809  23507975.90409
 07  1 15  0 41  0.0000000  0  8G08G29G10G28G26G19G21G27
  21208103.77109 -22604272.24309 -17573304.48309  21208103.61509  21208102.55009
  21037575.10009 -20891711.46409 -16227165.45309  21037574.79709  21037574.22109
  21321600.87809 -19431777.78409 -15085260.75809  21321601.14209  21321599.55009
  21267913.45109 -21028258.30809 -16324579.57709  21267912.15209  21267912.17109
  21308667.98409 -18458584.61309 -14345422.72309  21308667.87609  21308667.31009
  25018529.17207  -1261824.46307   -970649.91606  25018526.24206  25018526.04706
  24739636.52707  -2951210.29107  -2266718.87206  24739634.37806  24739635.42306
  23522848.57008  -7973096.43808  -6147075.04709  23522849.16509  23522847.20209
 07  1 15  0 41 30.0000000  0  8G08G29G10G28G26G19G21G27
  21219822.34509 -22542691.65309 -17525319.61409  21219822.00309  21219821.11409
  21028086.11709 -20941575.99809 -16266020.93709  21028085.92209  21028085.15009
  21333712.00509 -19368132.82809 -15035667.29509  21333712.23009  21333710.46109
  21262184.68009 -21058363.09309 -16348037.85009  21262183.47809  21262183.37109
  21294982.78509 -18530500.65809 -14401461.20009  21294982.67809  21294982.15009
  25019410.14607  -1257193.14507   -967041.06906  25019407.91906  25019407.29406
  24739523.64407  -2951801.69507  -2267179.70506  24739521.28906  24739522.50106
  23537736.32708  -7894857.71908  -6086109.82009  23537736.75709  23537735.84909
 07  1 15  0 42  0.0000000  0  8G08G29G10G28G26G19G21G27
  21231598.64009 -22480806.30009 -17477097.26509  21231598.44409  21231597.68309
  21018653.27309 -20991146.03409 -16304646.93409  21018653.06809  21018652.31609
  21345916.85009 -19303996.45409 -14985690.91209  21345916.96709  21345915.46309
  21256556.20109 -21087940.34509 -16371085.05809  21256555.17509  21256554.94109
  21281357.05709 -18602105.14609 -14457256.90609  21281356.97909  21281356.18809
  25020393.54207  -1252027.13307   -963015.61007  25020390.94307  25020390.93307
  24739513.86507  -2951856.86007  -2267222.69506  24739511.23806  24739512.12706
  23552641.61008  -7816533.19708  -6025077.75009  23552641.88309  23552639.78309
 07  1 15  0 42 30.0000000  0  8G08G29G10G28G26G19G21G27
  21243432.69609 -22418617.72709 -17428638.63709  21243432.51009  21243431.91409
  21009276.78309 -21040420.29009 -16343042.45409  21009276.56809  21009275.65909
  21358214.78809 -19239370.72309 -14935333.21009  21358214.99309  21358213.24409
  21251028.35609 -21116989.45909 -16393720.72309  21251027.47709  21251027.25209
  21267790.89609 -18673396.13709 -14512808.32409  21267790.71109  21267790.07609
  25021478.32307  -1246326.66807   -958573.65607  25021475.85207  25021475.97907
  24739604.97507  -2951376.31307  -2266848.22506  24739602.56306  24739603.12906
  23567562.21908  -7738123.82008  -5963979.56209  23567562.54109  23567561.13509
 07  1 15  0 43  0.0000000  0  8G08G29G10G28G26G19G21G27
  21255324.19009 -22356127.14009 -17379944.67409  21255323.97509  21255323.33009
  20999956.61709 -21089397.30309 -16381206.35709  20999956.45109  20999955.74809
  21370605.37909 -19174257.58809 -14884595.70909  21370605.47709  21370604.00209
  21245601.25309 -21145509.49809 -16415944.12609  21245600.23709  21245600.08109
  21254284.37209 -18744371.98709 -14568114.17609  21254284.45009  21254283.59009
  25022664.83307  -1240091.30707   -953714.92207  25022662.83107  25022662.32307
  24739798.16507  -2950360.31607  -2266056.54106  24739796.04506  24739796.83706
  23582499.15108  -7659630.35308  -5902815.82309  23582498.95609  23582497.64709
 07  1 15  0 43 30.0000000  0  8G08G29G10G28G26G19G21G27
  21267272.90709 -22293336.35309 -17331016.79609  21267272.77009  21267271.77409
  20990693.56709 -21138075.74409 -16419137.60909  20990693.12809  20990692.59109
  21383088.46709 -19108658.79109 -14833479.77209  21383088.65309  21383086.94409
  21240274.97909 -21173499.71109 -16437754.67509  21240273.81709  21240273.76809
  21240838.40209 -18815030.72209 -14623172.92309  21240838.60709  21240837.64909
  25023953.14007  -1233321.08707   -948439.42107  25023950.91307  25023950.60007
  24740092.76107  -2948809.24007  -2264847.92606  24740091.18806  24740092.41906
  23597452.00608  -7581053.20308  -5841586.90809  23597451.71309  23597450.77509
 07  1 15  0 44  0.0000000  0  8G08G29G10G28G26G19G21G27
  21279278.17409 -22230246.69709 -17281856.03509  21279278.48609  21279277.29409
  20981487.40909 -21186454.26909 -16456835.16009  20981487.06709  20981486.39309
  21395663.53509 -19042576.73809 -14781987.26709  21395663.54509  21395661.81609
  21235049.55509 -21200959.39009 -16459151.82309  21235048.43109  21235048.56809
  21227453.33809 -18885370.82509 -14677983.38709  21227453.16209  21227452.50709
  25025342.83307  -1226015.91907   -942747.06907  25025341.09407  25025341.45507
  24740490.14907  -2946723.78107  -2263222.88806  24740488.46906  24740489.35806
  23612420.25508  -7502393.63708  -5780293.75309  23612420.32409  23612418.81009
 07  1 15  0 44 30.0000000  0  8G08G29G10G28G26G19G21G27
  21291340.47809 -22166859.90709 -17232463.74309  21291340.36109  21291338.95409
  20972338.43509 -21234531.59209 -16494298.01109  20972338.16109  20972337.63409
  21408330.01609 -18976013.43009 -14730119.76409  21408330.22109  21408328.56009
  21229925.12609 -21227888.00909 -16480135.15909  21229924.13909  21229924.02209
  21214128.85709 -18955390.83109 -14732544.42609  21214128.87709  21214128.15409
  25026835.34807  -1218175.40607   -936637.57307  25026832.50507  25026833.44307
  24740988.76807  -2944104.42007  -2261181.84906  24740986.89306  24740987.50806
  23627404.50608  -7423652.19208  -5718936.82308  23627403.79308  23627403.08908
 07  1 15  0 45  0.0000000  0  8G08G29G10G28G26G19G21G27
  21303458.79409 -22103177.44709 -17182841.06109  21303458.80409  21303457.42709
  20963247.29909 -21282306.31009 -16531525.06709  20963246.97709  20963246.30309
  21421087.74309 -18908971.12009 -14677879.01709  21421088.01609  21421086.36509
  21224901.87809 -21254284.98909 -16500704.22809  21224901.01809  21224900.88209
  21200865.87909 -19025088.68409 -14786854.43909  21200865.86909  21200865.18509
  25028429.08307  -1209799.82207   -930111.14407  25028426.25007  25028427.32507
  24741588.93907  -2940951.43607  -2258724.98307  24741586.85807  24741587.47407
  23642403.39908  -7344829.88408  -5657516.85208  23642403.74108  23642402.54908
 07  1 15  0 45 30.0000000  0  8G08G29G10G28G26G19G21G27
  21315633.01509 -22039200.74409 -17132989.09909  21315633.08409  21315631.78509
  20954213.76809 -21329777.16309 -16568515.34509  20954213.38709  20954212.92809
  21433936.31609 -18841451.78509 -14625266.55909  21433936.36509  21433934.70409
  21219980.14409 -21280149.59009 -16520858.45709  21219979.20609  21219979.07909
  21187664.50009 -19094462.63709 -14840912.06509  21187664.37309  21187663.74709
  25030124.46907  -1200889.29407   -923167.83807  25030121.68507  25030123.02307
  24742289.83208  -2937266.13508  -2255853.32607  24742288.54307  24742288.59207
  23657418.33208  -7265927.26808  -5596034.33608  23657418.75208  23657417.17908
 07  1 15  0 46  0.0000000  0  8G08G29G10G28G26G19G21G27
  21327863.40509 -21974931.13109 -17082908.88909  21327863.01409  21327862.05709
  20945238.60309 -21376942.69609 -16605267.71109  20945238.18309  20945237.67509
  21446875.15009 -18773457.26609 -14572283.83009  21446875.41309  21446873.63509
  21215159.71709 -21305481.23509 -16540597.39309  21215158.83809  21215158.56509
  21174524.97409 -19163511.19609 -14894716.13709  21174525.00309  21174524.19309
  25031922.02207  -1191443.55607   -915807.48907  25031919.38507  25031920.38107
  24743092.43407  -2933048.65207  -2252566.95707  24743090.93007  24743091.18407
  23672448.05408  -7186945.35408  -5534490.00008  23672447.45808  23672447.02808
 07  1 15  0 46 30.0000000  0  8G08G29G10G28G26G19G21G27
  21340148.96609 -21910369.92709 -17032601.46609  21340148.55609  21340147.87209
  20936321.71709 -21423801.46409 -16641781.03709  20936321.20909  20936320.71009
  21459904.24309 -18704989.60909 -14518932.42109  21459904.46809  21459902.33809
  21210440.84309 -21330278.95509 -16559920.28709  21210439.81809  21210439.71009
  21161447.85909 -19232232.18209 -14948264.95609  21161447.88809  21161447.09709
  25033820.55107  -1181462.37807   -908029.93207  25033818.71507  25033819.51607
  24743995.96307  -2928299.52207  -2248866.31107  24743994.84907  24743994.99607
  23687492.57508  -7107884.87208  -5472884.45709  23687492.97609  23687491.74509
 07  1 15  0 47  0.0000000  0  8G08G29G10G28G26G19G21G27
  21352489.69909 -21845519.00609 -16982068.28609  21352489.31809  21352488.67409
  20927463.29409 -21470352.21409 -16678054.35609  20927462.93209  20927462.43409
  21473022.68809 -18636051.10709 -14465214.12809  21473023.03009  21473020.96909
  21205823.72709 -21354542.35909 -16578826.82909  21205822.58409  21205822.58409
  21148433.33009 -19300624.23309 -15001557.46809  21148433.22309  21148432.64609
  25035822.13707  -1170946.36607   -899835.62906  25035819.84206  25035820.60406
  24745000.79007  -2923019.22507  -2244751.80407  24744999.35407  24744999.34507
  23702552.39408  -7028746.53508  -5411218.24908  23702552.55008  23702551.13408
 07  1 15  0 47 30.0000000  0  8G08G29G10G28G26G19G21G27
  21364885.45809 -21780379.87309 -16931310.51909  21364884.81309  21364884.17909
  20918663.86309 -21516593.69509 -16714086.67809  20918663.43309  20918662.81709
  21486230.44609 -18566644.04609 -14411130.71709  21486230.91509  21486228.67809
  21201308.30009 -21378271.08909 -16597316.74509  21201307.10809  21201307.14709
  21135481.80809 -19368685.42009 -15054592.16509  21135481.53409  21135480.97709
  25037924.14207  -1159895.43007   -891224.54607  25037923.26307  25037922.79407
  24746106.28107  -2917208.72007  -2240224.12407  24746105.34307  24746104.84507
  23717626.93408  -6949531.06308  -5349491.93509  23717627.05109  23717624.84309
 07  1 15  0 48  0.0000000  0  8G08G29G10G28G26G19G21G27
  21377335.43209 -21714953.97209 -16880329.29609  21377335.23609  21377334.18109
  20909923.57909 -21562524.38409 -16749876.82709  20909923.27609  20909922.52409
  21499526.92009 -18496770.42209 -14356683.75309  21499527.32109  21499525.38709
  21196894.66909 -21401464.42209 -16615389.46709  21196893.64309  21196893.64309
  21122593.28209 -19436414.17109 -15107367.81909  21122593.02809  21122592.43209
  25040129.41007  -1148309.59907   -882196.63506  25040128.13006  25040127.34806
  24747313.38307  -2910868.45907  -2235283.65906  24747311.75206  24747311.20406
  23732715.44208  -6870239.22508  -5287706.12508  23732715.94008  23732714.24108
 07  1 15  0 48 30.0000000  0  8G08G29G10G28G26G19G21G27
  21389839.66909 -21649242.63609 -16829125.66309  21389839.79609  21389838.72109
  20901242.63909 -21608143.00009 -16785423.80109  20901242.34609  20901241.61309
  21512911.95509 -18426432.33409 -14301874.87309  21512912.30709  21512910.47009
  21192583.17709 -21424121.72609 -16633044.50509  21192582.00409  21192582.03409
  21109768.55309 -19503808.59209 -15159882.95309  21109768.39709  21109767.68309
  25042436.76606  -1136188.91106   -872751.91806  25042433.73806  25042433.20106
  24748620.09307  -2903999.43107  -2229931.17606  24748618.86206  24748618.68606
  23747818.47608  -6790871.99608  -5225861.53808  23747818.83808  23747817.00108
 07  1 15  0 49  0.0000000  0  8G08G29G10G28G26G19G21G27
  21402398.14009 -21583247.48009 -16777700.87309  21402398.18909  21402396.89909
  20892621.33409 -21653448.09409 -16820726.47709  20892621.10009  20892620.44509
  21526384.90609 -18355631.92509 -14246705.73909  21526385.21809  21526383.40109
  21188373.63709 -21446242.78609 -16650281.69009  21188372.47509  21188372.54309
  21097007.85609 -19570866.94409 -15212136.21609  21097007.65109  21097006.96709
  25044844.06407  -1123533.72607   -862890.72106  25044842.87206  25044841.28006
  24750027.64307  -2896602.39307  -2224167.24306  24750026.33406  24750026.27506
  23762935.81108  -6711429.99208  -5163958.70509  23762936.42709  23762934.84409
 07  1 15  0 49 30.0000000  0  8G08G29G10G28G26G19G21G27
  21415010.44509 -21516970.12509 -16726056.19509  21415010.49309  21415009.13609
  20884060.02809 -21698438.59809 -16855784.01409  20884059.63709  20884058.98209
  21539945.31309 -18284371.87309 -14191178.43809  21539945.38109  21539943.64209
  21184266.29509 -21467827.12809 -16667100.65509  21184265.06409  21184265.34709
  21084311.21109 -19637587.62309 -15264126.35509  21084311.22109  21084310.46809
  25047354.34906  -1110343.99806   -852613.03807  25047352.60107  25047351.75107
  24751535.61107  -2888677.89607  -2217992.30106  24751534.17506  24751533.93106
  23778067.10508  -6631914.02108  -5101998.25508  23778067.60408  23778065.72808
 07  1 15  0 50  0.0000000  0  8G08G29G10G28G26G19G21G27
  21427675.95809 -21450411.81309 -16674192.59109  21427676.30009  21427674.67809
  20875558.74809 -21743112.93109 -16890595.18609  20875558.41609  20875557.63409
  21553592.61009 -18212653.91009 -14135294.32209  21553592.91309  21553591.25209
  21180261.28609 -21488874.10209 -16683500.89509  21180259.97809  21180260.11409
  21071679.44709 -19703968.86109 -15315851.99209  21071679.10509  21071678.63709
  25049965.38607  -1096620.27507   -841919.21807  25049964.72207  25049963.64707
  24753143.33507  -2880226.80007  -2211406.99306  24753141.99706  24753142.22206
  23793212.87608  -6552324.65208  -5039980.58509  23793212.74009  23793211.83109
 07  1 15  0 50 30.0000000  0  8G08G29G10G28G26G19G21G27
  21440394.85609 -21383574.15209 -16622111.30709  21440394.90509  21440393.46909
  20867118.01209 -21787469.67909 -16925158.88909  20867117.58309  20867116.79109
  21567326.78709 -18140480.33309 -14079055.18309  21567327.33409  21567325.43909
  21176358.52409 -21509383.13209 -16699481.95209  21176357.38109  21176357.39109
  21059112.35109 -19770008.97209 -15367311.82109  21059112.01909  21059111.51109
  25052678.56206  -1082362.55006   -830809.31006  25052677.38006  25052677.32106
  24754852.57207  -2871249.77907  -2204411.92406  24754850.64806  24754850.46206
  23808371.77608  -6472662.91308  -4977906.53408  23808372.34208  23808370.72108
 07  1 15  0 51  0.0000000  0  8G08G29G10G28G26G19G21G27
  21453166.63009 -21316458.55509 -16569813.44509  21453166.69809  21453165.23309
  20858737.78309 -21831507.79409 -16959474.30609  20858737.43109  20858736.70809
  21581147.21909 -18067853.66609 -14022462.98909  21581147.47309  21581145.56809
  21172558.06609 -21529354.02609 -16715043.68609  21172557.04009  21172556.92309
  21046610.37009 -19835706.09209 -15418504.38109  21046610.38009  21046609.51109
  25055493.03507  -1067571.16307   -819283.52506  25055492.08806  25055491.41406
  24756660.15807  -2861747.87207  -2197007.86406  24756658.35006  24756657.96006
  23823545.27908  -6392929.35508  -4915776.52308  23823544.71308  23823543.06208
 07  1 15  0 51 30.0000000  0  8G08G29G10G28G26G19G21G27
  21465990.71409 -21249066.94309 -16517300.51009  21465990.80209  21465989.48309
  20850418.58609 -21875225.63309 -16993540.15409  20850418.12709  20850417.54109
  21595053.46709 -17994776.03809 -13965519.40109  21595053.82909  21595051.67909
  21168860.29409 -21548786.46709 -16730185.84409  21168859.34609  21168858.97509
  21034174.25809 -19901058.57109 -15469428.38909  21034174.20909  21034173.52609
  25058409.49207  -1052246.07007   -807341.90706  25058408.34906  25058408.08506
  24758568.30907  -2851721.95507  -2189195.44906  24758566.49206  24758565.44706
  23838731.15008  -6313124.61908  -4853591.04208  23838731.50108  23838729.49908
 07  1 15  0 52  0.0000000  0  8G08G29G10G28G26G19G21G27
  21478867.30309 -21181400.56109 -16464573.46009  21478867.13709  21478865.87709
  20842160.47109 -21918622.01109 -17027355.51709  20842160.04109  20842159.51409
  21609045.03209 -17921249.73409 -13908226.19209  21609045.38409  21609043.04909
  21165265.02109 -21567679.87409 -16744907.97409  21165264.13209  21165263.87809
  21021804.19009 -19966064.53909 -15520082.39009  21021804.12209  21021803.37009
  25061428.39907  -1036387.95307   -794984.94306  25061425.95706  25061425.83906
  24760574.57407  -2841172.74307  -2180975.26306  24760574.21206  24760573.03006
  23853930.29508  -6233249.60408  -4791350.79408  23853931.79908  23853929.49408
 07  1 15  0 52 30.0000000  0  8G08G29G10G28G26G19G21G27
  21491795.90909 -21113460.49509 -16411633.14809  21491795.91909  21491794.40409
  20833963.94609 -21961695.56609 -17060919.33209  20833963.40909  20833962.83209
  21623121.48509 -17847276.97309 -13850585.09709  21623122.06109  21623119.77509
  21161772.37509 -21586033.86509 -16759209.78309  21161771.48609  21161771.08609
  21009500.25509 -20030722.43209 -15570465.16409  21009500.16709  21009499.51209
  25064547.19806  -1019996.81706   -782212.60407  25064545.04807  25064544.90207
  24762682.78207  -2830100.84507  -2172347.84106  24762681.12106  24762680.21306
  23869143.31208  -6153305.23608  -4729056.50608  23869144.12208  23869142.19808
 07  1 15  0 53  0.0000000  0  8G08G29G10G28G26G19G21G27
  21504776.12109 -21045248.35809 -16358480.83909  21504776.00409  21504774.56809
  20825829.08909 -22004444.64809 -17094230.30309  20825828.63909  20825827.93609
  21637282.67809 -17772859.86609 -13792597.75709  21637283.02009  21637280.88109
  21158382.43509 -21603848.08009 -16773090.98409  21158381.43809  21158381.23309
  20997262.85109 -20095030.18209 -15620575.09609  20997262.77309  20997262.03109
  25067766.98207  -1003072.96307   -769025.17906  25067765.57606  25067765.44906
  24764887.96107  -2818507.47407  -2163314.04206  24764887.35506  24764886.38806
  23884369.61308  -6073291.60408  -4666708.24108  23884370.44408  23884368.45108
 07  1 15  0 53 30.0000000  0  8G08G29G10G28G26G19G21G27
  21517807.99909 -20976765.87909 -16305117.87609  21517807.79409  21517806.40709
  20817756.05609 -22046868.24609 -17127287.65309  20817755.62609  20817755.04009
  21651527.91909 -17698001.08609 -13734266.25409  21651528.07509  21651526.37609
  21155095.19909 -21621122.49709 -16786551.56509  21155094.17409  21155094.12509
  20985092.30309 -20158986.29909 -15670411.02709  20985092.26409  20985091.57109
  25071089.84307   -985616.97207   -755423.09207  25071087.57707  25071087.06907
  24767193.65707  -2806393.61407  -2153874.68006  24767192.33806  24767191.95706
  23899608.72108  -5993209.88808  -4604306.95408  23899609.64908  23899607.63708
 07  1 15  0 54  0.0000000  0  8G08G29G10G28G26G19G21G27
  21530890.94609 -20908014.46709 -16251545.35009  21530890.87709  21530889.22609
  20809745.21909 -22088964.95409 -17160090.28409  20809745.03309  20809744.32009
  21665856.78709 -17622702.68509 -13675592.18809  21665856.87509  21665855.04809
  21151910.94209 -21637856.49709 -16799591.03709  21151909.93609  21151909.62409
  20972989.12809 -20222589.09509 -15719971.64309  20972989.07909  20972988.40509
  25074512.45907   -967628.90607   -741406.41007  25074510.31007  25074510.16307
  24769597.29107  -2793760.33107  -2144030.59806  24769596.02106  24769596.32406
  23914860.56708  -5913060.80008  -4541853.14308  23914860.83108  23914859.48308
 07  1 15  0 54 30.0000000  0  8G08G29G10G28G26G19G21G27
  21544024.70809 -20838995.57909 -16197764.40409  21544024.70809  21544023.19309
  20801796.90909 -22130733.42609 -17192637.14609  20801796.65509  20801796.04909
  21680268.76509 -17546967.15009 -13616577.49209  21680268.62809  21680266.85009
  21148829.24409 -21654050.06309 -16812209.38609  21148828.27709  21148828.09109
  20960953.43309 -20285836.78709 -15769255.55109  20960953.48209  20960952.85609
  25078036.28507   -949109.43007   -726975.64107  25078034.12707  25078035.01607
  24772100.27007  -2780608.28107  -2133782.25906  24772098.85406  24772098.75606
  23930124.89808  -5832845.08008  -4479347.39808  23930125.98208  23930124.23308
 07  1 15  0 55  0.0000000  0  8G08G29G10G28G26G19G21G27
  21557209.54909 -20769710.27609 -16143775.85909  21557209.09909  21557207.64409
  20793911.33209 -22172172.19109 -17224927.08809  20793911.27309  20793910.40409
  21694763.22709 -17470796.78209 -13557223.97209  21694763.55009  21694761.66409
  21145850.68009 -21669702.71509 -16824406.24609  21145849.60609  21145849.72309
  20948985.80409 -20348727.42609 -15818261.24009  20948985.88209  20948985.15909
  25081661.92807   -930059.31507   -712131.36007  25081659.04607  25081660.18907
  24774701.65607  -2766938.48407  -2123130.52106  24774700.56206  24774700.40606
  23945402.66908  -5752563.50708  -4416790.39408  23945403.27508  23945400.37308
 07  1 15  0 55 30.0000000  0  8G08G29G10G28G26G19G21G27
  21570444.52109 -20700160.39509 -16089581.15009  21570444.23809  21570442.77309
  20786088.92709 -22213279.91609 -17256959.07609  20786088.75109  20786087.86209
  21709340.51609 -17394193.90209 -13497533.43009  21709340.60409  21709338.78709
  21142975.03709 -21684814.32209 -16836181.51909  21142973.92309  21142973.90409
  20937086.29009 -20411259.57409 -15866987.58709  20937086.36809  20937085.53809
  25085388.24407   -910478.05107   -696873.23407  25085384.92207  25085386.55407
  24777401.23407  -2752752.00107  -2112076.13606  24777400.38406  24777400.21806
  23960691.58608  -5672216.24208  -4354182.16008  23960692.55308  23960690.28708
 07  1 15  0 56  0.0000000  0  8G08G29G10G28G26G19G21G27
  21583729.29309 -20630347.48309 -16035181.48309  21583729.10709  21583727.83709
  20778329.55809 -22254055.29309 -17288732.09109  20778329.39209  20778328.53209
  21723999.45909 -17317160.70209 -13437507.57609  21723999.41009  21723997.69109
  21140202.36209 -21699384.61409 -16847534.98109  21140201.14109  21140201.22909
  20925255.28209 -20473431.41809 -15915433.17109  20925255.52609  20925254.60809
  25089214.57807   -890366.71407   -681202.03007  25089211.94107  25089213.77707
  24780198.57407  -2738049.92307  -2100619.97306  24780198.39806  24780197.65606
  23975993.96408  -5591804.15208  -4291523.40708  23975994.47208  23975992.47008
 07  1 15  0 56 30.0000000  0  8G08G29G10G28G26G19G21G27
  21597063.96209 -20560272.72009 -15980577.77609  21597063.88409  21597062.71209
  20770633.82009 -22294497.15909 -17320245.23009  20770633.50709  20770632.75509
  21738739.64509 -17239699.86109 -13377148.49309  21738739.88009  21738738.06309
  21137532.80209 -21713413.17709 -16858466.31609  21137531.53209  21137531.71809
  20913493.35609 -20535241.26809 -15963596.68209  20913493.27809  20913492.66309
  25093142.53307   -869725.72607   -665118.12507  25093139.63207  25093141.44907
  24783094.51607  -2722833.46907  -2088762.99906  24783093.78406  24783093.41206
  23991307.88808  -5511328.32508  -4228815.03008  23991308.58208  23991307.03908
 07  1 15  0 57  0.0000000  0  8G08G29G10G28G26G19G21G27
  21610448.26409 -20489937.73609 -15925771.30009  21610448.43009  21610447.08209
  20763001.75209 -22334603.86809 -17351497.21409  20763001.41009  20763000.75609
  21753560.99809 -17161813.45909 -13316457.81209  21753561.17309  21753559.40509
  21134966.35809 -21726900.07009 -16868975.57609  21134965.03009  21134965.21509
  20901800.60009 -20596687.00609 -16011476.47709  20901800.61009  20901800.05309
  25097171.54307   -848555.29007   -648621.64807  25097168.52407  25097169.63807
  24786088.05507  -2707103.48807  -2076505.88206  24786086.87306  24786086.73606
  24006634.18908  -5430788.85908  -4166057.02508  24006634.14108  24006633.21308
 07  1 15  0 57 30.0000000  0  8G08G29G10G28G26G19G21G27
  21623881.93609 -20419344.00509 -15870763.20809  21623881.64309  21623880.58809
  20755433.72709 -22374374.31709 -17382487.17609  20755433.29709  20755432.71109
  21768462.74409 -17083504.09909 -13255437.54409  21768463.01709  21768461.41509
  21132502.92209 -21739845.40009 -16879062.84009  21132501.50509  21132501.84709
  20890177.50309 -20657767.36409 -16059071.55809  20890177.29809  20890176.73109
  25101300.55107   -826856.31307   -631713.35307  25101297.87507  25101298.73407
  24789178.97507  -2690861.13607  -2063849.56606  24789177.34306  24789177.80206
  24021971.88008  -5350186.95408  -4103250.35708  24021972.89608  24021971.09908
 07  1 15  0 58  0.0000000  0  8G08G29G10G28G26G19G21G27
  21637364.35209 -20348492.77509 -15815554.46809  21637364.54709  21637363.33609
  20747929.87909 -22413806.98609 -17413213.93509  20747929.49809  20747928.85409
  21783444.88409 -17004774.36209 -13194089.70909  21783444.82609  21783442.97009
  21130142.56209 -21752248.69109 -16888727.73809  21130141.35009  21130141.41909
  20878624.06509 -20718480.41809 -16106380.43009  20878624.13309  20878623.43909
  25105530.03807   -804629.39607   -614393.68907  25105527.39107  25105528.34807
  24792367.22707  -2674107.68707  -2050794.95806  24792365.59606  24792365.48806
  24037321.96708  -5269523.17508  -4040395.53808  24037322.44608  24037320.19908
 07  1 15  0 58 30.0000000  0  8G08G29G10G28G26G19G21G27
  21650895.80509 -20277385.45209 -15760146.17209  21650895.56109  21650894.37909
  20740490.56209 -22452900.64609 -17443676.52909  20740490.22009  20740489.50709
  21798506.04109 -16925626.29309 -13132415.90809  21798506.40309  21798504.55609
  21127885.55109 -21764109.87009 -16897970.20509  21127884.18409  21127884.23309
  20867140.99709 -20778824.30309 -16153401.63509  20867140.98809  20867140.33309
  25109859.10307   -781874.65907   -596662.74607  25109857.81407  25109858.26307
  24795652.70407  -2656843.93907  -2037342.66806  24795651.15106  24795650.57506
  24052683.56108  -5188798.20908  -3977492.95208  24052683.68808  24052681.94908
 07  1 15  0 59  0.0000000  0  8G08G29G10G28G26G19G21G27
  21664475.28009 -20206023.70309 -15704539.61709  21664475.21209  21664474.35209
  20733116.13709 -22491653.90309 -17473873.87209  20733115.82409  20733115.09209
  21813646.63509 -16846062.61609 -13070418.24609  21813646.74209  21813644.76909
  21125731.53909 -21775428.67309 -16906790.04309  21125730.19109  21125730.46509
  20855728.47809 -20838797.55009 -16200134.03209  20855728.46809  20855727.82309
  25114290.58107   -758592.92007   -578521.13907  25114288.60807  25114288.77407
  24799034.20507  -2639071.17707  -2023493.74906  24799032.86706  24799032.31006
  24068056.33008  -5108012.22508  -3914542.88308  24068057.21908  24068054.84608
 07  1 15  0 59 30.0000000  0  8G08G29G10G28G26G19G21G27
  21678103.29509 -20134409.19509 -15648736.10809  21678102.86509  21678102.20009
  20725806.66109 -22530065.49609 -17503804.99009  20725806.19209  20725805.63609
  21828865.44409 -16766085.74609 -13008098.62209  21828866.00109  21828864.10609
  21123680.78909 -21786205.27209 -16915187.38909  21123679.59709  21123679.73409
  20844386.95509 -20898398.32509 -16246576.19409  20844386.77909  20844386.18309
  25118821.24707   -734785.01207   -559969.53707  25118818.83407  25118819.49907
  24802512.86207  -2620790.77707  -2009249.27906  24802511.40706  24802510.98706
  24083440.98808  -5027166.53908  -3851546.29008  24083441.25208  24083439.87408
 07  1 15  1  0  0.0000000  0  8G08G29G10G28G26G19G21G27
  21691778.80309 -20062542.84209 -15592736.35309  21691778.75409  21691777.94309
  20718562.41909 -22568133.90509 -17533468.68909  20718562.09709  20718561.40309
  21844162.77209 -16685697.97109 -12945458.81309  21844163.38709  21844161.30709
  21121733.36909 -21796439.48809 -16923162.09809  21121732.11809  21121732.27409
  20833116.53609 -20957624.72009 -16292726.63609  20833116.25309  20833115.71609
  25123451.79507   -710451.10407   -541008.03307  25123449.46007  25123450.34907
  24806088.03107  -2602003.91907  -1994610.16306  24806086.83006  24806085.99906
  24098837.01608  -4946261.49308  -3788503.41908  24098837.09408  24098834.78808
 07  1 15  1  0 30.0000000  0  9G09G08G29G10G28G26G19G21G27
  25019487.80507    -43378.42907     -9165.57407                                
  21705502.06909 -19990426.47409 -15536541.77809  21705501.76609  21705501.10209
  20711383.84109 -22605858.04809 -17562864.12809  20711383.49909  20711382.67809
  21859537.76809 -16604902.09709 -12882501.01309  21859538.12009  21859536.37109
  21119889.03409 -21806131.57409 -16930714.36809  21119887.87209  21119887.86209
  20821917.52509 -21016475.28609 -16338584.22109  20821917.41809  20821916.80209
  25128181.64907   -685592.34307   -521637.54907  25128180.35907  25128180.96507
  24809758.98907  -2582712.01007  -1979577.52606  24809757.61206  24809757.69006
  24114243.54408  -4865298.07408  -3725415.10708  24114244.50208  24114242.88008
 07  1 15  1  1  0.0000000  0  9G09G08G29G10G28G26G19G21G27
  24998509.30807   -153620.96307    -95068.82507  24998509.73707  24998507.44207
  21719272.67209 -19918061.08309 -15480153.16809  21719272.76009  21719272.06709
  20704270.77909 -22643236.43809 -17591990.14609  20704270.73909  20704269.81109
  21874990.27709 -16523700.36809 -12819226.96009  21874990.40409  21874988.47009
  21118147.99109 -21815281.05209 -16937843.82109  21118146.86809  21118146.63409
  20810790.55509 -21074948.17009 -16384147.50709  20810790.46809  20810789.70609
  25133012.45907   -660209.07707   -501858.35007  25133010.59307  25133011.56007
  24813526.11807  -2562915.92607  -1964151.99806  24813524.74006  24813524.48606
  24129661.25807  -4784276.46707  -3662281.39308  24129662.46008  24129659.70508
 07  1 15  1  1 30.0000000  0  9G09G08G29G10G28G26G19G21G27
  24977541.31107   -263803.88107   -180925.58707  24977543.61707  24977540.52007
  21733090.53609 -19845448.72209 -15423572.10909  21733090.34009  21733089.16809
  20697224.04409 -22680267.83509 -17620845.77509  20697223.83909  20697223.00909
  21890519.25309 -16442095.38909 -12755638.67709  21890519.55609  21890517.14309
  21116510.01509 -21823888.13909 -16944550.63209  21116508.99909  21116508.64709
  20799735.72609 -21133041.71109 -16429415.19709  20799735.66709  20799734.99309
  25137941.30507   -634302.34007   -481671.24906  25137939.43906  25137941.34406
  24817388.57607  -2542617.25907  -1948334.80806  24817387.15906  24817387.44206
  24145090.22508  -4703197.46708  -3599103.00608  24145091.28008  24145089.24808
 07  1 15  1  2  0.0000000  0  9G09G08G29G10G28G26G19G21G27
  24956585.87707   -373925.68607   -266734.76607  24956587.60607  24956585.66207
  21746954.87709 -19772590.59709 -15366799.54809  21746954.90609  21746953.95909
  20690243.48109 -22716950.79609 -17649429.89909  20690243.36309  20690242.54309
  21906124.38309 -16360089.27409 -12691737.82809  21906124.48109  21906122.89809
  21114975.33009 -21831952.89309 -16950834.84409  21114974.08909  21114974.00109
  20788753.40709 -21190754.13809 -16474385.91709  20788753.41709  20788752.58609
  25142970.73607   -607872.59007   -461076.61907  25142968.56707  25142970.07207
  24821346.66607  -2521817.32507  -1932127.05106  24821345.37706  24821344.85906
  24160529.78108  -4622061.50208  -3535880.18608  24160530.27908  24160528.06108
 07  1 15  1  2 30.0000000  0  9G09G08G29G10G28G26G19G21G27
  24935641.61807   -483986.04507   -352496.06007  24935644.07007  24935641.72507
  21760865.65709 -19699488.22909 -15309836.67109  21760865.88209  21760864.74909
  20683329.60609 -22753284.06509 -17677741.53809  20683329.27409  20683328.62009
  21921805.61909 -16277684.73409 -12627526.50909  21921805.53109  21921803.60709
  21113543.94509 -21839475.14509 -16956696.33109  21113542.77309  21113542.57809
  20777843.87209 -21248083.84909 -16519058.42109  20777843.90209  20777843.03209
  25148100.14707   -580920.44407   -440074.96207  25148097.36307  25148098.87707
  24825399.98907  -2500517.05507  -1915529.43206  24825398.39706  24825398.88506
  24175980.58008  -4540869.58108  -3472613.79208  24175981.09808  24175979.33008
 07  1 15  1  3  0.0000000  0  9G09G08G29G10G28G26G19G21G27
  24914710.15507   -593983.56407   -438208.38107  24914712.00207  24914709.60807
  21774822.89609 -19626142.46809 -15252684.13609  21774823.18909  21774821.55809
  20676482.38209 -22789266.28109 -17705779.62809  20676482.11809  20676481.45409
  21937561.88609 -16194884.56109 -12563006.90209  21937561.93509  21937560.01109
  21112215.57809 -21846455.21909 -16962135.34709  21112214.57209  21112214.28909
  20767007.53209 -21305028.97309 -16563431.24009  20767007.44509  20767006.75109
  25153328.51207   -553446.67607   -418666.82707  25153326.39207  25153326.56807
  24829548.15407  -2478718.00807  -1898543.15506  24829546.34706  24829547.11806
  24191440.62008  -4459622.00308  -3409304.03708  24191441.67508  24191439.89708
 07  1 15  1  3 30.0000000  0  9G09G08G29G10G28G26G19G21G27
  24893791.29407   -703917.33807   -523871.02406  24893792.20206  24893789.42806
  21788826.16409 -19552555.09309 -15195343.33609  21788826.32009  21788824.64009
  20669702.20709 -22824896.26809 -17733543.25609  20669701.86609  20669701.19109
  21953393.08709 -16111690.97209 -12498180.74309  21953393.00909  21953391.05509
  21110990.43409 -21852893.20409 -16967151.95209  21110989.41809  21110989.17409
  20756244.83709 -21361587.91509 -16607503.14309  20756244.64109  20756243.90909
  25158655.80107   -525452.40007   -396853.10307  25158653.76007  25158653.86707
  24833791.21807  -2456421.46807  -1881169.24006  24833790.24106  24833790.19306
  24206913.30008  -4378319.70608  -3345951.63008  24206913.44708  24206912.10908
 07  1 15  1  4  0.0000000  0  9G09G08G29G10G28G26G19G21G27
  24872883.31507   -813786.20107   -609483.09506  24872884.35006  24872881.93706
  21802875.25509 -19478727.44309 -15137815.31309  21802875.63609  21802873.70209
  20662989.35709 -22860172.41609 -17761031.16509  20662989.17109  20662988.30209
  21969298.43909 -16028106.67009 -12433050.12509  21969298.67409  21969296.78909
  21109868.55209 -21858789.11509 -16971746.16309  21109867.41909  21109867.32109
  20745555.66809 -21417758.72509 -16651272.60809  20745555.56009  20745554.94509
  25164082.00607   -496938.15807   -374634.18507  25164079.97407  25164079.91507
  24838128.40107  -2433628.86707  -1863408.75006  24838127.22906  24838127.91306
  24222394.98708  -4296962.89008  -3282556.71708  24222395.74008  24222392.86808
 07  1 15  1  4 30.0000000  0  9G09G08G29G10G28G26G19G21G27
  24851988.24907   -923589.57607   -695044.11606  24851989.33406  24851987.00906
  21816969.44709 -19404661.06309 -15080101.25609  21816970.10109  21816967.75709
  20656343.95809 -22895093.69909 -17788242.55409  20656343.78209  20656343.09809
  21985277.84609 -15944134.27109 -12367617.09909  21985278.13909  21985275.70709
  21108849.66809 -21864143.09909 -16975918.09109  21108848.44709  21108848.42709
  20734941.12909 -21473539.93909 -16694738.49109  20734940.88509  20734940.25009
  25169606.74407   -467904.92307   -352010.87807  25169604.64407  25169605.58107
  24842559.85007  -2410341.77607  -1845262.97406  24842558.94106  24842559.02906
  24237886.58008  -4215552.68108  -3219120.23708  24237887.01908  24237885.30008
 07  1 15  1  5  0.0000000  0  9G09G08G29G10G28G26G19G21G27
  24831106.11707  -1033326.08707   -780553.03306  24831106.81106  24831104.53506
  21831109.20809 -19330357.19909 -15022202.15709  21831109.56009  21831107.79209
  20649766.59509 -22929658.66109 -17815176.29109  20649766.23409  20649765.66709
  22001330.44809 -15859776.21509 -12301883.56009  22001330.75109  22001328.79709
  21107933.72309 -21868955.24909 -16979667.80609  21107932.72709  21107932.52209
  20724400.44009 -21528929.79809 -16737899.42009  20724400.60609  20724399.85409
  25175230.04607   -438353.19107   -328983.54607  25175228.04307  25175228.84407
  24847084.66507  -2386561.31207  -1826732.74106  24847083.75606  24847083.65806
  24253388.06708  -4134089.28508  -3155642.26708  24253389.61008  24253386.72908
 07  1 15  1  5 30.0000000  0  9G09G08G29G10G28G26G19G21G27
  24810236.78207  -1142994.41907   -866008.85806  24810236.72306  24810235.03306
  21845293.61209 -19255817.48609 -14964119.26809  21845294.04109  21845292.32209
  20643257.05509 -22963865.97309 -17841831.34509  20643256.84909  20643256.23409
  22017456.41009 -15775034.86709 -12235851.35809  22017456.57609  22017454.49609
  21107121.14809 -21873225.64409 -16982995.38209  21107120.12209  21107119.87809
  20713935.16309 -21583926.57909 -16780754.05409  20713935.19309  20713934.21609
  25180952.07607   -408284.29707   -305553.21907  25180949.75207  25180950.63107
  24851703.73507  -2362289.16907  -1807819.35306  24851702.29906  24851702.36706
  24268900.43708  -4052573.38208  -3092123.46208  24268901.09108  24268899.04008
 07  1 15  1  6  0.0000000  0  9G09G08G29G10G28G26G19G21G27
  24789380.42907  -1252593.94207   -951411.06306  24789380.86806  24789378.98306
  21859522.83209 -19181043.04109 -14905853.47809  21859523.24309  21859521.50409
  20636816.04909 -22997714.44909 -17868206.78209  20636815.83409  20636815.10209
  22033654.75609 -15689912.93709 -12169522.59309  22033654.69809  22033652.89109
  21106411.50309 -21876954.59309 -16985901.05109  21106410.58409  21106410.27209
  20703544.53609 -21638528.61009 -16823301.09109  20703544.68309  20703543.88209
  25186772.44607   -377698.83807   -281720.38407  25186769.99407  25186770.50207
  24856416.19107  -2337526.54507  -1788523.83506  24856414.87206  24856414.93106
  24284421.51008  -3971005.84708  -3028564.31308  24284422.66208  24284420.65008
 07  1 15  1  6 30.0000000  0 10G09G08G18G29G10G28G26G19G21G27
  24768537.88807  -1362123.26707  -1036758.51506  24768537.95606  24768536.97006
  21873796.37209 -19106035.46509 -14847406.02909  21873796.44109  21873795.31709
  25474050.39107    -89758.64307                                                
  20630443.56909 -23031202.74409 -17894301.56009  20630443.12009  20630442.45609
  22049924.57809 -15604413.06609 -12102899.33509  22049924.78309  22049923.30809
  21105805.09909 -21880142.19209 -16988384.88909  21105803.82009  21105803.63409
  20693229.84909 -21692734.26909 -16865539.26609  20693229.66409  20693228.77509
  25192690.16707   -346597.96507   -257485.92207  25192688.40907  25192688.15507
  24861220.92907  -2312275.18107  -1768847.44706  24861219.73706  24861220.00106
  24299953.23008  -3889387.04308  -2964965.29108  24299954.85208  24299952.40008
 07  1 15  1  7  0.0000000  0 10G09G08G18G29G10G28G26G19G21G27
  24747708.92507  -1471581.67107  -1122050.72006  24747709.16006  24747708.50506
  21888113.68409 -19030795.92909 -14788777.82709  21888113.99709  21888112.78609
  25454967.65807   -190041.57807    -63413.95706  25454966.34906  25454965.94906
  20624139.53709 -23064329.51009 -17920114.62409  20624139.39009  20624138.59909
  22066266.27609 -15518537.76109 -12035983.52409  22066266.16809  22066265.08409
  21105301.63509 -21882788.78409 -16990447.16109  21105300.20009  21105300.26809
  20682990.43709 -21746541.67809 -16907467.12109  20682990.33009  20682989.63609
  25198706.52007   -314982.11807   -232850.19506  25198704.91806  25198704.56706
  24866119.90307  -2286536.58207  -1748791.38006  24866118.31106  24866117.85206
  24315494.76807  -3807717.63907  -2901326.81008  24315495.97008  24315493.44008
 07  1 15  1  7 30.0000000  0 10G09G08G18G29G10G28G26G19G21G27
  24726892.84707  -1580968.26407  -1207286.94706  24726893.44306  24726892.33906
  21902475.25709 -18955326.06909 -14729970.15909  21902475.46209  21902474.27109
  25435924.13607   -290118.60707   -141396.09106  25435921.41006  25435923.08106
  20617904.79109 -23097093.48409 -17945644.99309  20617904.51809  20617903.78509
  22082678.95109 -15432289.73609 -11968777.27909  22082678.82409  22082677.25109
  21104900.79909 -21884894.72609 -16992088.15209  21104899.43109  21104899.57809
  20672827.36509 -21799949.27309 -16949083.43009  20672827.29709  20672826.55509
  25204820.74307   -282852.75207   -207814.32706  25204818.88706  25204818.61406
  24871109.14707  -2260312.04007  -1728356.66406  24871108.70806  24871108.37506
  24331044.95108  -3725998.31208  -2837649.41108  24331046.88608  24331044.03308
 07  1 15  1  8  0.0000000  0 10G09G08G18G29G10G28G26G19G21G27
  24706091.07007  -1690281.75607  -1292466.26607  24706091.87107  24706090.62107
  21916880.29009 -18879627.26609 -14670984.08809  21916880.36809  21916879.08809
  25416919.91207   -389987.11607   -219215.74306  25416918.98406  25416918.32906
  20611739.32409 -23129493.31109 -17970891.61209  20611739.05009  20611738.30809
  22099161.83109 -15345671.54809 -11901282.59509  22099161.72409  22099160.53209
  21104602.90109 -21886460.08309 -16993307.90609  21104601.63109  21104601.77809
  20662740.76109 -21852955.25209 -16990386.79009  20662740.68309  20662739.88209
  25211031.72207   -250210.57907   -182378.85506  25211030.31506  25211029.86606
  24876191.90407  -2233603.21707  -1707544.61306  24876191.33706  24876190.42906
  24346605.47908  -3644229.41208  -2773933.39807  24346606.74907  24346603.53507
 07  1 15  1  8 30.0000000  0 10G09G08G18G29G10G28G26G19G21G27
  24685304.26807  -1799521.15507  -1377587.83306  24685304.82506  24685303.10506
  21931328.60609 -18803700.60209 -14611820.46109  21931328.45009  21931327.23909
  25397955.88507   -489644.36207   -296870.73706  25397954.77106  25397954.30206
  20605643.39709 -23161527.67909 -17995853.45909  20605643.08409  20605642.37109
  22115714.59509 -15258685.76209 -11833501.46809  22115714.52609  22115713.29609
  21104407.87509 -21887485.04609 -16994106.57209  21104406.73209  21104406.71309
  20652730.73109 -21905557.95709 -17031375.91409  20652730.75009  20652729.98809
  25217341.64507   -217056.67007   -156544.62106  25217338.82206  25217338.85106
  24881366.94307  -2206411.56507  -1686356.30606  24881366.31806  24881364.96006
  24362174.26108  -3562411.72108  -2710179.35608  24362176.20508  24362173.85108
 07  1 15  1  9  0.0000000  0 10G09G08G18G29G10G28G26G19G21G27
  24664529.78407  -1908685.73807  -1462651.11806  24664531.29806  24664529.11006
  21945820.07909 -18727547.30109 -14552480.23709  21945820.26509  21945819.04409
  25379032.40707   -589087.55607   -374359.00406  25379031.20506  25379031.29306
  20599617.19709 -23193195.43909 -18020529.63409  20599616.98209  20599616.20109
  22132336.90009 -15171335.21209 -11765436.11209  22132336.92909  22132334.81909
  21104315.63209 -21887969.94209 -16994484.40609  21104314.41109  21104314.33309
  20642797.81209 -21957755.84409 -17072049.59309  20642797.81209  20642797.08009
  25223746.66307   -183392.12607   -130312.49506  25223744.71006  25223744.82706
  24886632.85807  -2178738.88207  -1664793.17906  24886631.99806  24886631.50006
  24377753.26108  -3480545.55508  -2646387.55808  24377754.70708  24377752.11808
 07  1 15  1  9 30.0000000  0 10G09G08G18G29G10G28G26G19G21G27
  24643771.64207  -2017774.29807  -1547655.13006  24643772.72606  24643770.48906
  21960354.30909 -18651169.22509 -14492964.85709  21960354.13309  21960352.94109
  25360150.05307   -688314.69407   -451678.89306  25360148.58806  25360148.85206
  20593661.03709 -23224495.23309 -18044919.08309  20593660.74409  20593660.01209
  22149027.91609 -15083622.40609 -11697088.48509  22149028.30609  22149026.54809
  21104325.88909 -21887915.16309 -16994441.71309  21104324.92209  21104324.67709
  20632942.19209 -22009547.20809 -17112406.50009  20632942.36709  20632941.52709
  25230250.02107   -149217.69707   -103683.06906  25230247.61706  25230248.46706
  24891989.44307  -2150586.60907  -1642856.36206  24891989.30606  24891989.33506
  24393341.33608  -3398632.04908  -2582558.88208  24393342.36108  24393340.28108
 07  1 15  1 10  0.0000000  0 10G09G08G18G29G10G28G26G19G21G27
  24623028.10407  -2126785.75607  -1632599.04706  24623028.47506  24623026.28706
  21974931.24609 -18574567.56909 -14433275.26609  21974930.94309  21974930.02509
  25341309.79207   -787322.58407   -528827.94106  25341307.89706  25341308.67906
  20587775.11209 -23255425.68609 -18069020.73709  20587774.87809  20587774.17409
  22165787.69109 -14995549.96009 -11628460.61509  22165787.51509  22165785.92309
  21104438.91909 -21887321.06609 -16993978.77009  21104437.85409  21104437.79609
  20623164.45409 -22060930.23909 -17152445.22609  20623164.44409  20623163.70209
  25236849.47907   -114534.77507    -76657.40206  25236847.37906  25236848.67806
  24897437.33307  -2121956.25907  -1620547.01006  24897436.79606  24897437.05906
  24408937.31308  -3316671.35808  -2518693.38608  24408938.85708  24408936.69808
 07  1 15  1 10 30.0000000  0 10G09G08G18G29G10G28G26G19G21G27
  24602298.13507  -2235718.97907  -1717482.02706  24602298.82806  24602296.69906
  21989550.11809 -18497743.68509 -14373412.50109  21989550.12809  21989548.76109
  25322510.69507   -886108.64307   -605804.11606  25322509.38606  25322510.02106
  20581959.76409 -23285985.61209 -18092833.66909  20581959.53909  20581959.02109
  22182615.43609 -14907120.35209 -11559554.43809  22182615.45509  22182613.81409
  21104654.75209 -21886188.05809 -16993095.90009  21104653.47209  21104653.41409
  20613464.45409 -22111903.37409 -17192164.55209  20613464.66909  20613463.74109
  25243546.94407    -79344.31207    -49236.25806  25243543.84806  25243545.10806
  24902976.38207  -2092849.69707  -1597866.57506  24902975.75706  24902976.01106
  24424543.65508  -3234664.06008  -2454791.66508  24424544.68008  24424542.57008
 07  1 15  1 11  0.0000000  0 10G09G08G18G29G10G28G26G19G21G27
  24581583.79407  -2344572.88507  -1802303.21107  24581584.65407  24581582.77907
  22004211.41509 -18420698.70109 -14313377.46909  22004211.22009  22004210.07709
  25303755.72207   -984670.57507   -682605.64106  25303753.65106  25303754.18806
  20576215.43109 -23316173.63009 -18116356.80209  20576214.94309  20576214.45509
  22199510.52309 -14818336.41109 -11490372.15809  22199510.23009  22199509.14609
  21104972.76209 -21884516.36009 -16991793.27009  21104971.62009  21104971.46309
  20603843.06009 -22162464.95509 -17231563.18809  20603842.93309  20603842.19009
  25250339.38807    -43647.32807    -21420.41806  25250336.66206  25250337.76606
  24908605.65207  -2063268.39407  -1574816.22406  24908604.92006  24908604.67506
  24440157.09808  -3152610.53908  -2390853.82007  24440157.65507  24440157.11807
 07  1 15  1 11 30.0000000  0 10G09G08G18G29G10G28G26G19G21G27
  24560884.84007  -2453346.79507  -1887062.05007  24560886.05107  24560884.31207
  22018914.09109 -18343434.28909 -14253171.44509  22018914.08109  22018912.69409
  25285043.20207  -1083005.52607   -759230.31406  25285041.62006  25285041.21906
  20570541.81309 -23345988.69309 -18139589.32109  20570541.34409  20570540.84609
  22216472.44709 -14729200.84409 -11420915.87409  22216472.57409  22216470.96209
  21105393.33209 -21882306.72309 -16990071.46809  21105392.12009  21105392.00309
  20594300.05709 -22212613.25709 -17270639.78709  20594300.17409  20594299.26609
  25257228.67507     -7444.89807      6789.28306  25257225.96906  25257227.44406
  24914325.00707  -2033214.21607  -1551397.41406  24914323.82506  24914323.88306
  24455781.11108  -3070511.40108  -2326880.51108  24455781.80408  24455780.31008
 07  1 15  1 12  0.0000000  0 10G09G08G18G29G10G28G26G19G21G27
  24540201.64107  -2562039.47507  -1971757.57907  24540202.64707  24540200.20507
  22033658.71309 -18265951.96809 -14192795.62109  22033658.54709  22033657.22809
  25266374.16207  -1181111.09407   -835676.22906  25266372.92106  25266372.10106
  20564939.38609 -23375429.33609 -18162530.08509  20564939.05409  20564938.41909
  22233500.60909 -14639716.35009 -11351187.70509  22233500.47309  22233499.31009
  21105915.97109 -21879559.11409 -16987930.46509  21105915.18909  21105914.99409
  20584836.05209 -22262346.65209 -17309393.07809  20584836.17909  20584835.37809
  25264213.05807     29261.96407     35392.04906  25264211.16306  25264211.62206
  24920134.26907  -2002688.65707  -1527611.28606  24920132.59906  24920132.24706
  24471411.71708  -2988367.40208  -2262872.22407  24471412.87907  24471411.86307
 07  1 15  1 12 30.0000000  0 10G09G08G18G29G10G28G26G19G21G27
  24519532.80207  -2670650.15307  -2056389.21107  24519535.20507  24519532.51907
  22048444.14709 -18188253.03309 -14132251.00409  22048444.56709  22048442.88609
  25247749.61607  -1278984.60107   -911941.34506  25247747.82906  25247748.56106
  20559408.42509 -23404494.38909 -18185178.17709  20559408.13209  20559407.39009
  22250594.76709 -14549885.49209 -11281189.64109  22250595.04109  22250593.64409
  21106541.04109 -21876274.23609 -16985370.81109  21106540.13309  21106539.84009
  20575451.33709 -22311663.52409 -17347821.80509  20575451.41509  20575450.78009
  25271294.61707     66471.95807     64386.89806  25271291.70606  25271293.19006
  24926032.34607  -1971693.47307  -1503459.19906  24926030.81306  24926030.61706
  24487052.17008  -2906179.18208  -2198829.41608  24487052.64908  24487051.74008
 07  1 15  1 13  0.0000000  0 10G09G08G18G29G10G28G26G19G21G27
  24498881.02907  -2779177.24007  -2140955.70407  24498882.74807  24498880.16907
  22063271.08609 -18110338.52209 -14071538.40909  22063270.87109  22063269.74809
  25229169.58607  -1376623.63807   -988023.72806  25229168.06206  25229168.52106
  20553949.20409 -23433182.58809 -18207532.61109  20553948.95909  20553948.19809
  22267754.48109 -14459711.02309 -11210923.82709  22267755.01909  22267752.73309
  21107268.32909 -21872452.57009 -16982392.88109  21107267.36209  21107267.05909
  20566146.19509 -22360562.38009 -17385924.80709  20566146.11709  20566145.59909
  25278470.64607    104183.82607     93772.79506  25278467.93006  25278469.68906
  24932019.41407  -1940230.44007  -1478942.60406  24932017.93906  24932018.12406
  24502699.96908  -2823946.89008  -2134752.37208  24502701.03308  24502699.42208
 07  1 15  1 13 30.0000000  0 10G09G08G18G29G10G28G26G19G21G27
  24478245.19707  -2887619.78207  -2225456.34407  24478246.74107  24478244.07407
  22078138.38909 -18032209.79409 -14010658.89709  22078138.44809  22078137.53009
  25210634.70507  -1474024.93607  -1063920.86506  25210632.78006  25210633.38606
  20548562.06309 -23461492.58609 -18229592.34709  20548561.73109  20548560.93009
  22284978.91109 -14369195.58109 -11140392.32209  22284979.27209  22284977.59209
  21108097.64709 -21868094.35209 -16978996.85609  21108096.55309  21108096.30909
  20556921.13509 -22409041.25609 -17423700.55409  20556920.91009  20556920.22609
  25285743.00107    142396.53707    123548.94506  25285739.90506  25285741.21406
  24938095.46207  -1908301.02907  -1454062.55206  24938094.02606  24938093.53706
  24518357.12508  -2741671.08508  -2070641.32608  24518357.20408  24518356.47108
 07  1 15  1 14  0.0000000  0 10G09G08G18G29G10G28G26G19G21G27
  24457625.32807  -2995977.12607  -2309890.59307  24457626.81207  24457624.41907
  22093046.48509 -17953868.48809 -13949613.73409  22093046.60209  22093045.23509
  25192145.32507  -1571186.44607  -1139631.15306  25192143.48806  25192144.12306
  20543246.80809 -23489423.44109 -18251356.64409  20543246.71109  20543245.93909
  22302267.71509 -14278341.85509 -11069597.22109  22302268.06609  22302266.14209
  21109028.86909 -21863200.56809 -16975183.50909  21109027.87309  21109027.53109
  20547775.88209 -22457098.80709 -17461147.99309  20547775.85309  20547775.24709
  25293109.12407    181108.76007    153714.31406  25293106.38906  25293107.75606
  24944259.23907  -1875907.70807  -1428821.03806  24944257.95006  24944258.32106
  24534022.57608  -2659352.68508  -2006497.18207  24534022.33107  24534020.46607
 07  1 15  1 14 30.0000000  0 10G09G08G18G29G10G28G26G19G21G27
  24437021.92707  -3104248.19207  -2394257.60907  24437022.99207  24437021.53707
  22107994.61209 -17875315.53209 -13888403.64509  22107994.58209  22107993.39109
  25173702.44207  -1668105.53807  -1215152.53006  25173700.76206  25173701.26006
  20538004.26009 -23516973.49609 -18272824.21509  20538003.98609  20538003.25409
  22319620.46209 -14187152.48109 -10998540.58009  22319620.87209  22319618.91909
  21110062.01509 -21857771.16909 -16970952.79809  21110060.95109  21110060.77509
  20538711.39509 -22504733.03809 -17498265.57309  20538711.38509  20538710.78909
  25300570.40007    220319.35007    184268.04906  25300568.30006  25300569.66806
  24950512.15407  -1843051.67007  -1403218.94206  24950510.49306  24950510.56206
  24549693.72107  -2576992.00607  -1942320.02307  24549694.88307  24549693.44707
 07  1 15  1 15  0.0000000  0 10G09G08G18G29G10G28G26G19G21G27
  24416435.06507  -3212431.81307  -2478556.49207  24416436.30507  24416434.85007
  22122982.65209 -17796552.32509 -13827029.72109  22122982.94509  22122981.92909
  25155305.99907  -1764779.36407  -1290482.79905  25155304.03605  25155304.14305
  20532834.37809 -23544141.59009 -18293994.15509  20532834.00709  20532833.36209
  22337036.52809 -14095630.22109 -10927224.54709  22337037.21209  22337034.91609
  21111197.18309 -21851806.51909 -16966305.00709  21111196.01009  21111195.93209
  20529727.92709 -22551942.52009 -17535052.18009  20529727.66309  20529727.04809
  25308127.02607    260027.09207    215209.17106  25308125.08206  25308125.81506
  24956852.49607  -1809734.65807  -1377257.63206  24956850.57206  24956850.84506
  24565375.94408  -2494589.52808  -1878110.33207  24565375.57207  24565373.53107
 07  1 15  1 15 30.0000000  0  9G09G08G18G29G10G28G26G21G27
  24395864.99407  -3320526.88207  -2562786.44707  24395866.52807  24395864.82807
  22138010.69409 -17717580.33509 -13765493.12209  22138010.74309  22138009.42409
  25136956.43407  -1861205.14607  -1365619.77606  25136955.03706  25136955.48706
  20527737.25209 -23570926.55509 -18314865.55109  20527737.12509  20527736.33409
  22354515.76709 -14003777.69409 -10855651.16309  22354516.10909  22354514.04809
  21112433.80509 -21845307.77209 -16961241.03809  21112432.60309  21112432.78909
  20520825.22409 -22598725.70509 -17571506.61109  20520825.20409  20520824.49109
  24963278.81007  -1775958.62907  -1350938.66406  24963278.16506  24963277.67606
  24581063.10907  -2412146.12007  -1813868.69807  24581063.92907  24581062.18107
 07  1 15  1 16  0.0000000  0 10G09G08G18G29G10G28G26G17G21G27
  24375312.43907  -3428532.07607  -2646946.28507  24375313.89407  24375311.86207
  22153078.13209 -17638400.73009 -13703794.75209  22153078.34709  22153076.73509
  25118655.29207  -1957380.61607  -1440561.70005  25118653.16205  25118653.60205
  20522713.52609 -23597327.16709 -18335437.45409  20522713.17409  20522712.49009
  22372056.83009 -13911597.73009 -10783822.61809  22372057.53309  22372055.39409
  21113772.14509 -21838274.91509 -16955760.87709  21113770.98209  21113771.10009
  20512004.02909 -22645080.85809 -17607627.50509  20512004.15609  20512003.34509
  25252214.28707    -38584.48907                                                
  24969793.39107  -1741725.49007  -1324263.50806  24969792.12106  24969791.87606
  24596760.13108  -2329661.71108  -1749595.20607  24596760.52107  24596758.91007
 07  1 15  1 16 30.0000000  0 10G09G08G18G29G10G28G26G17G21G27
  24354776.96807  -3536447.00407  -2731035.79106  24354778.39406  24354775.92306
  22168184.69309 -17559014.90609 -13641935.68209  22168184.86909  22168183.32509
  25100401.02707  -2053303.08807  -1515306.52006  25100399.78706  25100400.16806
  20517762.93509 -23623342.28709 -18355708.97609  20517762.70109  20517762.03709
  22389659.94109 -13819093.21109 -10711741.18009  22389660.38109  22389658.61309
  21115211.92009 -21830709.15009 -16949865.46109  21115210.64109  21115210.86509
  20503264.68309 -22691006.38609 -17643413.62609  20503264.86809  20503264.06709
  25233700.64207   -135879.04407    -55599.17406  25233699.51906  25233700.10506
  24976394.73407  -1707037.23407  -1297233.68406  24976393.16206  24976393.05406
  24612463.82408  -2247137.27508  -1685290.42907  24612463.09207  24612462.50607
 07  1 15  1 17  0.0000000  0 10G09G08G18G29G10G28G26G17G21G27
  24334258.82607  -3644270.43207  -2815054.01706  24334260.07706  24334257.21406
  22183330.34609 -17479424.32409 -13579917.06309  22183330.67909  22183329.19409
  25082196.60207  -2148969.82907  -1589852.04706  25082194.64806  25082195.62506
  20512886.13509 -23648970.57809 -18375679.07209  20512885.82309  20512885.09009
  22407324.40909 -13726266.71809 -10639408.85809  22407324.73109  22407322.68009
  21116753.00409 -21822610.73909 -16943554.99509  21116751.74409  21116751.86109
  20494607.49909 -22736500.73309 -17678863.76009  20494607.48909  20494606.77609
  25215179.55407   -233205.20107   -131437.66806  25215180.41406  25215177.06306
  24983081.94307  -1671895.59807  -1269850.62406  24983080.52606  24983080.13606
  24628175.01008  -2164573.19008  -1620954.77008  24628175.79208  24628174.12108
 07  1 15  1 17 30.0000000  0 10G09G08G18G29G10G28G26G17G21G27
  24313757.72107  -3752001.27907  -2899000.09007  24313759.40107  24313756.32407
  22198514.80009 -17399630.35409 -13517739.94909  22198514.63409  22198513.16909
  25064041.47707  -2244378.32407  -1664196.34105  25064038.90805  25064039.85605
  20508083.16509 -23674210.88109 -18395346.84109  20508082.70609  20508082.10109
  22425049.20509 -13633121.15409 -10566827.91109  22425050.01609  22425047.71109
  21118395.11309 -21813980.40109 -16936830.04609  21118394.12609  21118394.01909
  20486032.56609 -22781562.34109 -17713976.69909  20486032.62409  20486031.83309
  25196652.67306   -330560.19206   -207298.77306  25196653.60106  25196653.02506
  24989854.79107  -1636302.45707  -1242115.71706  24989854.15606  24989853.23706
  24643893.93307  -2081970.17607  -1556588.88407  24643894.38207  24643891.56907
 07  1 15  1 18  0.0000000  0 10G09G08G18G29G10G28G26G17G21G27
  24293275.54607  -3859638.43207  -2982873.19606  24293276.55306  24293274.49106
  22213737.44809 -17319634.21009 -13455405.30009  22213737.30209  22213735.95409
  25045935.54607  -2339525.78807  -1738337.22906  25045933.41706  25045933.35806
  20503354.13209 -23699062.00109 -18414711.35209  20503353.64409  20503353.13609
  22442834.68409 -13539659.12509 -10494000.37309  22442835.23109  22442832.85709
  21120138.48009 -21804818.71709 -16929691.06309  21120137.61109  21120137.38609
  20477540.32109 -22826189.62409 -17748751.20309  20477540.38009  20477539.46209
  25178121.50406   -427941.30306   -283180.08406  25178123.84906  25178120.97706
  24996713.27807  -1600259.70307  -1214030.42406  24996713.02406  24996712.21306
  24659619.25407  -1999328.77207  -1492192.88807  24659620.20107  24659618.29607
 07  1 15  1 18 30.0000000  0 10G09G08G18G29G10G28G26G17G21G27
  24272810.89707  -3967180.81407  -3066672.40306  24272811.49206  24272809.60706
  22228998.41809 -17239436.83309 -13392913.85409  22228998.36909  22228997.55909
  25027880.03007  -2434409.77407  -1812272.80106  25027878.05706  25027878.26206
  20498699.31009 -23723522.67809 -18433771.61909  20498698.94809  20498698.41109
  22460679.27009 -13445883.25409 -10420928.28409  22460680.02309  22460677.96109
  21121983.01009 -21795126.29309 -16922138.51809  21121982.12109  21121981.64209
  20469131.07009 -22870380.82709 -17783185.89909  20469130.97209  20469130.17109
  25159586.78907   -525345.45607   -359079.43606  25159587.82506  25159586.89706
  25003657.78607  -1563769.27207  -1185596.34106  25003656.37006  25003656.51606
  24675354.18608  -1916649.21408  -1427767.40107  24675354.61607  24675352.34007
 07  1 15  1 19  0.0000000  0 10G09G08G18G29G10G28G26G17G21G27
  24252364.75807  -4074627.47907  -3150397.04606  24252364.89506  24252363.54706
  22244297.64109 -17159039.90609 -13330266.90209  22244297.41609  22244296.08809
  25009874.27507  -2529027.76307  -1886001.13106  25009872.80006  25009872.79006
  20494119.16709 -23747591.71309 -18452526.71309  20494118.76609  20494118.25809
  22478583.72809 -13351796.41509 -10347613.88009  22478584.50909  22478582.22309
  21123928.17409 -21784903.98309 -16914173.07409  21123927.32409  21123926.92309
  20460804.84009 -22914134.64909 -17817279.78409  20460804.94709  20460804.17509
  25141047.88307   -622770.06707   -434994.67606  25141048.25506  25141047.82506
  25010685.77507  -1526833.15107  -1156814.93706  25010685.14006  25010684.94506
  24691093.23207  -1833931.94507  -1363312.30506  24691094.56006  24691092.84106
 07  1 15  1 19 30.0000000  0 10G09G08G18G29G10G28G26G17G21G27
  24231936.35907  -4181977.28307  -3234046.17406  24231936.91506  24231935.71406
  22259634.38409 -17078444.37609 -13267465.19509  22259634.55009  22259633.07509
  24991920.17407  -2623376.60007  -1959519.72606  24991918.90406  24991918.72806
  20489613.79109 -23771267.75009 -18470975.57509  20489613.44909  20489612.91209
  22496546.59009 -13257401.31009 -10274059.27409  22496547.12809  22496544.99809
  21125974.20609 -21774152.24509 -16905795.09009  21125973.27809  21125972.93609
  20452562.48109 -22957449.05509 -17851031.26809  20452562.34409  20452561.73909
  25122505.73407   -720212.16907   -510923.53207  25122506.76007  25122505.63707
  25017799.57007  -1489453.08107  -1127687.59006  25017797.98806  25017798.09506
  24706842.39708  -1751177.38308  -1298828.35208  24706842.87608  24706840.12108
 07  1 15  1 20  0.0000000  0 10G09G08G18G29G10G28G26G17G21G27
  24211527.74007  -4289229.70907  -3317619.40906  24211527.95506  24211525.92306
  22275008.55009 -16997651.78309 -13204509.93309  22275008.33609  22275007.38809
  24974017.65107  -2717454.07507  -2032826.85606  24974016.15606  24974016.80106
  20485183.29009 -23794549.99109 -18489117.58009  20485182.96809  20485182.41109
  22514567.58509 -13162700.87809 -10200266.74109  22514567.91709  22514565.73909
  21128120.72609 -21762871.99209 -16897005.27709  21128119.70009  21128119.59309
  20444403.91609 -23000322.83509 -17884439.41109  20444403.79909  20444403.19309
  25103959.72707   -817669.27107   -586864.12406  25103960.97706  25103960.01006
  25024996.41607  -1451631.25607  -1098216.06106  25024994.95006  25024995.52706
  24722596.10506  -1668386.55706  -1234316.00306  24722598.18606  24722594.49306
 07  1 15  1 20 30.0000000  0 10G09G08G18G29G10G28G26G17G21G27
  24191136.95908  -4396382.99108  -3401115.43607  24191136.89107  24191135.45507
  22290420.13009 -16916663.34709 -13141402.06909  22290420.41309  22290418.74209
  24956166.93907  -2811257.57907  -2105920.52506  24956166.10906  24956165.72806
  20480828.12309 -23817436.92709 -18506951.55709  20480827.72309  20480827.19509
  22532646.06709 -13067697.96109 -10126238.51409  22532646.52609  22532644.67909
  21130367.82109 -21751063.99209 -16887804.23309  21130366.72709  21130366.69809
  20436329.45709 -23042754.33309 -17917502.92209  20436329.34009  20436328.70509
  25085412.97707   -915138.42507   -662814.11306  25085412.57706  25085411.74606
  25032277.26007  -1413369.63007  -1068401.81006  25032275.79506  25032276.79106
  24738358.36008  -1585559.41308  -1169775.39707  24738359.57207  24738355.39107
 07  1 15  1 21  0.0000000  0 10G09G08G18G29G10G28G26G17G21G27
  24170765.07007  -4503436.27607  -3484533.52607  24170765.74407  24170763.93707
  22305868.67209 -16835480.34409 -13078142.60709  22305869.03409  22305867.60809
  24938369.46507  -2904784.55807  -2178798.73106  24938368.23506  24938368.19606
  20476548.34909 -23839927.41309 -18524476.61409  20476547.90009  20476547.48009
  22550781.51809 -12972395.09609 -10051976.55209  22550782.03509  22550780.23809
  21132715.09209 -21738728.66709 -16878192.28109  21132713.94909  21132714.03709
  20428339.50509 -23084741.85109 -17950220.46609  20428339.38709  20428338.74309
  25066862.37907  -1012616.47107   -738771.00307  25066863.62907  25066862.25207
  25039641.83907  -1374669.96607  -1038246.25606  25039640.12006  25039640.78406
  24754124.66007  -1502696.65407  -1105207.05607  24754128.21507  24754124.39607
 07  1 15  1 21 30.0000000  0  9G09G08G18G29G10G28G26G17G27
  24150413.01107  -4610388.59207  -3567872.93107  24150413.34307  24150411.47707
  22321354.12009 -16754104.26509 -13014732.69909  22321354.47209  22321352.79209
  24920625.09307  -2998032.48107  -2251459.45406  24920624.60406  24920623.69606
  20472344.12409 -23862020.43809 -18541691.96409  20472343.72309  20472343.20609
  22568973.72309 -12876795.08609  -9977483.05209  22568973.81109  22568971.96509
  21135162.53709 -21725867.12609 -16868170.29509  21135161.46209  21135161.46209
  20420434.14609 -23126284.20409 -17982591.13309  20420434.16609  20420433.47209
  25048312.96207  -1110100.74807   -814732.79406  25048311.98506  25048312.26906
  24769901.94808  -1419798.85208  -1040611.36807  24769901.32307  24769899.56507
 07  1 15  1 22  0.0000000  0  9G09G08G18G29G10G28G26G17G27
  24130079.84407  -4717238.95107  -3651132.88707  24130080.39107  24130078.48607
  22336875.74009 -16672536.17109 -12951173.14809  22336876.19909  22336874.79309
  24902934.83707  -3090998.06507  -2323900.14306  24902933.11806  24902933.12806
  20468215.90709 -23883714.64809 -18558596.54809  20468215.53509  20468214.90009
  22587221.33509 -12780900.79909  -9902760.24309  22587222.15509  22587219.76209
  21137710.07009 -21712479.98909 -16857738.75309  21137708.89709  21137708.87809
  20412614.10609 -23167379.62009 -18014613.53809  20412614.08609  20412613.30509
  25029761.08407  -1207588.16607   -890697.05207  25029762.05107  25029761.45507
  24785681.20107  -1336866.18007   -975988.50907  24785683.50607  24785681.32807
 07  1 15  1 22 30.0000000  0  9G09G08G18G29G10G28G26G17G27
  24109765.85207  -4823986.34707  -3734312.62107  24109767.05407  24109765.54007
  22352434.14809 -16590777.18809 -12887464.87209  22352435.04709  22352432.85909
  24885297.73107  -3183679.10407  -2396119.13606  24885296.87206  24885296.74506
  20464163.69709 -23905008.84809 -18575189.43109  20464163.34609  20464162.76909
  22605525.25209 -12684714.69509  -9827810.05409  22605525.59409  22605523.76709
  21140357.31809 -21698568.00309 -16846898.23509  21140356.32209  21140356.17509
  20404879.13809 -23208026.53709 -18046286.46109  20404879.17709  20404878.41509
  25011210.59307  -1305075.99507   -966661.49107  25011211.31607  25011209.68407
  24801471.09108  -1253899.24508   -911339.03206  24801470.51406  24801469.60606
 07  1 15  1 23  0.0000000  0  9G09G08G18G29G10G28G26G17G27
  24089472.37407  -4930629.51807  -3817411.16907  24089473.46807  24089471.78807
  22368028.25009 -16508829.05509 -12823609.20009  22368028.25009  22368027.08809
  24867716.16907  -3276073.04007  -2468114.44906  24867714.86006  24867714.87906
  20460187.75009 -23925902.30309 -18591470.04609  20460187.45709  20460186.77309
  22623883.69609 -12588240.11709  -9752635.07809  22623883.91109  22623881.82009
  21143104.39009 -21684132.31509 -16835649.63709  21143103.35409  21143103.19809
  20397229.83909 -23248223.59309 -18077608.84209  20397230.03409  20397229.08709
  24992658.75407  -1402561.48807  -1042624.29707  24992659.77007  24992659.23207
  24817263.70607  -1170898.66007   -846663.20306  24817265.17106  24817264.69306
 07  1 15  1 23 30.0000000  0  9G09G08G18G29G10G28G26G17G27
  24069199.17607  -5037167.51107  -3900427.74807  24069199.90807  24069198.40407
  22383658.51409 -16426692.59309 -12759606.77709  22383658.77809  22383656.66809
  24850189.78807  -3368177.09107  -2539883.85506  24850187.51206  24850187.84406
  20456288.36709 -23946393.35509 -18607437.10609  20456288.16209  20456287.41009
  22642296.81409 -12491479.45009  -9677237.17509  22642297.21409  22642294.90909
  21145950.80609 -21669173.50009 -16823993.41209  21145949.82009  21145949.74209
  20389666.57109 -23287968.98709 -18108579.27409  20389666.70709  20389665.70109
  24974109.39607  -1500041.54007  -1118582.73708  24974111.22208  24974109.68908
  24833066.30508  -1087864.74308   -781961.56507  24833066.12907  24833065.36707
 07  1 15  1 24  0.0000000  0  9G09G08G18G29G10G28G26G17G27
  24048945.98308  -5143599.34108  -3983361.60207  24048946.87107  24048945.41607
  22399323.87709 -16344369.12009 -12695458.63609  22399324.44309  22399322.72409
  24832718.00207  -3459988.53407  -2611425.25906  24832716.66406  24832716.94706
  20452465.80309 -23966481.06509 -18623089.87009  20452465.59809  20452464.80709
  22660763.43309 -12394435.55109  -9601618.58609  22660763.78509  22660761.95809
  21148896.80209 -21653692.35609 -16811930.18009  21148895.87409  21148895.51309
  20382189.30309 -23327261.32509 -18139196.67609  20382189.60609  20382188.72709
  24955561.74708  -1597513.35108  -1194534.77407  24955561.99107  24955561.62007
  24848873.08407  -1004797.95007   -717234.18506  24848873.04506  24848872.77206
 07  1 15  1 24 30.0000000  0  9G09G08G18G29G10G28G26G17G27
  24028712.56107  -5249924.36307  -4066212.24407  24028713.77207  24028712.02307
  22415025.05009 -16261859.79109 -12631165.66709  22415025.06009  22415023.26309
  24815302.96207  -3551505.11307  -2682736.88506  24815301.71106  24815302.05306
  20448720.22409 -23986164.34809 -18638427.49609  20448719.89209  20448719.18909
  22679284.06209 -12297111.42409  -9525781.61809  22679284.17009  22679282.40209
  21151941.91809 -21637689.88009 -16799460.71309  21151941.00009  21151940.65809
  20374798.84809 -23366099.20109 -18169459.95709  20374798.80909  20374798.15409
  24937014.62607  -1694974.21507  -1270478.34507  24937015.41807  24937014.93907
  24864687.49308   -921699.13808   -652481.96007  24864686.68207  24864685.67607
 07  1 15  1 25  0.0000000  0  9G09G08G18G29G10G28G26G17G27
  24008500.00408  -5356141.08308  -4148978.48007  24008501.56707  24008499.27207
  22430760.97009 -16179166.18509 -12566729.10209  22430760.71609  22430759.33809
  24797944.72408  -3642724.03308  -2753816.57706  24797943.24006  24797944.02106
  20445051.84509 -24005441.93609 -18653448.99509  20445051.56209  20445050.81909
  22697856.63009 -12199509.83809  -9449728.45809  22697857.38209  22697855.85809
  21155086.17309 -21621166.82809 -16786585.60309  21155085.30409  21155084.86409
  20367495.04809 -23404481.01309 -18199367.86809  20367495.10609  20367494.35409
  24918472.26208  -1792421.06808  -1346410.90108  24918472.27208  24918471.44208
  24880504.74407   -838568.31307   -587704.75106  24880506.18006  24880505.65306
 07  1 15  1 25 30.0000000  0  9G09G08G18G29G10G28G26G17G27
  23988309.02608  -5462248.22808  -4231659.36207  23988309.58307  23988307.51207
  22446531.88009 -16096289.21209 -12502149.66109  22446532.14309  22446530.80509
  24780643.33908  -3733642.61408  -2824662.23906  24780642.05006  24780642.66506
  20441460.83109 -24024312.76109 -18668153.54109  20441460.57709  20441459.91309
  22716482.42609 -12101633.26209  -9373461.01609  22716482.25009  22716480.56009
  21158329.39209 -21604124.10209 -16773305.55609  21158328.30809  21158327.86909
  20360278.42109 -23442405.09209 -18228919.10109  20360278.31309  20360277.62009
  24899929.89907  -1889850.88707  -1422330.20307  24899931.91107  24899930.82707
  24896331.23708   -755405.76108   -522902.76007  24896331.16807  24896330.99207
 07  1 15  1 26  0.0000000  0  9G09G08G18G29G10G28G26G17G27
  23968137.81907  -5568245.25907  -4314254.43407  23968139.16707  23968136.91107
  22462337.67309 -16013230.05109 -12437428.26709  22462337.60409  22462336.45209
  24763399.88107  -3824258.69807  -2895272.16806  24763398.04406  24763398.63006
  20437947.44709 -24042775.79109 -18682540.32409  20437947.05709  20437946.63709
  22735158.96909 -12003484.98409  -9296981.85809  22735159.41809  22735157.79609
  21161671.05709 -21586562.68209 -16759621.33109  21161670.12009  21161669.80709
  20353148.95809 -23479870.34009 -18258112.80609  20353148.91909  20353148.21509
  24881395.18407  -1987261.10307  -1498234.28308  24881395.02708  24881394.76408
  24912161.21607   -672212.17207   -458076.69106  24912162.89606  24912161.61706
 07  1 15  1 26 30.0000000  0  9G09G08G18G29G10G28G26G17G27
  23947989.04108  -5674131.08108  -4396762.82807  23947989.58807  23947987.29207
  22478178.02609 -15929990.23309 -12372566.08609  22478177.74309  22478176.45409
  24746214.32008  -3914569.07208  -2965643.92306  24746212.57106  24746213.07906
  20434511.96709 -24060829.79909 -18696608.38909  20434511.56609  20434511.04809
  22753887.24509 -11905067.72309  -9220293.09909  22753887.73309  22753886.09209
  21165111.51109 -21568483.57909 -16745533.71509  21165110.33809  21165110.15309
  20346107.20509 -23516875.10909 -18286947.69709  20346107.19509  20346106.37509
  24862862.02207  -2084648.65607  -1574120.61407  24862863.47707  24862861.43607
  24927999.73307   -588988.19007   -393226.88306  24928000.03606  24927998.42406
 07  1 15  1 27  0.0000000  0  9G09G08G18G29G10G28G26G17G27
  23927860.44408  -5779904.19608  -4479183.41707  23927861.32307  23927859.42807
  22494052.29609 -15846571.02909 -12307564.12709  22494051.81709  22494050.88909
  24729087.46708  -4004571.18808  -3035775.43906  24729086.21606  24729086.60706
  20431154.44709 -24078473.68109 -18710356.87609  20431154.10509  20431153.55809
  22772665.76009 -11806384.02509  -9143396.72609  22772666.54109  22772664.19709
  21168650.11709 -21549887.78409 -16731043.48209  21168649.01309  21168648.76809
  20339153.40709 -23553417.71309 -18315422.45809  20339153.30909  20339152.57709
  24844335.35607  -2182010.25007  -1649986.78907  24844334.87707  24844335.16007
  24943841.47407   -505733.91207   -328353.42907  24943843.17407  24943841.29807
 07  1 15  1 27 30.0000000  0  9G09G08G18G29G10G28G26G17G27
  23907754.37307  -5885563.63207  -4561515.41307  23907755.47607  23907753.40607
  22509960.34409 -15762973.43509 -12242423.16809  22509959.96309  22509959.07509
  24712020.76808  -4094262.73308  -3105664.97506  24712018.53106  24712018.83306
  20427875.12409 -24095706.38809 -18723784.96409  20427874.82109  20427874.22609
  22791494.79709 -11707436.81509  -9066295.02509  22791495.66609  22791493.40009
  21172287.01209 -21530776.15309 -16716151.29909  21172285.85009  21172285.68409
  20332287.76909 -23589496.97009 -18343536.17009  20332287.78909  20332286.94909
  24825812.64607  -2279343.09707  -1725830.56207  24825814.14107  24825812.01107
  24959690.42407   -422450.16507   -263457.09607  24959691.94807  24959689.51507
 07  1 15  1 28  0.0000000  0  9G09G08G18G29G10G28G26G17G27
  23887669.58708  -5991108.71808  -4643758.27607  23887671.06207  23887668.87407
  22525902.27009 -15679198.44809 -12177143.97209  22525902.22109  22525900.96109
  24695012.00508  -4183640.90708  -3175310.32206  24695010.47106  24695010.42206
  20424674.33909 -24112526.77109 -18736891.76009  20424673.99709  20424673.38209
  22810373.96609 -11608228.87609  -8988990.17309  22810374.08309  22810371.59209
  21176021.87509 -21511149.65609 -16700857.92209  21176020.68409  21176020.47809
  20325510.49609 -23625111.18909 -18371287.51309  20325510.51609  20325509.79309
  24807297.42907  -2376644.82007  -1801650.01707  24807298.47407  24807295.87507
  24975543.61307   -339137.29707   -198537.95906  24975545.65506  24975543.32006
 07  1 15  1 28 30.0000000  0  9G09G08G18G29G10G28G26G17G27
  23867606.88808  -6096538.03008  -4725910.97507  23867608.10907  23867606.37007
  22541877.45709 -15595247.66609 -12111727.80809  22541877.52509  22541876.50909
  24678063.49407  -4272703.21207  -3244709.55307  24678062.50707  24678062.66307
  20421552.18009 -24128933.89109 -18749676.53309  20421551.84809  20421551.20309
  22829301.60509 -11508763.22109  -8911484.47409  22829302.15209  22829299.65209
  21179854.49109 -21491009.46909 -16685164.26309  21179853.23109  21179853.09409
  20318822.02809 -23660259.17509 -18398675.55409  20318822.27209  20318821.29509
  24788787.89607  -2473911.94707  -1877442.62207  24788788.94207  24788786.02107
  24991403.94307   -255795.94407   -133596.69507  24991405.50607  24991402.80007
 07  1 15  1 29  0.0000000  0  9G09G08G18G29G10G28G26G17G27
  23847566.98808  -6201850.42608  -4807972.57607  23847568.04307  23847565.81507
  22557885.84709 -15511122.11109 -12046175.44309  22557886.53009  22557885.07509
  24661176.40608  -4361446.95108  -3313860.53406  24661174.92106  24661175.29306
  20418508.90109 -24144926.37609 -18762138.21509  20418508.54909  20418507.92409
  22848277.87209 -11409042.58109  -8833780.10409  22848278.46809  22848276.14309
  21183784.66409 -21470356.18009 -16669070.78109  21183783.38409  21183783.40309
  20312222.80409 -23694939.08809 -18425698.86609  20312222.86209  20312222.01209
  24770286.31608  -2571141.53908  -1953205.84608  24770287.37108  24770284.57708
  25007267.70207   -172426.06107    -68633.19806  25007270.35906  25007267.48706
 07  1 15  1 29 30.0000000  0  9G09G08G18G29G10G28G26G17G27
  23827549.18408  -6307045.55608  -4889942.76308  23827550.15108  23827547.76808
  22573927.70309 -15426823.24809 -11980488.04909  22573927.84009  22573926.26709
  24644350.52808  -4449869.70508  -3382761.40407  24644348.47607  24644349.00407
  20415544.66709 -24160503.42309 -18774276.17809  20415544.32509  20415543.74909
  22867302.10209 -11309069.84109  -8755879.28609  22867302.46309  22867299.97209
  21187812.24709 -21449191.31509 -16652578.67309  21187811.02609  21187810.98709
  20305712.65709 -23729149.95509 -18452356.68609  20305712.73609  20305711.96409
  24751790.33207  -2668330.86307  -2028937.85607  24751791.62207  24751790.21507
  25023138.72807    -89028.14807     -3647.80207  25023140.04707  25023137.74207
 07  1 15  1 30  0.0000000  0  9G09G08G18G29G10G28G26G17G27
  23807553.94508  -6412121.67208  -4971820.23208  23807554.71708  23807552.57808
  22590001.90209 -15342352.16309 -11914666.44709  22590002.12709  22590000.68109
  24627585.38908  -4537968.86508  -3451410.11707  24627584.30507  24627584.20707
  20412659.85109 -24175663.99309 -18786089.61809  20412659.35309  20412658.79609
  22886373.46409 -11208847.85409  -8677784.24809  22886374.32309  22886371.90109
  21191936.78109 -21427515.89409 -16635688.72809  21191935.71709  21191935.71709
  20299292.08809 -23762890.18709 -18478647.77809  20299292.11709  20299291.39409
  24733305.24108  -2765476.69508  -2104635.87908  24733306.23708  24733304.41008
  25039014.30707     -5602.63707     61359.01306  25039016.42606  25039012.70506
 07  1 15  1 30 30.0000000  0  9G09G08G18G29G10G28G26G17G27
  23787580.97808  -6517077.66708  -5053604.09408  23787582.06308  23787579.71808
  22606108.93409 -15257709.66309 -11848711.29209  22606109.48109  22606107.64409
  24610882.61208  -4625741.64808  -3519804.50307  24610881.68407  24610881.73307
  20409854.32509 -24190406.90609 -18797577.60709  20409853.79809  20409853.35809
  22905492.23209 -11108379.29409  -8599497.08509  22905492.59409  22905490.47409
  21196158.56109 -21405330.68209 -16618401.54309  21196157.21309  21196157.41809
  20292961.33809 -23796158.49209 -18504571.13509  20292961.35809  20292960.66409
  24714826.92807  -2862576.30507  -2180297.86708  24714829.32208  24714826.37208
  25054895.11107     77849.79907    126386.88606  25054896.55706  25054893.16706
 07  1 15  1 31  0.0000000  0  9G09G08G18G29G10G28G26G17G27
  23767631.84708  -6621912.60208  -5135293.63808  23767632.31608  23767630.53808
  22622248.09309 -15172897.42409 -11782623.86209  22622248.24009  22622246.89209
  24594242.88007  -4713185.08307  -3587942.24107  24594241.64907  24594241.78607
  20407128.55809 -24204731.19409 -18808739.39609  20407128.01109  20407127.46409
  22924657.20509 -11007667.37509  -8521020.27909  22924657.56609  22924654.94809
  21200477.03709 -21382636.80209 -16600717.99609  21200475.70909  21200475.84509
  20286720.58509 -23828953.29309 -18530125.53009  20286720.73209  20286719.93109
  24696359.73307  -2959626.71107  -2255921.61408  24696358.96108  24696358.76608
  25070780.44807    161328.59707    191435.23907  25070782.42207  25070778.85607
 07  1 15  1 31 30.0000000  0  9G09G08G18G29G10G28G26G17G27
  23747705.16308  -6726626.10808  -5216888.55608  23747705.63108  23747704.34208
  22638419.62509 -15087916.63209 -11716405.08909  22638419.65409  22638418.09109
  24577665.32407  -4800297.30807  -3655821.90107  24577664.73807  24577664.82607
  20404482.51109 -24218635.72009 -18819574.09609  20404482.11109  20404481.52509
  22943867.46409 -10906714.58209  -8442355.79509  22943868.20609  22943866.24309
  21204892.11409 -21359435.56609 -16582639.11109  21204890.75609  21204890.92209
  20280570.34709 -23861273.26809 -18555309.92809  20280570.50309  20280569.61409
  24677900.87907  -3056625.44207  -2331505.04208  24677902.28608  24677900.12708
  25086671.52907    244833.54207    256503.95006  25086671.94006  25086670.06406
 07  1 15  1 32  0.0000000  0  9G09G08G18G29G10G28G26G17G27
  23727802.82108  -6831216.44808  -5298387.49308  23727802.97808  23727801.42508
  22654622.74809 -15002768.27709 -11650055.74809  22654623.68609  22654621.45909
  24561153.30507  -4887075.61007  -3723441.36107  24561151.58507  24561151.33207
  20401916.62409 -24232119.49409 -18830080.93809  20401916.30109  20401915.56909
  22963123.90809 -10805523.97809  -8363506.00609  22963123.86909  22963121.56409
  21209403.58509 -21335728.00009 -16564165.68309  21209402.29509  21209402.44209
  20274510.78809 -23893116.90609 -18580123.15209  20274510.80709  20274510.07509
  24659454.32408  -3153568.54608  -2407045.03208  24659454.17708  24659453.20008
  25102566.51806    328364.41006    321592.95906  25102567.47506  25102564.86706
 07  1 15  1 32 30.0000000  0  9G09G08G18G29G10G28G26G17G27
  23707923.21108  -6935682.61108  -5379789.67108  23707924.04208  23707922.16608
  22670857.58909 -14917453.64909 -11583576.83909  22670857.34509  22670856.51509
  24544703.29507  -4973517.46007  -3790798.65707  24544702.48407  24544702.05407
  20399431.06209 -24245181.54209 -18840259.15609  20399430.67109  20399430.02709
  22982424.34909 -10704098.32109  -8284473.04509  22982425.14109  22982422.65009
  21214010.89409 -21311515.43409 -16545298.74409  21214009.80909  21214009.91709
  20268542.04609 -23924482.97509 -18604564.24309  20268542.04609  20268541.31309
  24641016.03307  -3250453.45707  -2482539.85608  24641016.79408  24641017.00008
  25118466.91807    411920.85407    386701.75806  25118468.35406  25118464.97406
 07  1 15  1 33  0.0000000  0  9G09G08G18G29G10G28G26G17G27
  23688067.84708  -7040024.04208  -5461094.66908  23688068.91108  23688066.96708
  22687124.09909 -14831973.49909 -11516968.94209  22687124.51009  22687122.67309
  24528318.10807  -5059620.20707  -3857891.70707  24528317.57107  24528316.80907
  20397025.77709 -24257820.85409 -18850107.97309  20397025.46409  20397024.86909
  23001769.47109 -10602440.58309  -8205259.24209  23001769.32509  23001767.67409
  21218714.49009 -21286798.84109 -16526039.05109  21218713.14209  21218713.26909
  20262664.39509 -23955370.07509 -18628632.11309  20262664.38509  20262663.65209
  24622592.38408  -3347277.24508  -2557986.88408  24622592.78508  24622592.39408
  25134371.02006    495502.02006    451829.94806  25134372.69006  25134369.22206
 07  1 15  1 33 30.0000000  0  9G09G08G18G29G10G28G26G17G27
  23668236.08208  -7144239.06308  -5542301.15008  23668237.71308  23668235.47608
  22703421.21409 -14746329.35009 -11450233.26909  22703422.08309  22703420.47109
  24511998.39907  -5145381.07107  -3924718.37107  24511997.49107  24511996.75807
  20394701.31609 -24270036.46509 -18859626.62809  20394700.94509  20394700.33909
  23021157.59409 -10500553.53609  -8125866.74509  23021158.03309  23021156.37309
  21223513.65009 -21261579.04709 -16506387.25809  21223512.21409  21223512.42909
  20256878.15609 -23985776.88409 -18652325.72709  20256878.21509  20256877.42309
  24604179.23708  -3444037.00908  -2633384.10808  24604179.10008  24604179.57908
  25150281.11007    579107.81107    516977.27006  25150282.50706  25150278.42406
 07  1 15  1 34  0.0000000  0  9G09G08G18G29G10G28G26G17G27
  23648429.07108  -7248326.72408  -5623408.43208  23648430.33108  23648428.10408
  22719749.81209 -14660522.29509 -11383370.63809  22719750.05609  22719748.53209
  24495744.46107  -5230797.59107  -3991276.68307  24495743.51407  24495742.61507
  20392457.57109 -24281827.31309 -18868814.29709  20392457.28809  20392456.67209
  23040589.24409 -10398439.91909  -8046297.70609  23040589.29309  23040587.80809
  21228408.23909 -21235857.75409 -16486344.68209  21228406.73409  21228407.15409
  20251183.55509 -24015702.13209 -18675644.09809  20251183.60409  20251182.72409
  24585779.11108  -3540729.94808  -2708729.25908  24585779.85308  24585779.45308
  25166195.70407    662737.87107    582143.53006  25166196.25106  25166193.95506
 07  1 15  1 34 30.0000000  0  9G09G08G18G29G10G28G26G17G27
  23628646.16808  -7352285.92508  -5704415.59608  23628647.47708  23628645.31808
  22736109.17109 -14574553.37109 -11316381.88709  22736110.15809  22736107.67609
  24479556.07907  -5315867.24607  -4057564.71807  24479555.33607  24479554.76007
  20390294.84509 -24293192.34309 -18877670.16409  20390294.45509  20390293.96609
  23060063.32809 -10296102.66609  -7966554.39609  23060063.58209  23060061.85309
  21233398.12709 -21209636.06009 -16465912.18109  21233396.57409  21233396.89609
  20245580.86409 -24045144.28509 -18698586.03109  20245580.91309  20245580.11209
  24567392.58308  -3637352.62408  -2784019.60508  24567392.19208  24567393.32508
  25182113.45207    746391.69007    647328.26605  25182114.15605  25182112.19205
 07  1 15  1 35  0.0000000  0  9G09G08G18G29G10G28G26G17G27
  23608887.97908  -7456115.71208  -5785321.87408  23608889.08308  23608887.05108
  22752498.80209 -14488423.94209 -11249268.07109  22752499.71109  22752497.53209
  24463434.44407  -5400587.21207  -4123580.27607  24463433.41807  24463433.31107
  20388213.49009 -24304130.60809 -18886193.48809  20388213.04109  20388212.51409
  23079579.12409 -10193544.48409  -7886638.93709  23079579.32909  23079578.34209
  21238482.90609 -21182914.88109 -16445090.47109  21238481.50909  21238481.77309
  20240070.35909 -24074102.13509 -18721150.58709  20240070.43709  20240069.63609
  24549019.64208  -3733902.14708  -2859253.02308  24549019.33908  24549020.17908
  25198036.82807    830068.91007    712531.35106  25198037.52106  25198035.42106
 07  1 15  1 35 30.0000000  0  9G09G08G18G29G10G28G26G17G27
  23589154.45608  -7559814.79208  -5866126.33208  23589156.00908  23589153.85008
  22768919.39908 -14402135.03708 -11182029.96409  22768919.36009  22768917.44609
  24447379.53707  -5484955.22207  -4189321.57207  24447379.06807  24447378.77507
  20386213.33109 -24314641.07409 -18894383.46309  20386212.91109  20386212.45209
  23099136.64008 -10090768.28308  -7806553.58109  23099137.61709  23099135.39009
  21243662.57609 -21155695.45209 -16423880.51709  21243661.14009  21243661.52109
  20234652.26209 -24102574.35209 -18743336.72709  20234652.43809  20234651.57809
  24530662.30208  -3830375.50908  -2934427.02808  24530661.62808  24530662.04808
  25213964.88207    913769.33607    777752.41406  25213964.77506  25213962.77206
 07  1 15  1 36  0.0000000  0  9G09G08G18G29G10G28G26G17G27
  23569446.00808  -7663382.26108  -5946828.20908  23569447.48308  23569445.34408
  22785369.07708 -14315688.19108 -11114668.80509  22785370.92309  22785368.02209
  24431392.71607  -5568968.69707  -4254786.60407  24431392.07107  24431391.66107
  20384294.83509 -24324722.86609 -18902239.40709  20384294.43409  20384293.95609
  23118735.36908  -9987777.03208  -7726300.67709  23118736.00409  23118733.75809
  21248936.75409 -21127979.18909 -16402283.42009  21248935.35709  21248935.74809
  20229326.95609 -24130559.58109 -18765143.39609  20229326.97509  20229326.02809
  24512318.11908  -3926769.82108  -3009539.48708  24512317.88508  24512318.59808
  25229897.38107    997492.26907    842991.08305  25229896.75605  25229894.46005
 07  1 15  1 36 30.0000000  0  9G09G08G18G29G10G28G26G17G27
  23549763.32908  -7766817.03408  -6027426.68608  23549764.28608  23549762.29308
  22801849.78908 -14229084.10108 -11047185.12509  22801850.39409  22801847.79609
  24415473.13107  -5652625.02707  -4319973.33907  24415472.61307  24415472.24207
  20382458.09109 -24334374.93209 -18909760.50109  20382457.70009  20382457.19209
  23138374.27608  -9884573.51308  -7645882.37209  23138375.00909  23138372.47909
  21254305.23709 -21099767.30609 -16380300.12509  21254303.80109  21254304.25009
  20224094.42909 -24158056.53709 -18786569.59409  20224094.40009  20224093.58009
  24493990.13308  -4023081.97408  -3084587.93108  24493990.45608  24493991.00308
  25245831.95107   1081237.33407    908247.02106  25245832.99606  25245831.64806
 07  1 15  1 37  0.0000000  0  9G09G08G18G29G10G28G26G17G27
  23530105.66708  -7870118.17408  -6107921.04608  23530106.46808  23530104.36808
  22818359.33708 -14142324.08208 -10979579.93309  22818360.16709  22818358.51609
  24399622.33507  -5735922.05907  -4384880.10407  24399621.43607  24399621.06507
  20380703.27409 -24343596.40409 -18916946.06509  20380702.91309  20380702.35609
  23158052.86208  -9781160.77408  -7565301.02509  23158053.76109  23158051.49509
  21259767.97509 -21071061.10909 -16357931.65709  21259766.42209  21259766.82309
  20218954.95709 -24185064.02109 -18807614.38309  20218955.10409  20218954.29309
  24475679.36908  -4119309.19408  -3159570.15308  24475678.59708  24475679.16308
  25261773.27107   1165004.17507    973519.78206  25261774.34506  25261772.05006
 07  1 15  1 37 30.0000000  0  9G09G08G18G29G10G28G26G17G27
  23510474.16408  -7973284.39308  -6188310.28908  23510474.78008  23510472.74808
  22834899.05009 -14055408.98109 -10911853.90509  22834900.10509  22834897.80909
  24383840.78707  -5818856.49607  -4449504.33707  24383839.47807  24383839.28207
  20379030.60009 -24352386.37809 -18923795.39809  20379030.22909  20379029.65309
  23177771.17608  -9677541.56008  -7484558.78709  23177771.78209  23177769.68209
  21265324.30509 -21041861.87009 -16335178.99409  21265322.96609  21265323.13309
  20213909.00709 -24211580.67509 -18828276.70809  20213909.22209  20213908.40209
  24457384.30208  -4215448.30508  -3234483.75108  24457384.72208  24457384.47808
  25277717.88307   1248792.37007   1038809.34306  25277718.45906  25277716.98406
 07  1 15  1 38  0.0000000  0  9G09G08G18G29G10G28G26G17G27
  23490867.73808  -8076314.68008  -6268593.60008  23490868.77308  23490866.80008
  22851467.64808 -13968340.29508 -10844008.18709  22851468.27309  22851466.60309
  24368128.26307  -5901426.39107  -4513844.50107  24368127.13907  24368126.39707
  20377440.20609 -24360743.75709 -18930307.64609  20377439.90309  20377439.21909
  23197528.23208  -9573718.62008  -7403657.82709  23197528.94509  23197525.91709
  21270974.31309 -21012170.81909 -16312043.10309  21270972.97509  21270973.28709
  20208956.84409 -24237605.16109 -18848555.53509  20208956.90309  20208956.25809
  24439107.84408  -4311495.78708  -3309325.89408  24439107.43408  24439107.51208
  25293665.41507   1332601.90607   1104115.49106  25293666.68506  25293665.65906
 07  1 15  1 38 30.0000000  0  8G09G08G18G29G10G28G26G17
  23471287.91008  -8179208.13208  -6348770.26108  23471288.92608  23471286.61108
  22868065.60009 -13881119.06209 -10776043.60809  22868066.14709  22868064.36009
  24352485.58308  -5983629.37508  -4577898.75707  24352484.35207  24352483.74607
  20375932.43209 -24368667.87409 -18936482.28509  20375932.02209  20375931.38709
  23217323.20808  -9469695.10708  -7322600.55009  23217323.70709  23217321.73309
  21276717.51209 -20981989.36209 -16288525.08009  21276716.45709  21276716.59409
  20204098.48709 -24263136.36109 -18868449.97609  20204098.58509  20204097.87209
  24420846.65408  -4407449.39808  -3384094.97808  24420846.71308  24420847.59208
 07  1 15  1 39  0.0000000  0  8G09G08G18G29G10G28G26G17
  23451733.85208  -8281963.32708  -6428839.21508  23451735.10208  23451733.08008
  22884692.25209 -13793746.18409 -10707960.86509  22884692.77009  22884691.35409
  24336913.04907  -6065462.66207  -4641664.96307  24336911.88707  24336911.53507
  20374506.94809 -24376157.81409 -18942318.60409  20374506.76209  20374506.19609
  23237156.35008  -9365473.75408  -7241389.13709  23237156.81909  23237153.91809
  21282554.10709 -20951318.72209 -16264625.87809  21282552.86609  21282552.84709
  20199334.17109 -24288173.11409 -18887959.13709  20199334.22009  20199333.58509
  24402607.26708  -4503305.90108  -3458788.34108  24402606.91608  24402606.86708
 07  1 15  1 39 30.0000000  0  8G09G08G18G29G10G28G26G17
  23432206.60808  -8384579.49608  -6508799.83008  23432207.72208  23432205.41608
  22901347.34009 -13706222.51809 -10639760.63209  22901347.75009  22901346.14809
  24321411.80607  -6146923.55307  -4705140.96707  24321410.54607  24321410.06707
  20373164.74909 -24383212.34509 -18947815.64409  20373164.34909  20373163.74309
  23257025.46908  -9261057.17208  -7160025.56009  23257026.09409  23257023.87709
  21288483.35509 -20920160.18609 -16240346.49309  21288482.19309  21288482.07509
  20194664.27609 -24312713.85409 -18907081.79709  20194664.25609  20194663.57209
  24384385.14108  -4599062.01208  -3533403.47908  24384384.96508  24384385.36608
 07  1 15  1 40  0.0000000  0  8G09G08G18G29G10G28G26G17
  23412706.18808  -8487055.30708  -6588651.04808  23412707.19408  23412704.88908
  22918031.02009 -13618550.05909 -10571444.44909  22918031.58609  22918029.79909
  24305981.54007  -6228009.61107  -4768324.90907  24305979.93807  24305979.96707
  20371905.28909 -24389830.81509 -18952972.89709  20371904.91809  20371904.40009
  23276932.46009  -9156448.43309  -7078512.29409  23276933.42709  23276930.70209
  21294505.09109 -20888515.27409 -16215688.11709  21294504.04509  21294503.95709
  20190088.84109 -24336757.49809 -18925817.10709  20190088.90909  20190088.22609
  24366184.31008  -4694714.68208  -3607938.05608  24366182.51308  24366183.64608
 07  1 15  1 40 30.0000000  0  8G09G08G18G29G10G28G26G17
  23393232.57308  -8589389.73108  -6668392.11908  23393233.78408  23393231.84008
  22934742.75509 -13530729.36909 -10503012.78509  22934743.06709  22934741.66109
  24290622.38808  -6308718.52408  -4831214.95807  24290621.70407  24290621.54807
  20370728.91809 -24396012.38009 -18957789.70909  20370728.56709  20370728.09809
  23296874.71508  -9051650.33308  -6996851.42909  23296875.27209  23296872.77109
  21300619.18609 -20856385.08209 -16190651.60109  21300618.26809  21300618.03409
  20185608.34509 -24360303.07809 -18944164.31309  20185608.27709  20185607.55409
  24348000.76908  -4790261.11308  -3682389.82008  24348001.61908  24348001.08208
 07  1 15  1 41  0.0000000  0  8G09G08G18G29G10G28G26G17
  23373786.10308  -8691581.79108  -6748022.26008  23373787.04108  23373785.15608
  22951482.42709 -13442761.52109 -10434466.43209  22951483.10109  22951481.13809
  24275336.64608  -6389047.60208  -4893809.04007  24275335.75707  24275335.70807
  20369635.99009 -24401756.00709 -18962265.27009  20369635.57909  20369635.06209
  23316852.89808  -8946665.70908  -6915045.25309  23316853.54309  23316851.62809
  21306825.52509 -20823771.29409 -16165238.25709  21306824.48009  21306824.15809
  20181222.71109 -24383349.12409 -18962122.27109  20181222.70109  20181221.99809
  24329840.84908  -4885698.26408  -3756756.37708  24329839.46108  24329840.49708
 07  1 15  1 41 30.0000000  0  8G09G08G18G29G10G28G26G17
  23354366.70308  -8793630.51008  -6827540.71508  23354367.60108  23354366.04808
  22968249.95909 -13354647.93109 -10365806.51809  22968250.77909  22968248.53309
  24260122.97408  -6468994.66708  -4956105.45107  24260121.94907  24260121.74407
  20368626.45409 -24407061.09809 -18966399.11209  20368626.06309  20368625.50609
  23336865.39708  -8841497.75408  -6833096.21409  23336866.33509  23336863.67809
  21313123.48209 -20790675.46709 -16139449.30209  21313122.27109  21313122.18309
  20176932.39709 -24405894.79109 -18979690.32809  20176932.48509  20176931.66409
  24311699.43907  -4981023.28707  -3831035.69508  24311700.04508  24311700.00508
 07  1 15  1 42  0.0000000  0  8G09G08G18G29G10G28G26G17
  23334975.39608  -8895534.59608  -6906946.46408  23334975.94308  23334974.21408
  22985044.93009 -13266389.51809 -10297033.74709  22985044.99909  22985043.60209
  24244983.44608  -6548556.49108  -5018101.68607  24244981.83407  24244981.88307
  20367700.50709 -24411926.39109 -18970190.25209  20367700.21409  20367699.65709
  23356912.40908  -8736149.11308  -6751006.36609  23356914.08909  23356911.50009
  21319513.02709 -20757098.28509 -16113285.26309  21319511.81609  21319511.80609
  20172737.61709 -24427938.60509 -18996867.32609  20172737.64709  20172736.89409
  24293583.85708  -5076232.55808  -3905224.65008  24293583.74008  24293582.76308
 07  1 15  1 42 30.0000000  0  8G09G08G18G29G10G28G26G17
  23315611.30408  -8997293.49708  -6986239.09808  23315611.79208  23315610.39508
  23001867.18509 -13177987.32109 -10228148.93809  23001867.61409  23001866.03209
  24229916.58408  -6627731.71308  -5079796.65407  24229915.22607  24229915.41207
  20366858.50909 -24416351.46309 -18973638.36609  20366858.14709  20366857.49309
  23376994.22509  -8630622.91509  -6668778.18809  23376994.25409  23376991.70409
  21325993.76109 -20723041.87209 -16086747.79309  21325992.45209  21325992.54009
  20168638.65609 -24449479.51609 -19013652.45609  20168638.58809  20168637.84609
  24275487.26507  -5171323.53907  -3979321.60808  24275486.40508  24275487.13808
 07  1 15  1 43  0.0000000  0  8G09G08G18G29G10G28G26G17
  23296275.04208  -9098905.41108  -7065417.18008  23296275.76508  23296274.20208
  23018716.76109 -13089442.12909 -10159152.72309  23018717.57209  23018715.84309
  24214924.22608  -6706517.61208  -5141188.26807  24214922.71207  24214922.99507
  20366100.42209 -24420335.14109 -18976742.53509  20366100.01109  20366099.47409
  23397107.85708  -8524921.64508  -6586413.53009  23397109.16509  23397106.69409
  21332565.34009 -20688507.66609 -16059838.01909  21332564.06109  21332564.27609
  20164635.56309 -24470516.18009 -19030044.66609  20164635.46509  20164634.70309
  24257416.18808  -5266293.15308  -4053323.85509  24257417.01809  24257415.39609
 07  1 15  1 43 30.0000000  0  8G09G08G18G29G10G28G26G17
  23276966.75708  -9200369.71708  -7144480.25908  23276967.34308  23276966.15108
  23035593.72909 -13000755.24709 -10090046.09209  23035593.27009  23035592.28309
  24200006.16608  -6784911.20008  -5202274.18407  24200004.68107  24200005.04307
  20365426.55809 -24423876.68109 -18979502.18309  20365426.11809  20365425.60109
  23417255.20908  -8419048.22108  -6503914.80609  23417256.62509  23417253.62609
  21339227.91309 -20653496.56409 -16032556.63709  21339226.35009  21339226.77909
  20160728.46309 -24491047.54609 -19046043.14009  20160728.42409  20160727.80809
  24239367.74408  -5361138.06308  -4127228.96308  24239367.37308  24239366.47408
 07  1 15  1 44  0.0000000  0  8G09G08G18G29G10G28G26G17
  23257687.41508  -9301684.92208  -7223427.13608  23257688.02108  23257686.45808
  23052496.82709 -12911927.58809 -10020829.75409  23052497.36409  23052495.48809
  24185164.11508  -6862910.43108  -5263052.80807  24185161.77007  24185162.18107
  20364836.73209 -24426975.39509 -18981916.77009  20364836.47809  20364835.97009
  23437434.31808  -8313005.51808  -6421284.11709  23437435.01209  23437432.41409
  21345980.70609 -20618010.12409 -16004904.85709  21345979.21109  21345979.63109
  20156917.86509 -24511072.60609 -19061647.08709  20156917.81609  20156917.12309
  24221343.51608  -5455855.28808  -4201034.62008  24221342.71508  24221342.41208
 07  1 15  1 44 30.0000000  0  8G09G08G18G29G10G28G26G17
  23238436.20708  -9402849.95608  -7302256.99008  23238436.76408  23238435.61108
  23069426.56309 -12822960.42809  -9951504.72509  23069426.87509  23069425.58609
  24170396.14708  -6940512.43108  -5323521.89007  24170394.85707  24170395.02307
  20364331.69509 -24429630.36009 -18983985.58109  20364331.27509  20364330.76709
  23457644.75508  -8206796.37408  -6338523.76309  23457646.59209  23457644.18909
  21352823.59309 -20582049.76109 -15976883.78709  21352822.27509  21352822.64609
  20153203.68209 -24530590.15309 -19076855.56809  20153203.76009  20153202.92009
  24203344.39308  -5550441.49808  -4274738.12508  24203344.53008  24203342.82008
 07  1 15  1 45  0.0000000  0  8G09G08G18G29G10G28G26G17
  23219214.08908  -9503864.01908  -7380969.19708  23219214.72408  23219213.06308
  23086383.01609 -12733855.06209  -9882071.98209  23086382.75209  23086381.63809
  24155705.46608  -7017714.87508  -5383679.64807  24155703.62007  24155703.67907
  20363911.02809 -24431840.86409 -18985708.05909  20363910.59909  20363910.11009
  23477887.32008  -8100423.66008  -6255635.93108  23477887.94508  23477885.44508
  21359756.54609 -20545617.11109 -15948494.70509  21359755.22709  21359755.37309
  20149586.35209 -24549599.18609 -19091667.80509  20149586.39109  20149585.62009
  24185370.52108  -5644894.01008  -4348337.52108  24185370.00308  24185369.76908
 07  1 15  1 45 30.0000000  0  8G09G08G18G29G10G28G26G17
  23200020.78808  -9604725.70408  -7459562.66808  23200021.18808  23200019.79108
  23103365.23808 -12644612.44708  -9812532.31809  23103365.05209  23103363.70409
  24141090.84308  -7094515.08808  -5443523.97007  24141088.43007  24141089.06507
  20363575.10309 -24433606.06209 -18987083.54209  20363574.69209  20363574.16509
  23498159.56208  -7993890.28908  -6172622.92109  23498161.34009  23498158.73109
  21366779.03509 -20508713.74109 -15919738.82909  21366777.72609  21366777.87209
  20146066.01309 -24568098.61209 -19106082.94309  20146066.05209  20146065.29009
  24167423.17108  -5739209.50708  -4421830.07808  24167422.34008  24167421.44208
 07  1 15  1 46  0.0000000  0  8G09G08G18G29G10G28G26G17
  23180856.82108  -9705434.24108  -7538036.79808  23180856.82108  23180855.62908
  23120373.27809 -12555233.54509  -9742886.44809  23120373.18009  23120372.57409
  24126553.20408  -7170911.32308  -5503053.49907  24126550.74307  24126551.65107
  20363324.01509 -24434925.21809 -18988111.46109  20363323.70309  20363323.19509
  23518462.89608  -7887199.03008  -6089486.88308  23518463.75608  23518460.77608
  21373890.76809 -20471340.93509 -15890617.16009  21373889.52809  21373889.58609
  20142642.93809 -24586087.17709 -19120100.00709  20142642.90909  20142642.22509
  24149500.63208  -5833385.12608  -4495213.71308  24149500.39808  24149500.97408
 07  1 15  1 46 30.0000000  0  8G09G08G18G29G10G28G26G17
  23161721.64208  -9805988.49708  -7616390.73008  23161722.18908  23161720.81208
  23137407.51608 -12465719.51908  -9673135.27909  23137407.59409  23137406.36409
  24112092.96108  -7246900.92008  -5562266.17107  24112090.54807  24112091.30007
  20363158.20609 -24435797.66209 -18988791.29109  20363157.65009  20363157.17109
  23538794.46108  -7780353.00208  -6006230.23908  23538795.84808  23538793.26908
  21381091.45309 -20433500.41509 -15861131.03809  21381090.51509  21381090.38809
  20139317.27409 -24603564.00809 -19133718.32109  20139317.28409  20139316.59009
  24131607.83808  -5927417.72508  -4568485.85408  24131607.76008  24131606.74408
 07  1 15  1 47  0.0000000  0  8G09G08G18G29G10G28G26G17
  23142616.26608  -9906387.17708  -7694623.44008  23142616.89108  23142615.49408
  23154467.07508 -12376071.02308  -9603279.33009  23154467.06509  23154466.38109
  24097710.19108  -7322481.53808  -5621160.16707  24097708.30507  24097708.95007
  20363077.31409 -24436222.44809 -18989122.29709  20363076.83609  20363076.24909
  23559155.99608  -7673354.82908  -5922855.06108  23559156.53308  23559153.81708
  21388380.88409 -20395193.72509 -15831281.66909  21388379.90709  21388379.78009
  20136089.22509 -24620527.82709 -19146936.88509  20136089.12709  20136088.56109
  24113741.33107  -6021304.68007  -4641644.55108  24113741.10608  24113740.65708
 07  1 15  1 47 30.0000000  0  8G09G08G18G29G10G28G26G17
  23123540.64508 -10006629.24908  -7772734.09508  23123541.84608  23123539.63908
  23171552.20708 -12286289.21108  -9533319.49409  23171552.15809  23171550.73209
  24083406.30008  -7397650.70108  -5679733.53407  24083404.41507  24083404.88407
  20363081.73909 -24436198.91309 -18989103.96209  20363081.28009  20363080.72309
  23579544.52008  -7566207.53008  -5839363.65508  23579546.27808  23579544.12908
  21395759.10909 -20356422.42209 -15801070.25909  21395757.83009  21395757.62409
  20132958.89009 -24636977.75409 -19159755.02009  20132958.89009  20132958.27409
  24095904.01208  -6115042.58408  -4714687.05908  24095903.88508  24095902.91808
 07  1 15  1 48  0.0000000  0  8G09G08G18G29G10G28G26G17
  23104495.18908 -10106713.55308  -7850721.86108  23104495.74508  23104494.39708
  23188661.98508 -12196375.11508  -9463256.60209  23188662.81509  23188660.98809
  24069180.30308  -7472406.14008  -5737984.52207  24069179.09207  24069179.60007
  20363171.58909 -24435726.35609 -18988735.74309  20363171.27709  20363170.72009
  23599962.47708  -7458913.66908  -5755758.07908  23599963.19008  23599960.95308
  21403225.05509 -20317188.15009 -15770498.10109  21403223.69709  21403223.90209
  20129926.57109 -24652912.82909 -19172171.96809  20129926.53109  20129925.81809
  24078094.67908  -6208628.33408  -4787611.01508  24078095.20708  24078094.48408
 07  1 15  1 48 30.0000000  0  8G09G08G18G29G10G28G26G17
  23085480.01408 -10206639.17608  -7928585.96408  23085480.43408  23085478.95008
  23205796.97508 -12106330.36708  -9393091.88209  23205797.67809  23205795.83209
  24055033.95808  -7546745.17708  -5795911.04407  24055032.84407  24055033.24407
  20363347.21509 -24434804.09509 -18988017.10109  20363346.79509  20363346.26809
  23620407.11108  -7351476.38408  -5672040.71008  23620408.37108  23620405.46008
  21410778.98509 -20277492.15709 -15739566.15709  21410777.58809  21410777.97909
  20126992.36509 -24668331.97109 -19184186.88709  20126992.37509  20126991.54509
  24060316.05808  -6302058.70308  -4860413.90508  24060316.07808  24060315.83408
 07  1 15  1 49  0.0000000  0  8G09G08G18G29G10G28G26G17
  23066495.25908 -10306404.92208  -8006325.48508  23066495.54208  23066494.20408
  23222957.06008 -12016155.39408  -9322825.69809  23222957.18709  23222955.46809
  24040967.99608  -7620665.71408  -5853511.43607  24040966.22807  24040966.48207
  20363608.34409 -24433431.37809 -18986947.45809  20363607.99309  20363607.47509
  23640878.64808  -7243898.36708  -5588213.71008  23640879.45908  23640877.16308
  21418420.52809 -20237336.45209 -15708275.99109  21418418.92609  21418419.43409
  20124156.51809 -24683234.23409 -19195799.04109  20124156.59609  20124155.71709
  24042566.94808  -6395330.92408  -4933093.53808  24042566.58708  24042566.04908
 07  1 15  1 49 30.0000000  0  8G09G08G18G29G10G28G26G17
  23047541.06908 -10406009.64608  -8083939.53009  23047541.40109  23047540.24809
  23240140.90208 -11925851.36108  -9252458.92009  23240141.92709  23240140.18909
  24026981.00308  -7694165.47808  -5910783.96507  24026979.24507  24026979.77207
  20363955.41609 -24431607.43409 -18985526.21009  20363955.09409  20363954.55609
  23661376.61808  -7136182.63108  -5504279.37908  23661377.23308  23661374.41008
  21426149.10709 -20196722.09909 -15676628.43909  21426147.64209  21426148.12009
  20121419.31209 -24697618.62109 -19207007.65709  20121419.35109  20121418.53109
  24024848.40308  -6488441.82308  -5005647.52009  24024847.61209  24024848.52009
 07  1 15  1 50  0.0000000  0  8G09G08G18G29G10G28G26G17
  23028617.94208 -10505452.59708  -8161427.51909  23028618.09809  23028617.31709
  23257349.92708 -11835419.03208  -9181992.19509  23257350.33709  23257347.92409
  24013075.46808  -7767241.51808  -5967726.33507  24013073.07507  24013073.55407
  20364388.50809 -24429331.62509 -18983752.85709  20364388.12709  20364387.62909
  23681899.04808  -7028332.01008  -5420239.94308  23681900.78608  23681898.38308
  21433964.92809 -20155650.72909 -15644624.76909  21433963.18909  21433963.94109
  20118780.81609 -24711484.03209 -19217811.87709  20118780.80709  20118780.08409
  24007160.90208  -6581388.15508  -5078073.19008  24007161.32208  24007160.10108
 07  1 15  1 50 30.0000000  0  8G09G08G18G29G10G28G26G17
  23009725.46908 -10604732.02708  -8238788.08609  23009725.87909  23009724.67809
  23274582.60108 -11744860.01008  -9111426.73509  23274583.07909  23274581.57509
  23999250.07308  -7839892.22508  -6024337.26407  23999248.71607  23999248.82307
  20364907.61109 -24426603.32009 -18981626.91109  20364907.37709  20364906.79109
  23702448.34108  -6920349.13908  -5336097.46508  23702449.16108  23702446.60208
  21441867.12109 -20114124.22809 -15612266.45309  21441865.48009  21441866.19309
  20116241.29409 -24724829.50309 -19228210.95009  20116241.24509  20116240.60009
  23989506.24208  -6674166.85008  -5150368.27109  23989505.86109  23989505.82209
 07  1 15  1 51  0.0000000  0  8G09G08G18G29G10G28G26G17
  22990864.50808 -10703847.02008  -8316020.54509  22990864.59609  22990864.13709
  23291839.24708 -11654175.28008  -9040763.34109  23291840.43809  23291838.15309
  23985506.22608  -7912115.10408  -6080614.82007  23985505.55107  23985505.42407
  20365513.15509 -24423421.78509 -18979147.79709  20365512.81309  20365512.21709
  23723021.11708  -6812237.13008  -5251854.35408  23723021.77208  23723019.90608
  21449855.59809 -20072144.24409 -15579554.77209  21449854.01609  21449854.57309
  20113800.78409 -24737654.25009 -19238204.26509  20113800.74509  20113800.09109
  23971882.93908  -6766775.00208  -5222530.46608  23971883.58408  23971881.61108
 07  1 15  1 51 30.0000000  0  8G09G08G18G29G10G28G26G17
  22972035.23708 -10802796.54208  -8393124.06509  22972035.49109  22972034.24009
  23309119.93308 -11563365.27608  -8970002.31309  23309120.46009  23309118.91709
  23971845.04808  -7983907.52808  -6136556.94807  23971843.60207  23971843.73907
  20366204.72909 -24419786.34009 -18976314.98609  20366204.61209  20366204.03509
  23743618.35408  -6703998.49608  -5167512.58308  23743618.96908  23743616.67308
  21457930.04809 -20029712.14909 -15546490.80309  21457928.73909  21457929.14909
  20111459.65809 -24749957.24309 -19247791.02009  20111459.47209  20111458.94509
  23954294.08008  -6859209.34708  -5294557.20409  23954293.87409  23954292.97609
 07  1 15  1 52  0.0000000  0  8G09G08G18G29G10G28G26G17
  22953237.27308 -10901579.82908  -8470098.02609  22953237.66309  22953236.28609
  23326424.33608 -11472431.11308  -8899144.52509  23326424.75609  23326422.77309
  23958265.98308  -8055267.43008  -6192162.06407  23958263.59007  23958264.21507
  20366983.07609 -24415696.48509 -18973128.09109  20366982.88009  20366982.31409
  23764239.22008  -6595636.45108  -5083074.63808  23764239.42508  23764237.37408
  21466090.35109 -19986829.74109 -15513075.93909  21466089.06209  21466089.19909
  20109217.80809 -24761737.70709 -19256970.60609  20109217.78909  20109217.24209
  23936737.26008  -6951467.22208  -5366446.47809  23936736.95709  23936736.52809
 07  1 15  1 52 30.0000000  0  8G09G08G18G29G10G28G26G17
  22934470.90008 -11000195.34208  -8546941.27609  22934471.47609  22934469.99109
  23343751.81308 -11381373.52108  -8828190.59609  23343752.72109  23343751.22709
  23944769.72508  -8126192.19208  -6247428.10107  23944767.52707  23944767.62507
  20367848.13709 -24411151.52009 -18969586.56309  20367847.80409  20367847.28709
  23784881.81108  -6487153.64708  -4998542.56308  23784882.84608  23784881.33208
  21474335.97309 -19943498.47809 -15479311.32109  21474334.68309  21474334.78109
  20107075.76209 -24772994.42309 -19265742.07709  20107075.73309  20107075.16609
  23919215.89108  -7043544.91408  -5438195.30309  23919216.04709  23919214.67009
 07  1 15  1 53  0.0000000  0  8G09G08G18G29G10G28G26G17
  22915737.47608 -11098641.88108  -8623652.83209  22915738.09109  22915736.35209
  23361102.63608 -11290194.27608  -8757141.81908  23361102.85108  23361101.33708
  23931355.82408  -8196679.84308  -6302353.52607  23931354.17407  23931354.34007
  20368799.71609 -24406150.79609 -18965689.89809  20368799.34509  20368798.89609
  23805548.57908  -6378553.01908  -4913918.74008  23805549.10608  23805547.09408
  21482666.55009 -19899720.13909 -15445198.32709  21482665.29909  21482665.25009
  20105033.44209 -24783726.73309 -19274104.91809  20105033.45209  20105032.80709
  23901728.46608  -7135439.90508  -5509801.80008  23901728.32008  23901727.91908
 07  1 15  1 53 30.0000000  0  8G09G08G18G29G10G28G26G17
  22897035.55508 -11196918.66208  -8700232.10409  22897036.71709  22897034.73409
  23378476.75708 -11198893.80208  -8685998.63209  23378477.90909  23378475.78009
  23918026.35208  -8266727.92608  -6356936.44408  23918024.67208  23918024.73108
  20369838.18609 -24400693.64209 -18961437.57409  20369837.73709  20369837.32609
  23826236.57408  -6269837.38908  -4829205.25708  23826236.82808  23826234.65908
  21491082.09209 -19855496.35509 -15410738.23409  21491080.99809  21491080.59809
  20103091.08209 -24793933.85809 -19282058.52309  20103091.09209  20103090.48609
  23884276.91108  -7227148.96008  -5581263.41909  23884276.98909  23884275.84609
 07  1 15  1 54  0.0000000  0  8G09G08G18G29G10G28G26G17
  22878366.67108 -11295024.43908  -8776678.12509  22878367.73509  22878366.19209
  23395873.15908 -11107473.44208  -8614761.99108  23395874.23408  23395872.29008
  23904780.00008  -8336334.30508  -6411175.15708  23904778.96408  23904779.20808
  20370963.66309 -24394779.43909 -18956829.10509  20370963.23309  20370962.78409
  23846945.72708  -6161009.50208  -4744404.30008  23846946.18608  23846944.16408
  21499581.95609 -19810828.95709 -15375932.46509  21499580.84209  21499580.53909
  20101248.91609 -24803614.73809 -19289602.06409  20101248.94609  20101248.23309
  23866861.21608  -7318668.76708  -5652577.51709  23866861.79209  23866859.59509
 07  1 15  1 54 30.0000000  0  8G09G08G18G29G10G28G26G17
  22859730.55908 -11392958.06608  -8852990.00209  22859731.25309  22859730.23709
  23413292.70308 -11015934.25308  -8543432.78408  23413293.25008  23413290.88608
  23891618.92508  -8405496.81708  -6465068.00508  23891618.09508  23891617.81208
  20372175.94209 -24388407.85809 -18951864.23809  20372175.71709  20372175.13109
  23867675.82308  -6052072.28008  -4659518.13908  23867675.68608  23867673.89908
  21508165.79809 -19765719.66909 -15340782.35909  21508164.74309  21508164.68409
  20099506.99409 -24812768.54009 -19296734.89709  20099507.04309  20099506.24209
  23849482.33808  -7409996.44008  -5723741.95009  23849481.42009  23849481.30309
 07  1 15  1 55  0.0000000  0  8G09G08G18G29G10G28G26G17
  22841127.57308 -11490718.25608  -8929166.74609  22841128.24709  22841126.89909
  23430733.85408 -10924276.82408  -8472011.40509  23430735.55409  23430733.33709
  23878543.03108  -8474213.11508  -6518613.16508  23878541.57608  23878541.59508
  20373475.74609 -24381578.13209 -18946542.37709  20373475.38509  20373474.83809
  23888425.76908  -5943028.68008  -4574549.09108  23888426.32608  23888424.92908
  21516833.94209 -19720170.00609 -15305289.11009  21516832.42809  21516832.50609
  20097865.68709 -24821394.47909 -19303456.40809  20097865.54009  20097864.73909
  23832139.95508  -7501128.84508  -5794754.22509  23832140.59009  23832138.55809
 07  1 15  1 55 30.0000000  0  8G09G08G18G29G10G28G26G17
  22822558.11108 -11588303.88608  -9005207.48009  22822558.34609  22822556.87109
  23448199.17308 -10832502.46808  -8400498.97608  23448198.95808  23448196.28208
  23865551.51708  -8542480.75108  -6571808.72008  23865550.57908  23865550.28608
  20374862.80109 -24374289.70509 -18940863.08309  20374862.38109  20374861.75609
  23909196.35608  -5833881.37908  -4489499.27008  23909196.53208  23909193.60108
  21525585.13709 -19674181.59909 -15269453.98109  21525583.75009  21525584.08209
  20096324.64209 -24829491.65709 -19309765.89609  20096324.75909  20096323.89009
  23814836.56708  -7592062.73808  -5865611.78709  23814835.71709  23814835.21909
 07  1 15  1 56  0.0000000  0  8G09G08G18G29G10G28G26G17
  22804021.11108 -11685714.18908  -9081111.60409  22804021.41309  22804020.37809
  23465684.47808 -10740612.00208  -8328895.99908  23465684.99508  23465683.63808
  23852646.51108  -8610297.74308  -6624653.10208  23852645.15308  23852645.34908
  20376336.90309 -24366542.08609 -18934825.97409  20376336.65909  20376336.05309
  23929984.83808  -5724633.33108  -4404370.88108  23929985.06308  23929983.86108
  21534419.55809 -19627756.21309 -15233278.34509  21534418.14209  21534418.66009
  20094884.46609 -24837059.52009 -19315662.92509  20094884.58309  20094883.74309
  23797570.05508  -7682795.35908  -5936312.55609  23797570.42709  23797569.21509
 07  1 15  1 56 30.0000000  0  8G09G08G18G29G10G28G26G17
  22785518.45508 -11782947.99308  -9156878.19509  22785518.73909  22785517.10709
  23483193.17808 -10648606.39408  -8257203.35508  23483193.95908  23483190.50108
  23839827.91708  -8677661.81108  -6677144.56808  23839826.19808  23839826.38408
  20377898.83309 -24358334.66009 -18928430.57709  20377898.52009  20377897.87509
  23950792.75008  -5615287.21208  -4319166.10508  23950794.13708  23950791.36308
  21543336.87509 -19580895.60509 -15196763.56809  21543335.53709  21543335.80009
  20093545.28609 -24844097.04909 -19321146.71309  20093545.28609  20093544.66009
  23780343.68208  -7773323.63808  -6006854.02609  23780343.48609  23780342.67609
 07  1 15  1 57  0.0000000  0  8G09G08G18G29G10G28G26G17
  22767049.27608 -11880004.07108  -9232506.29709  22767049.50109  22767048.03609
  23500722.21608 -10556486.55908  -8185421.68908  23500722.98708  23500721.89308
  23827095.19708  -8744570.85208  -6729281.46008  23827093.96608  23827093.80008
  20379548.03309 -24349667.15409 -18921676.67309  20379547.91609  20379547.15409
  23971618.89908  -5505845.76608  -4233887.06708  23971619.76908  23971617.60008
  21552336.71509 -19533601.60909 -15159911.09309  21552335.23009  21552335.71809
  20092307.20809 -24850603.68009 -19326216.81409  20092307.17909  20092306.58309
  23763155.66908  -7863644.38808  -6077233.84709  23763155.09209  23763155.44409
 07  1 15  1 57 30.0000000  0  8G09G08G18G29G10G28G26G17
  22748613.97408 -11976880.96008  -9307994.75309  22748614.51209  22748612.92909
  23518274.34608 -10464253.61508  -8113551.85508  23518274.47308  23518272.03108
  23814450.07008  -8811022.67008  -6781062.08208  23814448.54708  23814448.45908
  20381285.13009 -24340538.81609 -18914563.68109  20381284.94409  20381284.17209
  23992462.85608  -5396311.84008  -4148535.94908  23992463.79408  23992461.50808
  21561418.59009 -19485875.90509 -15122722.22009  21561417.18309  21561417.69109
  20091170.36109 -24856578.53509 -19330872.54509  20091170.21409  20091169.57909
  23746009.00508  -7953754.36908  -6147449.41109  23746008.31209  23746008.41009
 07  1 15  1 58  0.0000000  0  8G09G08G18G29G10G28G26G17
  22730213.09608 -12073578.03208  -9383343.09209  22730213.13509  22730211.69909
  23535846.62908 -10371908.81908  -8041594.92408  23535847.31308  23535845.99408
  23801892.20508  -8877014.71908  -6832484.43508  23801890.79808  23801890.93508
  20383110.07309 -24330949.16209 -18907091.22409  20383109.73109  20383109.10609
  24013323.54708  -5286688.23708  -4063114.95208  24013323.84908  24013321.96408
  21570582.23609 -19437720.29709 -15085198.36409  21570580.77109  21570581.22009
  20090134.61609 -24862020.85509 -19335113.31409  20090134.56809  20090133.91309
  23728901.84608  -8043650.56008  -6217498.39209  23728902.32409  23728901.16209
 07  1 15  1 58 30.0000000  0  8G09G08G18G29G10G28G26G17
  22711846.43709 -12170093.95309  -9458550.28009  22711847.16009  22711845.68509
  23553440.86108 -10279452.35908  -7969550.91408  23553440.53908  23553438.86808
  23789422.07908  -8942545.01608  -6883546.98608  23789420.87808  23789421.00508
  20385022.75709 -24320897.63209 -18899258.86509  20385022.46409  20385021.86809
  24034200.06208  -5176977.74008  -3977626.24408  24034201.79108  24034199.08508
  21579827.40009 -19389136.33409 -15047340.72709  21579826.26709  21579826.34509
  20089200.50309 -24866929.75209 -19338938.42709  20089200.49309  20089199.83809
  23711836.72908  -8133330.14408  -6287378.56109  23711835.80109  23711835.56609
 07  1 15  1 59  0.0000000  0  8G09G08G18G29G10G28G26G17
  22693515.02209 -12266427.53209  -9533615.37109  22693515.79409  22693514.26009
  23571055.66608 -10186885.49308  -7897420.92308  23571056.04708  23571054.72808
  23777040.17208  -9007611.72208  -6934248.28808  23777039.19508  23777038.90208
  20387023.49309 -24310383.94209 -18891066.38409  20387023.18109  20387022.57509
  24055093.80908  -5067183.25508  -3892072.12208  24055094.61908  24055092.15808
  21589153.77809 -19340126.13909 -15009150.96509  21589152.40109  21589152.60609
  20088367.97009 -24871304.67209 -19342347.45509  20088367.98009  20088367.20909
  23694812.69808  -8222789.84808  -6357087.42109  23694812.58109  23694811.91709
 07  1 15  1 59 30.0000000  0  8G09G08G18G29G10G28G26G17
  22675218.36309 -12362577.56409  -9608537.45309  22675218.66609  22675217.77709
  23588690.73008 -10094209.19308  -7825205.66608  23588691.95108  23588689.63608
  23764746.82508  -9072212.47808  -6984586.53008  23764745.83908  23764745.97508
  20389112.29209 -24299407.58709 -18882513.38409  20389111.89109  20389111.42209
  24076002.46208  -4957307.64708  -3806454.74508  24076003.23408  24076000.73308
  21598560.69709 -19290690.95609 -14970630.04309  21598559.52509  21598559.73009
  20087637.11809 -24875144.98009 -19345339.90209  20087637.18609  20087636.42409
  23677831.81408  -8312026.84308  -6426622.71709  23677831.18009  23677830.57409
 07  1 15  2  0  0.0000000  0  8G09G08G18G29G10G28G26G17
  22656957.00709 -12458542.78909  -9683315.54109  22656957.46609  22656956.05009
  23606347.77308 -10001424.19108  -7752905.68808  23606347.92008  23606346.61108
  23752542.87908  -9136345.06008  -7034559.95108  23752541.90208  23752542.22508
  20391289.24009 -24287968.01609 -18873599.43709  20391288.81009  20391288.24409
  24096926.49108  -4847353.74608  -3720776.41408  24096926.33408  24096924.12708
  21608048.64509 -19240832.85909 -14931779.57409  21608047.19909  21608047.29709
  20087008.16909 -24878449.94309 -19347915.19809  20087008.32509  20087007.49509
  23660893.06208  -8401037.64608  -6495981.78509  23660892.81809  23660892.35909
 07  1 15  2  0 30.0000000  0  8G09G08G18G29G10G28G26G17
  22638730.63209 -12554322.61609  -9757949.15209  22638731.06109  22638729.91909
  23624023.73808  -9908531.80808  -7680522.04508  23624025.23208  23624023.23908
  23740428.62608  -9200007.57308  -7084167.08108  23740427.22008  23740427.90308
  20393554.18209 -24276064.89809 -18864324.28209  20393553.86009  20393553.26409
  24117864.21507  -4737324.20407  -3635039.06808  24117864.64508  24117861.50908
  21617616.45909 -19190553.73209 -14892601.03009  21617615.03309  21617615.19909
  20086481.32009 -24881218.82909 -19350072.77009  20086481.32009  20086480.58709
  23643998.57008  -8489819.22808  -6565162.21809  23643999.43009  23643998.02309
 07  1 15  2  1  0.0000000  0  8G09G08G18G29G10G28G26G17
  22620539.83309 -12649915.23309  -9832436.88409  22620540.41909  22620538.70009
  23641721.82808  -9815532.68608  -7608055.22808  23641722.50208  23641720.39208
  23728403.87208  -9263197.62708  -7133406.06608  23728402.51408  23728402.87508
  20395907.64609 -24263697.71209 -18854687.51709  20395907.30409  20395906.57109
  24138815.53608  -4627221.90508  -3549245.11108  24138816.46408  24138814.15908
  21627264.06209 -19139855.37109 -14853095.81009  21627262.58709  21627262.85009
  20086056.54009 -24883451.00509 -19351812.12709  20086056.56009  20086055.87609
  23627148.36808  -8578368.75308  -6634161.84909  23627148.48509  23627147.31309
 07  1 15  2  1 30.0000000  0  8G09G08G18G29G10G28G26G17
  22602384.68909 -12745319.93009  -9906778.18409  22602385.24609  22602383.84909
  23659438.53608  -9722427.62308  -7535505.81208  23659440.34308  23659438.00908
  23716469.73908  -9325913.37508  -7182275.47609  23716468.15609  23716468.29309
  20398349.32809 -24250866.06909 -18844688.83509  20398349.12309  20398348.25309
  24159781.22708  -4517049.47708  -3463396.43808  24159781.74508  24159778.09208
  21636991.08109 -19088739.56209 -14813265.30109  21636989.47909  21636989.97809
  20085734.07509 -24885145.93609 -19353132.85409  20085733.93909  20085733.33309
  23610342.67108  -8666683.10708  -6702978.22009  23610342.98409  23610341.72409
 07  1 15  2  2  0.0000000  0  8G09G08G18G29G10G28G26G17
  22584265.78609 -12840535.38809  -9980972.03809  22584266.30309  22584264.72109
  23677176.46208  -9629217.84208  -7462874.88408  23677177.55608  23677175.04508
  23704625.73908  -9388152.55708  -7230773.52309  23704624.47809  23704624.81109
  20400879.48309 -24237569.60809 -18834327.95609  20400879.35609  20400878.55509
  24180758.37707  -4406809.76707  -3377495.40308  24180760.15508  24180756.89208
  21646797.32309 -19037208.15209 -14773110.94709  21646795.59409  21646796.04309
  20085513.79809 -24886302.91209 -19354034.39709  20085513.82709  20085513.23109
  23593582.26008  -8754758.97908  -6771608.76209  23593582.51409  23593581.76209
 07  1 15  2  2 30.0000000  0  8G09G08G18G29G10G28G26G17
  22566183.08409 -12935560.80209 -10055017.80109  22566183.59209  22566182.03909
  23694933.48508  -9535904.27208  -7390162.99808  23694933.89508  23694932.11708
  23692873.30808  -9449913.21508  -7278898.70209  23692871.79409  23692872.04809
  20403498.22709 -24223807.90609 -18823604.55409  20403498.11009  20403497.36709
  24201748.76207  -4296505.66507  -3291544.14007  24201749.32907  24201746.68207
  21656682.22009 -18985262.64109 -14732633.91409  21656680.58809  21656681.09609
  20085396.14709 -24886921.35309 -19354516.30309  20085396.07909  20085395.53209
  23576867.98608  -8842593.54908  -6840051.28409  23576867.05809  23576867.47809
 07  1 15  2  3  0.0000000  0  8G09G08G18G29G10G28G26G17
  22548136.79909 -13030394.78509 -10128914.40409  22548137.33609  22548135.54909
  23712709.90708  -9442488.05808  -7317371.20108  23712711.76308  23712709.35108
  23681212.24108  -9511193.47808  -7326649.54209  23681210.75609  23681210.68709
  20406205.61909 -24209580.67209 -18812518.40309  20406205.51209  20406204.69109
  24222749.79607  -4186140.07707  -3205544.95907  24222751.35907  24222748.20307
  21666645.28309 -18932905.21509 -14691835.91409  21666643.84709  21666644.18909
  20085381.07409 -24887000.71109 -19354578.15009  20085380.96709  20085380.45909
  23560199.56408  -8930183.71608  -6908303.37509  23560200.35609  23560199.04709
 07  1 15  2  3 30.0000000  0  8G09G08G18G29G10G28G26G17
  22530127.17509 -13125036.03809 -10202660.79709  22530127.56609  22530126.32509
  23730505.77908  -9348969.63508  -7244499.70208  23730506.64908  23730504.90008
  23669642.56708  -9571991.06208  -7374024.26409  23669640.93609  23669641.21909
  20409001.70909 -24194887.45409 -18801069.14609  20409001.54309  20409000.74209
  24243764.52408  -4075715.76608  -3119500.08407  24243764.31907  24243761.29107
  21676686.66009 -18880137.44909 -14650718.17109  21676685.19509  21676685.54709
  20085468.71709 -24886540.35209 -19354219.43209  20085468.70709  20085467.99409
  23543579.31108  -9017526.57908  -6976362.70809  23543579.91609  23543578.47109
 07  1 15  2  4  0.0000000  0  8G09G08G18G29G10G28G26G17
  22512154.40709 -13219483.70209 -10276256.34209  22512154.49509  22512153.47909
  23748321.55908  -9255350.13208  -7171549.44308  23748322.27208  23748320.28908
  23658165.64409  -9632304.01409  -7421021.35609  23658163.95409  23658164.16909
  20411886.43709 -24179727.93909 -18789256.54109  20411886.34009  20411885.52909
  24264787.24307  -3965235.33007  -3033411.39007  24264788.32707  24264785.16207
  21686805.66709 -18826961.43709 -14609282.31109  21686804.11409  21686804.41709
  20085659.17109 -24885539.76109 -19353439.75109  20085659.13209  20085658.40009
  23527005.66208  -9104618.81308  -7044226.80409  23527005.52609  23527004.89109
 07  1 15  2  4 30.0000000  0  8G09G08G18G29G10G28G26G17
  22494218.71009 -13313736.39909 -10349699.97709  22494218.78809  22494218.20209
  23766155.21508  -9161630.30208  -7098521.06508  23766157.25708  23766154.05208
  23646780.83808  -9692130.12308  -7467639.09709  23646779.53809  23646779.63609
  20414860.00909 -24164101.80409 -18777080.33609  20414859.89209  20414858.97409
  24285821.13707  -3854701.53307  -2947281.16307  24285822.28007  24285819.44707
  21697001.85409 -18773378.77009 -14567529.57809  21697000.55409  21697000.81809
  20085952.38009 -24883998.28609 -19352238.60409  20085952.43809  20085951.77409
  23510481.08108  -9191457.40108  -7111893.22509  23510481.60809  23510480.55309
 07  1 15  2  5  0.0000000  0  8G09G08G18G29G10G28G26G17
  22476320.14309 -13407792.93009 -10422990.77509  22476320.13409  22476319.59609
  23784009.05208  -9067811.15508  -7025415.23008  23784008.68108  23784007.87008
  23635489.33908  -9751467.68208  -7513876.15809  23635487.78609  23635488.14709
  20417922.37609 -24148008.74509 -18764540.29509  20417922.32709  20417921.41909
  24306864.16507  -3744117.11107  -2861111.48907  24306865.70807  24306862.83607
  21707275.26909 -18719391.54509 -14525461.61009  21707274.12609  21707274.00909
  20086348.79209 -24881915.50409 -19350615.66009  20086348.81109  20086348.17609
  23494005.10608  -9278039.63108  -7179359.87509  23494005.52609  23494003.86609
 07  1 15  2  5 30.0000000  0  8G09G08G18G29G10G28G26G17
  22458459.61409 -13501652.13609 -10496127.81109  22458459.84909  22458458.97909
  23801880.88308  -8973893.68908  -6952232.83508  23801881.95808  23801879.19308
  23624291.17708  -9810314.62108  -7559730.91209  23624289.64309  23624290.03409
  20421073.80109 -24131448.37309 -18751636.11009  20421073.69409  20421072.71709
  24327917.03907  -3633484.73407  -2774904.41907  24327918.06407  24327915.15307
  21717625.41609 -18665001.58509 -14483079.82909  21717624.28309  21717624.27309
  20086848.25009 -24879290.89409 -19348570.50909  20086848.31909  20086847.62509
  23477578.23808  -9364361.86008  -7246623.93909  23477577.99409  23477578.34509
 07  1 15  2  6  0.0000000  0  8G09G08G18G29G10G28G26G17
  22440636.56709 -13595313.01009 -10569110.30109  22440636.37209  22440635.60009
  23819770.87408  -8879879.02608  -6878974.68808  23819771.59708  23819770.15108
  23613186.75308  -9868668.92508  -7605201.78909  23613185.46409  23613185.20009
  20424314.02209 -24114420.54909 -18738367.67709  20424313.91409  20424313.04509
  24348978.95808  -3522807.53808  -2688662.42707  24348978.67507  24348976.64307
  21728051.85409 -18610210.72209 -14440385.65209  21728050.26109  21728050.68109
  20087450.91209 -24876124.10209 -19346102.88309  20087450.86309  20087450.30709
  23461202.27309  -9450421.45509  -7313683.35709  23461201.78409  23461201.17909
 07  1 15  2  6 30.0000000  0  8G09G08G18G29G10G28G26G17
  22422851.49909 -13688774.17009 -10641937.16609  22422851.48009  22422850.71809
  23837680.76208  -8785767.69808  -6805641.20608  23837680.57708  23837678.33008
  23602175.88109  -9926528.77809  -7650287.38109  23602175.03109  23602174.91409
  20427643.51509 -24096924.83109 -18724734.65409  20427643.24209  20427642.41109
  24370047.22707  -3412088.10207  -2602387.52907  24370047.95007  24370045.52807
  21738554.31909 -18555020.75509 -14397380.48109  21738552.53109  21738553.14709
  20088156.78709 -24872414.37909 -19343212.19409  20088156.85609  20088156.15209
  23444876.37108  -9536215.25208  -7380535.67209  23444875.93109  23444875.76509
 07  1 15  2  7  0.0000000  0  8G09G08G18G29G10G28G26G17
  22405104.36209 -13782035.04809 -10714607.95409  22405104.38109  22405103.43409
  23855606.29008  -8691560.46808  -6732233.01008  23855607.79508  23855606.10508
  23591260.07509  -9983892.37509  -7694986.28009  23591258.93209  23591258.98109
  20431061.66709 -24078961.08709 -18710736.93509  20431061.68709  20431060.75909
  24391123.99508  -3301329.49908  -2516082.12007  24391124.15107  24391123.00807
  21749132.25509 -18499433.64609 -14354065.84809  21749130.50709  21749131.02409
  20088966.18809 -24868161.52409 -19339898.28609  20088966.14909  20088965.48509
  23428601.38109  -9621740.34809  -7447178.57909  23428600.99109  23428600.78609
 07  1 15  2  7 30.0000000  0  8G09G08G18G29G10G28G26G17
  22387396.01509 -13875093.53609 -10787121.03309  22387396.00509  22387394.94109
  23873552.77108  -8597258.04008  -6658750.63308  23873552.59508  23873550.66108
  23580439.31608 -10040757.46808  -7739296.73909  23580437.58709  23580437.94909
  20434569.33609 -24060528.90109 -18696374.19609  20434569.12209  20434568.29109
  24412207.52207  -3190533.90707  -2429747.86707  24412208.44107  24412206.53607
  21759785.48609 -18443451.17909 -14310443.14509  21759783.68909  21759784.46009
  20089878.79209 -24863364.78709 -19336160.57109  20089878.93809  20089878.19609
  23412377.95008  -9706993.58508  -7513609.68009  23412377.40309  23412377.80309
 07  1 15  2  8  0.0000000  0  8G09G08G18G29G10G28G26G17
  22369726.14609 -13967949.04109 -10859475.95509  22369726.19509  22369725.01309
  23891514.56908  -8502861.46908  -6585194.87508  23891515.82908  23891513.65108
  23569713.13508 -10097122.25708  -7783217.35309  23569712.04109  23569712.10909
  20438165.91809 -24041628.14609 -18681646.33709  20438165.81009  20438165.00009
  24433298.61008  -3079704.14108  -2343387.04007  24433298.63007  24433296.85207
  21770513.40609 -18387075.39509 -14266513.95609  21770511.54109  21770512.43009
  20090895.26309 -24858023.94409 -19331998.88109  20090895.26309  20090894.54009
  23396207.11208  -9791971.75608  -7579826.41509  23396206.56509  23396206.64309
 07  1 15  2  8 30.0000000  0  8G09G08G18G29G10G28G26G17
  22352095.15509 -14060600.61509 -10931671.97409  22352095.21409  22352093.66109
  23909495.93308  -8408371.92708  -6511566.70808  23909495.62108  23909493.87208
  23559083.24008 -10152984.83308  -7826746.63109  23559081.62909  23559081.81409
  20441852.07609 -24022258.60209 -18666553.18809  20441851.81209  20441850.95209
  24454394.23107  -2968843.08207  -2257001.78307  24454395.09107  24454392.56107
  21781315.86009 -18330308.17809 -14222279.75509  21781313.85709  21781314.78509
  20092015.23009 -24852138.58809 -19327412.89209  20092015.23009  20092014.44909
  23380089.25708  -9876672.16008  -7645826.70209  23380088.23109  23380088.65109
 07  1 15  2  9  0.0000000  0  8G09G08G18G29G10G28G26G17
  22334503.07209 -14153046.88709 -11003708.03109  22334503.41409  22334501.65609
  23927493.75707  -8313790.43507  -6437866.81008  23927494.55808  23927492.29208
  23548548.56908 -10208343.73308  -7869883.42509  23548547.05409  23548547.45509
  20445627.13609 -24002420.08509 -18651094.60609  20445626.90109  20445626.12009
  24475495.57607  -2857953.66507  -2170594.43507  24475496.15207  24475495.10707
  21792192.32809 -18273151.27209 -14177741.90009  21792190.92109  21792191.30209
  20093238.90909 -24845708.36809 -19322402.33209  20093238.82109  20093238.13809
  23364024.71809  -9961091.65409  -7711608.11209  23364024.55209  23364024.75809
 07  1 15  2  9 30.0000000  0  8G09G08G18G29G10G28G26G17
  22316950.33609 -14245286.42809 -11075583.00109  22316950.75609  22316948.88009
  23945509.26208  -8219117.18308  -6364095.50208  23945509.90708  23945508.17808
  23538110.32109 -10263196.47709  -7912625.82309  23538109.04109  23538109.45109
  20449491.61609 -23982112.17309 -18635270.25709  20449491.44009  20449490.76609
  24496602.63507  -2747038.42407  -2084166.95407  24496602.83107  24496600.78907
  21803142.62609 -18215606.72809 -14132901.99209  21803141.05309  21803141.53209
  20094566.28909 -24838732.74109 -19316966.78209  20094566.23109  20094565.51809
  23348014.26808 -10045227.07008  -7777168.16809  23348013.46709  23348013.17309
 07  1 15  2 10  0.0000000  0  8G09G08G18G29G10G28G26G17
  22299437.31809 -14337318.18709 -11147296.06009  22299437.38709  22299436.31209
  23963541.64608  -8124353.50008  -6290253.65008  23963542.92608  23963541.14808
  23527768.84908 -10317541.23408  -7954972.38008  23527767.30508  23527767.74508
  20453445.44809 -23961334.92309 -18619080.19209  20453445.12509  20453444.51009
  24517713.03607  -2636100.25607  -1997721.66007  24517713.90507  24517711.67807
  21814166.39209 -18157676.54809 -14087761.59509  21814164.84909  21814165.21009
  20095997.65409 -24831211.50709 -19311106.08809  20095997.48809  20095996.88309
  23332058.38309 -10129075.65509  -7842504.73109  23332057.80709  23332058.48109
 07  1 15  2 10 30.0000000  0  8G09G08G18G29G10G28G26G17
  22281964.05809 -14429141.09409 -11218846.37109  22281964.74209  22281962.74909
  23981592.67908  -8029500.16308  -6216342.03208  23981593.49908  23981591.28208
  23517524.75808 -10371376.28908  -7996921.77309  23517522.98909  23517523.20409
  20457488.57209 -23940088.05509 -18602524.19609  20457488.30909  20457487.68409
  24538828.80908  -2525141.67408  -1911260.42307  24538828.75007  24538827.00107
  21825263.08909 -18099362.41409 -14042322.01409  21825261.81009  21825261.94709
  20097532.71109 -24823144.40709 -19304820.03609  20097532.61309  20097531.92909
  23316157.70909 -10212634.29109  -7907615.35709  23316157.70009  23316156.64509
 07  1 15  2 11  0.0000000  0  8G09G08G18G29G10G28G26G17
  22264530.85809 -14520753.74809 -11290232.83209  22264531.01409  22264529.77309
  23999659.56508  -7934558.21608  -6142361.27207  23999659.36007  23999658.69607
  23507377.13008 -10424700.54808  -8038473.14108  23507375.65508  23507376.12308
  20461621.12709 -23918371.60409 -18585602.29209  20461620.76609  20461620.22809
  24559946.50607  -2414165.54107  -1824785.52707  24559946.99407  24559944.59107
  21836432.53209 -18040666.55609 -13996584.98609  21836431.29109  21836431.22309
  20099171.72309 -24814531.02609 -19298108.31309  20099171.58609  20099171.01009
  23300313.04809 -10295900.06809  -7972497.78909  23300312.32509  23300312.85309
 07  1 15  2 11 30.0000000  0  8G09G08G18G29G10G28G26G17
  22247137.74709 -14612155.00009 -11361454.57409  22247138.28509  22247136.90709
  24017743.50708  -7839527.98808  -6068311.77908  24017743.67308  24017742.65708
  23497327.49808 -10477511.56708  -8079624.58508  23497325.91608  23497326.56108
  20465843.14109 -23896185.15209 -18568314.14809  20465842.76009  20465842.15409
  24581067.41707  -2303174.52607  -1738299.00006  24581067.22106  24581065.82506
  21847674.51509 -17981590.65509 -13950551.81909  21847672.91309  21847672.99109
  20100914.93409 -24805370.80809 -19290970.48409  20100914.76809  20100914.21209
  23284524.25209 -10378869.75509  -8037149.49009  23284524.29109  23284523.80309
 07  1 15  2 12  0.0000000  0  8G09G08G18G29G10G28G26G17
  22229784.88309 -14703344.01609 -11432510.93309  22229785.20509  22229784.24809
  24035843.76308  -7744410.49608  -5994194.29908  24035844.57308  24035843.04008
  23487376.17608 -10529807.56908  -8120374.72008  23487374.36908  23487374.66208
  20470154.50609 -23873528.62009 -18550659.70509  20470154.06609  20470153.51909
  24602190.71108  -2192171.06508  -1651802.80007  24602191.24907  24602188.70907
  21858988.04109 -17922136.68209 -13904224.03809  21858986.44909  21858986.78109
  20102762.01409 -24795663.71309 -19283406.51309  20102762.00409  20102761.31009
  23268792.72809 -10461540.50809  -8101568.22909  23268792.11309  23268792.46509
 07  1 15  2 12 30.0000000  0  8G09G08G18G29G10G28G26G17
  22212472.92809 -14794319.67109 -11503401.03409  22212473.23109  22212472.09809
  24053960.31208  -7649207.14208  -5920009.89608  24053960.34108  24053959.94108
  23477522.77308 -10581587.00708  -8160722.34008  23477521.46408  23477521.55208
  20474555.41809 -23850402.02209 -18532638.97909  20474554.94909  20474554.43109
  24623315.81308  -2081158.20008  -1565299.27407  24623315.88107  24623314.69007
  21870373.58109 -17862306.73309 -13857603.29309  21870371.54909  21870371.98809
  20104713.33109 -24785409.35109 -19275416.10109  20104713.26309  20104712.67709
  23253118.57409 -10543909.23809  -8165751.64809  23253117.55809  23253118.13509
 07  1 15  2 13  0.0000000  0  8G09G08G18G29G10G28G26G17
  22195201.70809 -14885080.30209 -11574123.57709  22195201.98109  22195200.94609
  24072093.36908  -7553918.25208  -5845758.84808  24072093.47708  24072092.82208
  23467767.79608 -10632848.09908  -8200666.03608  23467766.62408  23467766.86808
  20479045.70209 -23826805.24009 -18514251.87009  20479045.24209  20479044.86109
  24644442.49707  -1970138.61807  -1478790.49007  24644442.67307  24644440.32907
  21881829.64809 -17802102.64709 -13810691.00909  21881828.25109  21881828.56309
  20106768.79009 -24774607.71609 -19266999.24409  20106768.78009  20106768.07709
  23237502.23009 -10625972.99009  -8229697.45209  23237501.67309  23237501.75109
 07  1 15  2 13 30.0000000  0  8G09G08G18G29G10G28G26G17
  22177971.53409 -14975624.71609 -11644677.63709  22177971.96409  22177970.64509
  24090242.30108  -7458544.77208  -5771441.88407  24090242.40807  24090241.87107
  23458112.27108 -10683588.86008  -8240204.28708  23458110.77708  23458110.95208
  20483625.51209 -23802738.10009 -18495498.25509  20483625.04409  20483624.72109
  24665567.80407  -1859114.84107  -1392278.50106  24665569.65006  24665567.51106
  21893357.20009 -17741526.26909 -13763488.62709  21893355.47109  21893355.60809
  20108928.52709 -24763258.39509 -19258155.61909  20108928.41909  20108927.76509
  23221944.65209 -10707728.87409  -8293403.33609  23221944.28109  23221944.38809
 07  1 15  2 14  0.0000000  0  8G09G08G18G29G10G28G26G17
  22160782.83709 -15065952.01409 -11715062.52909  22160783.10109  22160781.93909
  24108407.36008  -7363087.42408  -5697059.53408  24108407.89708  24108406.53008
  23448555.56408 -10733807.88408  -8279335.99608  23448554.84108  23448554.45008
  20488294.90009 -23778200.52809 -18476378.07109  20488294.43109  20488294.14709
  24686697.05708  -1748089.46508  -1305765.17807  24686696.72507  24686694.77107
  21904954.74309 -17680579.77809 -13715997.84809  21904953.25809  21904953.20009
  20111192.42409 -24751361.08809 -19248884.99209  20111192.39409  20111191.71109
  23206445.98809 -10789173.69509  -8356866.82409  23206445.46009  23206445.54809
 07  1 15  2 14 30.0000000  0  8G09G08G18G29G10G28G26G17
  22143635.89109 -15156060.94709 -11785277.26609  22143636.21309  22143634.88509
  24126588.30208  -7267547.30808  -5622612.71207  24126588.47807  24126587.00307
  23439099.40208 -10783503.44308  -8318059.80208  23439097.95608  23439097.71208
  20493053.69709 -23753192.55809 -18456891.33909  20493053.21809  20493052.89609
  24707823.83907  -1637065.18907  -1219252.77606  24707824.70906  24707822.00306
  21916622.44309 -17619264.90209 -13668220.01609  21916621.22209  21916620.86009
  20113560.78409 -24738915.64609 -19239187.24109  20113560.71609  20113560.04209
  23191007.28209 -10870304.63709  -8420085.72209  23191007.35009  23191006.80309
 07  1 15  2 15  0.0000000  0  8G09G08G18G29G10G28G26G17
  22126530.39209 -15245950.25109 -11855320.85309  22126530.77309  22126529.25809
  24144784.09308  -7171925.13208  -5548101.92207  24144785.08907  24144782.88107
  23429742.23408 -10832673.75508  -8356374.32308  23429740.97408  23429741.07108
  20497902.13909 -23727714.03709 -18437037.94809  20497901.65109  20497901.24009
  24728950.31807  -1526045.00007  -1132743.47507  24728950.52307  24728948.60907
  21928360.06509 -17557583.51909 -13620156.59109  21928358.66809  21928358.37509
  20116033.35409 -24725921.85609 -19229062.20709  20116033.35409  20116032.72909
  23175628.97409 -10951118.71309  -8483057.72109  23175628.65209  23175627.76309
 07  1 15  2 15 30.0000000  0  8G09G08G18G29G10G28G26G17
  22109467.02309 -15335618.81509 -11925192.43309  22109467.48309  22109465.74409
  24162996.45008  -7076221.61808  -5473527.77107  24162996.65507  24162994.15507
  23420485.87608 -10881317.38508  -8394278.44608  23420484.64508  23420484.54708
  20502839.81609 -23701764.98009 -18416817.90209  20502839.58109  20502839.07309
  24750074.49207  -1415031.48007  -1046239.45906  24750075.80106  24750073.35906
  21940166.72009 -17495538.00409 -13571809.43409  21940165.62609  21940165.43109
  20118610.42609 -24712379.73909 -19218509.90309  20118610.34809  20118609.73309
  23160311.39609 -11031612.79909  -8545780.37909  23160311.04509  23160311.08409
 07  1 15  2 16  0.0000000  0  8G09G08G18G29G10G28G26G17
  22092445.90409 -15425065.38709 -11994891.03009  22092446.26509  22092444.53609
  24181223.07008  -6980437.42608  -5398890.70307  24181223.46107  24181221.24307
  23411329.95608 -10929432.52708  -8431770.76908  23411328.86208  23411328.78408
  20507867.49809 -23675345.44709 -18396231.25409  20507867.13709  20507866.40409
  24771198.21607  -1304027.43407   -959742.79106  24771199.57406  24771196.46806
  21952042.52609 -17433130.24509 -13523180.00509  21952041.49109  21952041.15909
  20121291.81509 -24698289.07809 -19207530.16409  20121291.68809  20121291.10209
  23145055.14509 -11111784.41709  -8608251.75909  23145054.93009  23145054.80309
 07  1 15  2 16 30.0000000  0  8G09G08G18G29G10G28G26G17
  22075467.26709 -15514288.72709 -12064415.67809  22075467.61809  22075465.76209
  24199465.11407  -6884573.72507  -5324191.71507  24199466.33507  24199463.33607
  23402274.69008 -10977017.52308  -8468849.98909  23402273.37109  23402273.52809
  20512984.30809 -23648455.35609 -18375277.93609  20512984.06409  20512983.40909
  24792320.12407  -1193035.23407   -873255.36107  24792320.36807  24792317.09507
  21963987.19009 -17370362.14109 -13474269.79209  21963986.04709  21963985.90009
  20124077.56009 -24683649.60009 -19196122.77909  20124077.58009  20124076.80809
  23129861.45009 -11191630.37809  -8670469.40009  23129860.54109  23129860.73709
 07  1 15  2 17  0.0000000  0  8G09G08G18G29G10G28G26G17
  22058531.11309 -15603288.04009 -12133765.75809  22058531.40609  22058530.15509
  24217722.72808  -6788631.36408  -5249431.46407  24217723.10007  24217720.62807
  23393320.77208 -11024070.75308  -8505514.84609  23393319.51109  23393319.70709
  20518190.94809 -23621094.69309 -18353957.94009  20518190.62609  20518189.91209
  24813437.14707  -1082057.41307   -786779.11906  24813438.77806  24813435.59406
  21975999.88009 -17307235.34409 -13425080.07509  21975998.52209  21975998.54209
  20126967.81709 -24668461.16909 -19184287.63909  20126967.82709  20126966.98709
  23114729.41309 -11271147.46009  -8732430.75609  23114728.75909  23114729.08109
 07  1 15  2 17 30.0000000  0  8G09G08G18G29G10G28G26G17
  22041638.17409 -15692061.77109 -12202940.07709  22041638.40809  22041637.07009
  24235994.69307  -6692611.12507  -5174610.46107  24235995.19107  24235992.58307
  23384468.23909 -11070590.65309  -8541764.11209  23384467.18409  23384467.24309
  20523487.00809 -23593263.57609 -18332271.35609  20523486.74409  20523486.01109
  24834553.32007   -971096.87607   -700316.36307  24834553.93607  24834550.66307
  21988080.44209 -17243752.12809 -13375612.62509  21988079.14309  21988079.22109
  20129962.61609 -24652723.67609 -19172024.65209  20129962.67509  20129961.71709
  23099661.03809 -11350332.99509  -8794133.76209  23099661.11609  23099660.59809
 07  1 15  2 18  0.0000000  0  8G09G08G18G29G10G28G26G17
  22024788.13809 -15780608.59709 -12271937.58609  22024788.62609  22024787.23909
  24254281.12408  -6596513.74808  -5099729.40407  24254281.76907  24254279.46407
  23375717.69908 -11116575.87608  -8577596.75109  23375716.37009  23375716.24309
  20528872.62409 -23564961.97409 -18310218.16009  20528872.44909  20528871.55009
  24855664.53107   -860156.09207   -613868.97206  24855663.89606  24855660.71206
  22000228.26909 -17179914.46509 -13325868.98409  22000227.12609  22000227.16509
  20133061.74109 -24636437.33809 -19159333.99509  20133061.77109  20133060.90109
  23084655.98109 -11429184.00409  -8855576.10409  23084655.65809  23084655.58009
 07  1 15  2 18 30.0000000  0  8G09G08G18G29G10G28G26G17
  22007981.67909 -15868927.49209 -12340757.48409  22007981.80609  22007980.95609
  24272582.23808  -6500339.77608  -5024788.65007  24272583.30207  24272580.90907
  23367069.37509 -11162024.94109  -8613011.61509  23367067.52909  23367067.45109
  20534347.74909 -23536189.98709 -18287798.43109  20534347.50509  20534346.71409
  24876770.74107   -749238.17707   -527439.38207  24876771.96207  24876768.51407
  22012443.15509 -17115724.45109 -13275850.78109  22012441.89509  22012442.14009
  20136265.44709 -24619601.77409 -19146215.37409  20136265.47609  20136264.65609
  23069715.52209 -11507697.64309  -8916755.56209  23069715.11209  23069715.02409
 07  1 15  2 19  0.0000000  0  8G09G08G18G29G10G28G26G17
  21991218.77709 -15957017.47209 -12409399.00709  21991218.89509  21991217.65409
  24290898.15008  -6404090.00008  -4949788.82807  24290899.25407  24290896.81207
  23358522.48709 -11206936.07609  -8648007.30209  23358521.12909  23358521.36309
  20539912.44009 -23506947.56109 -18265012.13009  20539912.24509  20539911.44409
  24897874.08808   -638345.20108   -441029.30706  24897873.88306  24897870.90406
  22024724.79009 -17051184.01309 -13225559.52309  22024723.58809  22024723.80309
  20139573.70409 -24602216.83409 -19132668.66609  20139573.75309  20139572.95209
  23054839.59409 -11585870.76809  -8977669.66809  23054840.05309  23054838.61709
 07  1 15  2 19 30.0000000  0  8G09G08G18G29G10G28G26G17
  21974499.63809 -16044877.18009 -12477861.09809  21974499.60909  21974498.68109
  24309227.99207  -6307765.71607  -4874730.99407  24309229.00807  24309226.58607
  23350079.00608 -11251307.93808  -8682582.77309  23350077.38509  23350077.60009
  20545566.58109 -23477234.79809 -18241859.33409  20545566.39509  20545565.62309
  24918969.77707   -527480.16407   -354640.87406  24918970.94006  24918968.60506
  22037072.50809 -16986295.12509 -13174996.74809  22037071.44309  22037071.69709
  20142986.54209 -24584282.84909 -19118694.13209  20142986.46409  20142985.77009
  23040028.98709 -11663700.43509  -9038316.12609  23040028.96709  23040028.50809
 07  1 15  2 20  0.0000000  0  8G09G08G18G29G10G28G26G17
  21957824.64309 -16132504.99409 -12546142.49209  21957824.85709  21957823.23609
  24327570.89507  -6211367.40207  -4799615.39306  24327571.94006  24327570.62206
  23341738.21209 -11295138.81809  -8716736.70609  23341736.86409  23341736.86409
  20551310.30709 -23447051.89609 -18218340.19609  20551310.06309  20551309.30109
  24940061.42207   -416645.59307   -268276.32206  24940062.41906  24940059.42006
  22049486.26009 -16921059.82309 -13124164.04409  22049485.16609  22049485.44909
  20146503.58909 -24565799.74309 -19104291.71509  20146503.68709  20146502.99309
  23025283.88709 -11741184.05309  -9098692.94309  23025284.27709  23025283.61309
 07  1 15  2 20 30.0000000  0  8G09G08G18G29G10G28G26G17
  21941193.65409 -16219900.18109 -12614242.61709  21941194.04409  21941192.39309
  24345929.57408  -6114895.97908  -4724442.87307  24345930.32607  24345929.00707
  23333500.82508 -11338427.41408  -8750468.07709  23333499.41909  23333499.29209
  20557143.40509 -23416399.00509 -18194454.82909  20557142.95609  20557142.43809
  24961145.73107   -305844.09007   -181937.41806  24961146.77606  24961144.87106
  22061965.75309 -16855480.07409 -13073062.93409  22061964.89409  22061964.92309
  20150125.34409 -24546767.27309 -19089461.22309  20150125.39309  20150124.66009
  23010605.83709 -11818318.74409  -9158797.87709  23010606.12009  23010605.08509
 07  1 15  2 21  0.0000000  0  8G09G08G18G29G10G28G26G17
  21924607.35509 -16307060.99309 -12682160.11009  21924608.05809  21924606.46609
  24364301.20507  -6018352.04907  -4649213.86006  24364301.60606  24364300.64806
  23325366.47608 -11381172.10408  -8783775.63209  23325365.75309  23325365.18709
  20563065.83509 -23385276.13009 -18170203.24109  20563065.50309  20563064.96509
  24982223.49507   -195078.12907    -95626.31406  24982225.41906  24982222.75306
  22074510.43209 -16789557.52509 -13021694.71809  22074509.17109  22074509.41609
  20153851.64009 -24527185.66109 -19074202.82609  20153851.66009  20153850.81009
  22995994.83709 -11895101.43009  -9218628.54009  22995994.54409  22995993.59709
 07  1 15  2 21 30.0000000  0  8G09G08G18G29G10G28G26G17
  21908066.03009 -16393986.94809 -12749894.60409  21908066.41109  21908064.88709
  24382686.80608  -5921736.47108  -4573929.00307  24382686.72707  24382686.40507
  23317336.32708 -11423371.69708  -8816658.42009  23317334.98809  23317335.17409
  20569077.72409 -23353683.27809 -18145585.43909  20569077.44009  20569076.96209
  25003294.91907    -84350.35807     -9344.89106  25003294.73406  25003292.99506
  22087119.98209 -16723294.39209 -12970061.11009  22087118.91709  22087118.84909
  20157682.38009 -24507054.82909 -19058516.46409  20157682.42909  20157681.58909
  22981451.17209 -11971529.08309  -9278182.55209  22981450.98609  22981449.84309
 07  1 15  2 22  0.0000000  0  8G09G08G18G29G10G28G26G17
  21891569.52309 -16480676.50709 -12817444.89509  21891570.14809  21891568.41909
  24401086.42407  -5825049.88607  -4498588.80406  24401085.24206  24401084.87006
  23309410.06408 -11465024.62508  -8849115.25309  23309408.44209  23309408.72609
  20575179.03309 -23321620.91009 -18120601.78109  20575178.67109  20575178.25109
  25024357.50307     26336.35607     76904.49606  25024358.16706  25024356.85806
  22099793.82809 -16656693.12509 -12918164.01409  22099792.43109  22099792.84109
  20161617.64209 -24486375.05409 -19042402.35309  20161617.67109  20161616.69509
  22966975.16209 -12047599.08909  -9337457.87009  22966976.07009  22966974.31209
 07  1 15  2 22 30.0000000  0  8G09G08G18G29G10G28G26G17
  21875118.26309 -16567128.29209 -12884809.91009  21875118.51709  21875117.23709
  24419497.33407  -5728293.45107  -4423194.13607  24419497.75407  24419497.21707
  23301588.13808 -11506129.59208  -8881145.09908  23301586.09608  23301587.08308
  20581369.63409 -23289089.09109 -18095252.31809  20581369.32209  20581368.68709
  25045412.72207    136979.78807    163120.15306  25045412.50706  25045410.63106
  22112531.69609 -16589755.26709 -12866004.63909  22112530.54309  22112530.74809
  20165657.32809 -24465146.26009 -19025860.43809  20165657.38709  20165656.46909
  22952568.49809 -12123308.44009  -9396452.16009  22952568.00009  22952567.47209
 07  1 15  2 23  0.0000000  0  8G09G08G18G29G10G28G26G17
  21858712.32809 -16653341.24409 -12951988.82009  21858712.65009  21858711.67309
  24437924.17708  -5631467.63108  -4347745.52107  24437923.72707  24437922.89707
  23293870.51908 -11546685.34008  -8912746.97909  23293868.89709  23293869.30809
  20587649.48109 -23256087.87109 -18069537.08709  20587649.28509  20587648.71909
  25066458.77707    247577.17407    249299.98606  25066457.65406  25066457.46806
  22125333.04809 -16522483.11909 -12813584.78209  22125332.02309  22125332.18909
  20169801.56609 -24443368.45309 -19008890.71909  20169801.56609  20169800.59909
  22938230.48709 -12198654.41709  -9455163.29909  22938230.59409  22938229.53909
 07  1 15  2 23 30.0000000  0  8G09G08G18G29G10G28G26G17
  21842352.47109 -16739314.18009 -13018980.70209  21842352.69609  21842351.66009
  24456360.56307  -5534573.34507  -4272243.45206  24456362.15506  24456361.41306
  23286257.93909 -11586690.41109  -8943919.76408  23286256.29808  23286256.57208
  20594018.59009 -23222617.60109 -18043456.36009  20594018.49309  20594017.67209
  25087495.80707    358125.92707    335441.85106  25087495.58206  25087494.28306
  22138198.07209 -16454878.53309 -12760905.88709  22138196.77309  22138196.85109
  20174050.12009 -24421041.82709 -18991493.34509  20174050.18909  20174049.24109
  22923962.39809 -12273634.23409  -9513589.12309  22923962.68109  22923961.38209
 07  1 15  2 24  0.0000000  0  9G09G08G18G29G10G28G26G17G22
  21826038.30109 -16825045.84309 -13085784.57309  21826038.32009  21826037.45109
  24474814.61008  -5437611.42708  -4196688.80207  24474813.94607  24474812.48107
  23278750.21408 -11626143.27308  -8974662.26409  23278748.53409  23278748.94409
  20600477.09109 -23188678.39709 -18017010.23309  20600476.99309  20600476.16309
  25108522.11107    468623.61307    421543.94206  25108522.73606  25108520.82206
  22151125.39809 -16386943.65409 -12707969.61709  22151124.22609  22151124.56809
  20178403.06009 -24398166.50509 -18973668.42009  20178403.27509  20178402.27809
  22909764.26009 -12348244.87409  -9571727.25209  22909763.71309  22909763.84009
  25327833.16908    -50347.15108    -16141.69907  25327829.69107  25327831.70407
 07  1 15  2 24 30.0000000  0  9G09G08G18G29G10G28G26G17G22
  21809770.01309 -16910535.06209 -13152399.53309  21809770.30609  21809769.37809
  24493275.90607  -5340582.89907  -4121082.15106  24493277.00006  24493276.68806
  23271347.72409 -11665042.88209  -9004973.64708  23271346.36608  23271346.43408
  20607024.59109 -23154270.62809 -17990198.99309  20607024.51309  20607023.71209
  25129538.63707    579067.23807    507603.96406  25129538.01206  25129536.56606
  22164115.24209 -16318680.37609 -12654777.45009  22164114.49009  22164114.16809
  20182860.45309 -24374742.74109 -18955416.13609  20182860.61909  20182859.75909
  22895636.92409 -12422483.54909  -9629575.56409  22895637.19709  22895636.38709
  25312513.94008   -130846.83508    -78868.72107  25312511.34207  25312513.12007
 07  1 15  2 25  0.0000000  0  9G09G08G18G29G10G28G26G17G22
  21793548.33909 -16995780.63009 -13218824.64009  21793548.61309  21793547.66509
  24511754.16007  -5243487.93007  -4045423.74707  24511753.60307  24511752.72407
  23264050.98608 -11703387.73408  -9034852.75508  23264049.66808  23264049.75608
  20613661.29709 -23119394.51209 -17963022.80709  20613661.30709  20613660.33009
  25150545.04307    689454.19707    593619.70306  25150544.30006  25150542.57106
  22177167.36009 -16250090.78409 -12601331.01409  22177166.61709  22177166.45109
  20187422.27109 -24350770.55309 -18936736.51109  20187422.35809  20187421.48909
  22881581.18009 -12496347.45609  -9687131.85209  22881581.39509  22881580.79009
  25297259.49607   -211010.61407   -141334.02007  25297256.35007  25297258.80207
 07  1 15  2 25 30.0000000  0  9G09G08G18G29G10G28G26G17G22
  21777373.34009 -17080781.52309 -13285059.09709  21777373.07609  21777372.44109
  24530242.79707  -5146327.42307  -3969714.34006  24530243.10006  24530241.23506
  23256859.86509 -11741176.89909  -9064298.86108  23256858.35108  23256858.75108
  20620387.13909 -23084050.08409 -17935481.70609  20620387.09009  20620386.16209
  25171540.05907    799782.23807    679589.69806  25171539.77506  25171537.41106
  22190281.41909 -16181176.80009 -12547631.80809  22190280.27609  22190280.29609
  20192088.37609 -24326250.17309 -18917629.72409  20192088.49309  20192087.56509
  22867597.43009 -12569833.87409  -9744393.99309  22867597.26409  22867596.80509
  25282069.12207   -290835.99907   -203535.63907  25282066.34807  25282069.07407
 07  1 15  2 26  0.0000000  0  9G09G08G18G29G10G28G26G17G22
  21761245.17009 -17165536.17409 -13351101.67109  21761245.08209  21761244.15409
  24548744.61307  -5049102.37107  -3893954.53007  24548744.08507  24548742.67807
  23249774.64308 -11778408.98408  -9093310.87709  23249773.23609  23249773.96909
  20627201.98209 -23048237.85909 -17907576.08509  20627201.97209  20627200.89709
  25192522.58107    910048.59407    765511.52306  25192523.33306  25192520.24606
  22203456.65809 -16111940.59709 -12493681.52109  22203455.82709  22203455.63209
  20196858.71909 -24301181.87309 -18898095.98609  20196858.83609  20196857.86909
  22853685.89709 -12642939.96609  -9801359.76709  22853685.93709  22853685.14509
  25266943.84607   -370320.67607   -265471.75607  25266940.81707  25266943.39607
 07  1 15  2 26 30.0000000  0  9G09G08G18G29G10G28G26G17G22
  21745163.73209 -17250043.28909 -13416951.35609  21745163.82009  21745162.72609
  24567257.03607  -4951813.12207  -3818144.73606  24567258.09106  24567256.00106
  23242796.44409 -11815082.47209  -9121887.62008  23242794.71508  23242794.98808
  20634105.84309 -23011957.85109 -17879305.95209  20634105.64809  20634104.80809
  25213493.68307   1020251.06807    851383.58206  25213495.15806  25213491.53406
  22216692.90009 -16042383.78109 -12439481.40609  22216692.27509  22216691.74709
  20201733.25309 -24275565.68009 -18878135.32009  20201733.42909  20201732.45209
  22839847.09109 -12715662.56009  -9858026.70509  22839847.41309  22839846.39709
  25251884.15408   -449462.19408   -327140.49007  25251881.10607  25251883.26507
 07  1 15  2 27  0.0000000  0  9G09G08G18G29G10G28G26G17G22
  21729129.88509 -17334301.69609 -13482607.24309  21729130.12009  21729128.80109
  24585783.70207  -4854460.94207  -3742285.94206  24585783.02806  24585781.39706
  23235923.76308 -11851196.74608  -9150028.61908  23235922.44408  23235922.62008
  20641098.68609 -22975210.63009 -17850671.75609  20641098.40209  20641097.56209
  25234451.99907   1130386.86307    937203.72006  25234452.79006  25234449.81106
  22229989.73609 -15972508.83909 -12385033.40609  22229988.85709  22229988.52509
  20206712.06409 -24249402.02209 -18857748.05509  20206712.21109  20206711.30209
  22826081.86009 -12787999.40909  -9914393.07609  22826081.42009  22826081.36209
  25236889.76407   -528258.23507   -388540.01507  25236886.99007  25236888.76807
 07  1 15  2 27 30.0000000  0  9G09G08G18G29G10G28G26G17G22
  21713143.78709 -17418310.05709 -13548068.29009  21713143.89509  21713142.53709
  24604319.73607  -4757046.36407  -3666378.46106  24604320.84006  24604318.63206
  23229158.31908 -11886750.15708  -9177732.58408  23229156.78508  23229157.00008
  20648180.25409 -22937996.38009 -17821673.64009  20648180.04909  20648179.39509
  25255396.55107   1240453.70107   1022970.00506  25255397.51806  25255394.76406
  22243346.59909 -15902317.60509 -12330338.93509  22243345.80709  22243345.63209
  20211795.05509 -24222691.05409 -18836934.31209  20211795.16309  20211794.17609
  22812390.62409 -12859947.43809  -9970456.46909  22812390.22409  22812390.08709
  25221961.30107   -606706.20107   -449668.32807  25221958.83007  25221960.18807
 07  1 15  2 28  0.0000000  0  9G09G08G18G29G10G28G26G17G22
  21697205.24209 -17502067.43409 -13613333.76709  21697205.21209  21697203.89409
  24622869.59207  -4659570.37407  -3590423.29106  24622869.95406  24622868.09806
  23222499.76208 -11921741.68208  -9204998.70708  23222498.07208  23222498.64808
  20655350.70609 -22900315.60409 -17792311.99809  20655350.26609  20655349.85609
  25276328.19907   1350448.70507   1108680.51606  25276328.92206  25276326.34306
  22256763.43009 -15831812.24509 -12275399.69109  22256762.36509  22256762.29609
  20216981.93409 -24195433.29109 -18815694.49709  20216982.11009  20216981.24009
  22798773.64809 -12931504.04509 -10026214.84709  22798774.12709  22798772.78909
  25207099.51707   -684804.38507   -510524.04707  25207097.41707  25207098.58007
 07  1 15  2 28 30.0000000  0  9G09G08G18G29G10G28G26G17G22
  21681314.20909 -17585572.59809 -13678402.70709  21681314.83509  21681313.49609
  24641430.47707  -4562033.23607  -3514420.26406  24641429.16806  24641427.69306
  23215947.95308 -11956170.60708  -9231826.43909  23215946.66409  23215946.85909
  20662609.85409 -22862168.62109 -17762587.07709  20662609.56109  20662608.97509
  25297244.83407   1460369.47807   1194333.00806  25297246.21106  25297243.73006
  22270239.65209 -15760994.73309 -12220217.21709  22270238.88109  22270238.50009
  20222273.03109 -24167628.84309 -18794028.69809  20222273.07109  20222272.23009
  22785231.89909 -13002666.49709 -10081666.09509  22785231.56709  22785231.31309
  25192305.08707   -762550.26107   -571105.25507  25192302.92807  25192304.18807
 07  1 15  2 29  0.0000000  0  9G09G08G18G29G10G28G26G17G22
  21665472.29309 -17668824.34409 -13743274.18409  21665472.48809  21665471.17009
  24660002.65407  -4464435.83807  -3438370.42306  24660001.33506  24660000.21206
  23209504.11509 -11990035.56909  -9258214.72909  23209502.29809  23209502.61109
  20669957.71009 -22823555.55109 -17732498.97209  20669957.30009  20669956.87009
  25318148.02607   1570213.55507   1279925.79506  25318149.36506  25318147.32306
  22283774.76909 -15689867.02509 -12164793.03909  22283773.66509  22283773.58709
  20227667.98709 -24139278.01809 -18771937.14909  20227668.10409  20227667.35209
  22771765.64009 -13073432.02509 -10136808.07309  22771765.35709  22771765.30809
  25177578.29307   -839941.04107   -631409.78807  25177575.64607  25177577.29607
 07  1 15  2 29 30.0000000  0 10G09G08G18G29G10G28G26G17G22G12
  21649678.73009 -17751821.09009 -13807946.95709  21649678.66209  21649677.62609
  24678586.02507  -4366779.16107  -3362274.33805  24678585.15605  24678584.10105
  23203167.20208 -12023334.94008  -9284162.29109  23203165.48309  23203166.24509
  20677394.23309 -22784476.76809 -17702047.97209  20677393.87209  20677393.20809
  25339035.79507   1679978.64307   1365457.13106  25339037.04506  25339033.67506
  22297368.45709 -15618431.05109 -12109128.64709  22297367.47109  22297367.38309
  20233166.99509 -24110381.09309 -18749420.06809  20233166.95609  20233166.20409
  22758375.57409 -13143797.55409 -10191638.36309  22758375.98509  22758375.13509
  25162919.16407   -916974.42307   -691435.79507  25162916.66407  25162918.11907
  25182306.27107    -23647.81207                                                
 07  1 15  2 30  0.0000000  0 10G09G08G18G29G10G28G26G17G22G12
  21633933.57909 -17834561.71409 -13872420.16009  21633933.81409  21633932.67109
  24697180.80607  -4269063.47107  -3286132.24906  24697180.40606  24697178.64806
  23196938.26909 -12056068.04709  -9309668.60809  23196936.71609  23196936.94009
  20684919.11209 -22744932.87509 -17671234.55209  20684918.85809  20684918.15509
  25359908.04107   1789661.97607   1450924.58906  25359909.50606  25359906.43906
  22311020.61909 -15546688.85109 -12053225.63909  22311019.82809  22311019.38809
  20238769.87109 -24080938.44909 -18726477.74909  20238769.73409  20238769.00209
  22745062.01509 -13213760.79709 -10246155.16109  22745062.28909  22745061.72209
  25148328.54207   -993648.17607   -751181.60407  25148325.88507  25148327.40907
  25161218.86507   -134455.54907    -73964.81906  25161220.12606  25161217.71306
 07  1 15  2 30 30.0000000  0 10G09G08G18G29G10G28G26G17G22G12
  21618237.48609 -17917044.92609 -13936692.78209  21618237.57309  21618236.64509
  24715784.74007  -4171289.68007  -3209944.90506  24715785.88306  24715783.95906
  23190817.13009 -12088233.57009  -9334732.65609  23190815.70409  23190816.09509
  20692532.35509 -22704924.12909 -17640058.91409  20692532.33609  20692531.54509
  25380764.53107   1899261.39407                                                
  22324730.76609 -15474642.59709 -11997085.70609  22324729.53509  22324729.52509
  20244476.28209 -24050950.34809 -18703110.40009  20244476.31109  20244475.67709
  22731825.54809 -13283318.77709 -10300356.16009  22731825.68509  22731824.75709
  25133807.42207  -1069960.37707   -810645.67206  25133804.39406  25133805.78106
  25140146.56207   -245193.69107   -160254.26907  25140146.93307  25140146.47407
 07  1 15  2 31  0.0000000  0  9G09G08G18G29G28G26G17G22G12
  21602590.60509 -17999269.56509 -14000763.91309  21602590.83009  21602589.75509
  24734403.16107  -4073458.97607  -3133713.21306  24734401.62706  24734400.94406
  23184804.44009 -12119831.03909  -9359354.06009  23184803.03309  23184803.38509
  20700234.17909 -22664450.96309 -17608521.38809  20700234.13009  20700233.23209
  22338497.78409 -15402294.39809 -11940710.48409  22338496.84709  22338496.97409
  20250286.54109 -24020417.39609 -18679318.49509  20250286.55109  20250285.87709
  22718666.68109 -13352469.07009 -10354239.48209  22718666.82809  22718665.63609
  25119354.55307  -1145908.29307   -869825.85707  25119352.20907  25119353.66407
  25119087.70007   -355860.82607   -246488.38306  25119087.34806  25119086.86006
 07  1 15  2 31 30.0000000  0  9G09G08G18G29G28G26G17G22G12
  21586993.18209 -18081234.68809 -14064632.83109  21586993.38709  21586992.31309
  24753030.35407  -3975571.96307  -3057437.69506  24753029.60206  24753028.02906
  23178899.92609 -12150859.36409  -9383531.97009  23178898.43109  23178898.92909
  20708024.26009 -22623513.92409 -17576622.40409  20708024.26009  20708023.34209
  22352322.43709 -15329646.28909 -11884101.57509  22352321.38209  22352321.24509
  20256200.50209 -23989339.77909 -18655102.17409  20256200.41409  20256199.80809
  22705585.70809 -13421208.72109 -10407802.82709  22705585.72709  22705585.13109
  25104972.01707  -1221489.54107   -928720.34607  25104969.43907  25104971.66607
  25098042.03507   -466454.93707   -332665.65606  25098041.06806  25098040.86306
 07  1 15  2 32  0.0000000  0  9G09G08G18G29G28G26G17G22G12
  21571445.43109 -18162938.95109 -14128298.48209  21571445.52909  21571444.44509
  24771667.34407  -3877628.76207  -2981118.35406  24771668.08606  24771665.71306
  23173104.23109 -12181317.29509  -9407265.42009  23173102.35609  23173102.95109
  20715902.50109 -22582113.38909 -17544362.25509  20715902.44309  20715901.61209
  22366203.63809 -15256700.43909 -11827260.65409  22366202.59309  22366202.78809
  20262217.76309 -23957717.96109 -18630461.79909  20262217.88109  20262217.23609
  22692583.65309 -13489535.24609 -10461044.27109  22692584.34709  22692582.03109
  25090659.73607  -1296702.04207   -987327.50607  25090656.77607  25090658.91507
  25077010.41707   -576974.53407   -418784.81906  25077009.88906  25077009.75306
 07  1 15  2 32 30.0000000  0  9G09G08G18G29G28G26G17G22G12
  21555947.54809 -18244380.71409 -14191759.58109  21555947.39209  21555946.66909
  24790317.05307  -3779630.40307  -2904755.95006  24790316.60406  24790314.76706
  23167417.03409 -12211203.53209  -9430553.39609  23167415.35409  23167415.71609
  20723868.98009 -22540249.76709 -17511741.25409  20723868.88309  20723868.01309
  22380141.18409 -15183458.47309 -11770188.98909  22380139.89509  22380140.22709
  20268338.75609 -23925552.39809 -18605397.72509  20268338.75609  20268338.05209
  22679660.88909 -13557445.81909 -10513961.58109  22679660.50809  22679659.74609
  25076417.30807  -1371543.37707  -1045645.43906  25076414.66106  25076416.62506
  25055993.69607   -687417.54007   -504844.32606  25055993.44206  25055993.46106
 07  1 15  2 33  0.0000000  0  9G09G08G18G29G28G26G17G22G12
  21540499.88509 -18325558.83009 -14255015.24409  21540499.96309  21540499.01509
  24808974.86907  -3681578.00407  -2828351.59606  24808975.78806  24808973.59006
  23161838.34509 -12240517.84109  -9453395.71109  23161837.43709  23161837.23109
  20731923.40409 -22497923.53609 -17478759.77909  20731923.28709  20731922.44709
  22394134.68309 -15109922.46009 -11712888.18809  22394133.33509  22394133.63809
  20274562.92209 -23892843.58609 -18579910.33609  20274563.01009  20274562.25809
  22666817.44409 -13624937.76509 -10566552.71809  22666817.21909  22666816.68209
  25062245.90707  -1446011.29907  -1103672.40206  25062244.13906  25062245.30106
  25034991.77407   -797782.66707   -590843.11306  25034992.25206  25034991.10006
 07  1 15  2 33 30.0000000  0  9G09G08G18G29G28G26G17G22G12
  21525102.44109 -18406472.38509 -14318064.76209  21525102.56809  21525101.57109
  24827644.53507  -3583472.21307  -2751905.46705  24827645.26805  24827641.38005
  23156369.17909 -12269259.10909  -9475791.50009  23156368.07509  23156367.89009
  20740065.72409 -22455135.41809 -17445418.39309  20740065.51009  20740064.81609
  22408183.55009 -15036094.80509 -11655360.14809  22408182.23109  22408182.29909
  20280890.41809 -23859592.10509 -18554000.09009  20280890.54509  20280889.73409
  22654054.35409 -13692008.77509 -10618815.85509  22654054.63709  22654053.30809
  25048147.35807  -1520103.75807  -1161406.79306  25048144.79906  25048146.04006
  25014005.24707   -908068.28107   -676779.92407  25014005.17807  25014004.36707
 07  1 15  2 34  0.0000000  0  9G09G08G18G29G28G26G17G22G12
  21509755.77309 -18487119.67309 -14380906.79209  21509755.82109  21509754.86409
  24846322.99207  -3485313.32507  -2675418.01106  24846324.11606  24846321.16606
  23151009.29309 -12297426.14309  -9497739.84009  23151008.12009  23151008.07109
  20748295.95109 -22411885.53409 -17411717.18609  20748295.73609  20748294.98409
  22422287.63709 -14961977.09109 -11597606.09009  22422286.38709  22422286.73909
  20287321.12809 -23825798.08109 -18527667.08009  20287321.31309  20287320.51209
  22641371.93109 -13758655.80909 -10670748.61309  22641371.94109  22641371.43309
  25034120.07007  -1593817.94407  -1218846.42606  25034117.35506  25034119.20106
  24993034.85707  -1018272.15807   -762653.10807  24993033.57707  24993034.13407
 07  1 15  2 34 30.0000000  0  9G09G08G18G29G28G26G17G22G12
  21494459.90009 -18567499.79109 -14443540.63409  21494460.06609  21494458.92309
  24865010.04606  -3387102.35706  -2598889.95105  24865012.22405  24865010.90505
  23145758.50908 -12325018.44708  -9519240.32609  23145757.37609  23145757.48309
  20756613.79909 -22368174.74209 -17377656.83109  20756613.66309  20756612.84209
  22436446.51609 -14887571.72409 -11539627.88209  22436445.38209  22436445.60709
  20293855.09909 -23791462.37309 -18500911.98409  20293855.06009  20293854.41509
  22628770.93809 -13824876.40509 -10722349.07209  22628770.41109  22628770.32309
  25020164.95107  -1667152.22607  -1275990.03906  25020162.86106  25020163.76906
  24972079.14907  -1128393.21907   -848461.73906  24972078.07506  24972078.78806
 07  1 15  2 35  0.0000000  0  9G09G08G18G29G28G26G17G22G12
  21479215.35109 -18647611.47109 -14505965.30509  21479215.15609  21479214.16009
  24883711.35107  -3288840.14507  -2522321.99806  24883710.63806  24883708.53806
  23140617.81609 -12352035.03709  -9540292.21409  23140616.18409  23140616.28209
  20765019.39809 -22324003.37409 -17343237.58709  20765019.21209  20765018.28409
  22450659.87209 -14812880.56609 -11481426.98709  22450658.77809  22450658.67109
  20300491.95109 -23756585.40409 -18473735.12809  20300491.95109  20300491.28709
  22616251.34509 -13890667.89309 -10773615.17209  22616251.00309  22616250.59309
  25006283.30007  -1740103.78807  -1332835.42406  25006281.07306  25006281.53206
  24951140.15507  -1238429.70207   -934204.45506  24951139.08106  24951139.23706
 07  1 15  2 35 30.0000000  0  9G09G08G18G29G28G26G17G22G12
  21464021.99809 -18727453.29009 -14568179.69509  21464021.76409  21464020.92409
  24902418.76207  -3190526.63207  -2445714.08506  24902419.92506  24902418.08806
  23135586.20609 -12378475.16009  -9560894.90009  23135584.84809  23135584.80009
  20773512.40409 -22279372.05709 -17308459.93509  20773512.41309  20773511.32909
  22464927.21909 -14737905.49309 -11423004.85409  22464925.76409  22464926.00809
  20307231.67409 -23721167.66909 -18446136.89309  20307231.71309  20307231.07809
  22603813.66009 -13956027.99709 -10824545.09309  22603813.30909  22603813.26009
  24992473.67207  -1812670.40107  -1389380.85306  24992472.13806  24992472.96806
  24930217.09407  -1348379.69107  -1019879.76607  24930216.78107  24930217.00607
 07  1 15  2 36  0.0000000  0  9G09G08G18G29G28G26G17G22G12
  21448880.07609 -18807023.74809 -14630182.63009  21448879.92009  21448879.01209
  24921136.94807  -3092163.12107  -2369067.18706  24921137.39706  24921136.27406
  23130664.60908 -12404337.78108  -9581047.58209  23130663.50509  23130663.31909
  20782092.92509 -22234281.24209 -17273324.23309  20782092.72009  20782091.96809
  22479248.00909 -14662648.66009 -11364363.16909  22479246.68009  22479246.95409
  20314074.39609 -23685209.53609 -18418117.57109  20314074.28809  20314073.65309
  22591458.58709 -14020953.62009 -10875136.46309  22591457.99109  22591458.35309
  24978738.77207  -1884850.20407  -1445624.89806  24978736.61306  24978737.90206
  24909311.49807  -1458241.54507  -1105486.40907  24909310.71607  24909311.20507
 07  1 15  2 36 30.0000000  0  9G09G08G18G29G28G26G17G22G12
  21433790.07309 -18886321.91809 -14691973.40309  21433790.04409  21433788.96009
  24939864.14907  -2993750.26007  -2292381.75206  24939865.61406  24939863.29906
  23125853.06208 -12429622.17408  -9600749.70709  23125851.90909  23125851.62609
  20790760.67809 -22188731.50209 -17237830.92509  20790760.52209  20790759.84809
  22493622.09509 -14587112.07509 -11305503.49509  22493620.87409  22493620.98109
  20321019.54809 -23648711.86409 -18389677.82909  20321019.61709  20321018.85509
  22579186.82909 -14085442.53509 -10925387.54409  22579186.31109  22579186.34009
  24965076.76307  -1956640.72507  -1501565.55306  24965075.07306  24965076.29406
  24888422.28407  -1568013.46407  -1191022.95207  24888422.08807  24888422.15707
 07  1 15  2 37  0.0000000  0  9G09G08G18G29G28G26G17G22G12
  21418752.19409 -18965346.70209 -14753551.14109  21418752.14609  21418750.95409
  24958602.12507  -2895288.98107  -2215658.72505  24958601.91005  24958599.01905
  23121151.72208 -12454327.76208  -9620000.81109  23121150.56009  23121150.59909
  20799515.77009 -22142723.70009 -17201980.68809  20799515.40909  20799514.93009
  22508049.08709 -14511297.97809 -11246427.58909  22508047.55309  22508048.16909
  20328067.47509 -23611675.17409 -18360818.07009  20328067.44509  20328066.70309
  22566998.35509 -14149492.12309 -10975296.30309  22566997.76009  22566998.16009
  24951491.18307  -2028039.99707  -1557201.40306  24951488.21306  24951489.57106
  24867550.59407  -1677694.18107  -1276488.43807  24867550.55507  24867550.42807
 07  1 15  2 37 30.0000000  0  9G09G08G18G29G28G26G17G22G12
  21403766.34209 -19044096.74009 -14814914.79009  21403766.77209  21403765.26809
  24977346.46107  -2796779.92307  -2138898.34106  24977348.39506  24977345.56206
  23116560.43308 -12478453.72708  -9638800.27009  23116559.53509  23116559.32009
  20808357.79209 -22096258.26909 -17165773.86009  20808357.42109  20808357.03009
  22522528.41809 -14435208.23609 -11187136.87509  22522527.30409  22522527.23609
  20335217.71509 -23574100.14809 -18331538.83209  20335217.76409  20335216.91409
  22554894.30109 -14213099.81509 -11024860.74109  22554893.73409  22554893.61709
  24937978.90507  -2099045.83607  -1612530.63906  24937976.28706  24937977.78206
  24846696.91708  -1787281.99808  -1361881.52307  24846697.02507  24846696.40907
 07  1 15  2 38  0.0000000  0  9G09G08G18G29G28G26G17G22G12
  21388833.38609 -19122570.64609 -14876063.26609  21388833.68909  21388832.38009
  24996101.78607  -2698223.13207  -2062100.83706  24996102.93806  24996099.80306
  23112080.13308 -12501999.43308  -9657147.57109  23112078.83409  23112078.84409
  20817286.91809 -22049335.92209 -17129210.99509  20817286.41009  20817286.03909
  22537059.80509 -14358844.94409 -11127633.02109  22537058.17309  22537059.02309
  20342470.38809 -23535987.39309 -18301840.58609  20342470.39709  20342469.49909
  22542874.51809 -14276263.17609 -11074078.92709  22542874.24509  22542873.85409
  24924542.06807  -2169655.69907  -1667551.34606  24924539.85106  24924541.03306
  24825861.44907  -1896775.17707  -1447200.92607  24825860.56007  24825860.76507
 07  1 15  2 38 30.0000000  0  8G09G18G29G28G26G17G22G12
  21373953.16909 -19200767.14909 -14936995.59009  21373953.26709  21373952.36809
  23107710.04008 -12524964.15708  -9675042.16609  23107708.83909  23107708.58509
  20826302.63209 -22001957.10109 -17092292.43609  20826302.49509  20826301.77209
  22551643.04209 -14282209.93809 -11067917.43609  22551641.48909  22551641.83109
  20349825.04209 -23497337.49109 -18271723.78209  20349825.23709  20349824.31909
  22530939.90709 -14338979.55709 -11122948.82509  22530939.52609  22530939.62309
  24911181.38607  -2239867.41307  -1722261.79406  24911179.06106  24911180.09706
  24805044.15007  -2006171.98407  -1532445.16707  24805043.11407  24805042.94807
 07  1 15  2 39  0.0000000  0  8G09G18G29G28G26G17G22G12
  21359125.87809 -19278685.21909 -14997710.95209  21359125.96509  21359125.22309
  23103450.53508 -12547347.13308  -9692483.44309  23103449.52009  23103449.20709
  20835405.35309 -21954122.50409 -17055018.73309  20835404.94209  20835404.27809
  22566277.28109 -14205305.18109 -11007991.66009  22566276.10909  22566276.36309
  20357282.11809 -23458151.13309 -18241188.96109  20357282.17709  20357281.20909
  22519091.00309 -14401246.13709 -11171468.23009  22519090.67109  22519090.11409
  24897896.95607  -2309678.90907  -1776660.39806  24897894.50406  24897895.61806
  24784244.62907  -2115470.49207  -1617612.85307  24784244.48307  24784244.63907
 07  1 15  2 39 30.0000000  0  8G09G18G29G28G26G17G22G12
  21344351.70709 -19356323.79609 -15058208.53709  21344351.90209  21344351.03309
  23099301.98008 -12569148.03608  -9709471.16109  23099300.74009  23099300.64209
  20844594.49509 -21905833.03609 -17017390.58409  20844594.36809  20844593.44909
  22580962.61809 -14128133.04209 -10947857.52409  22580961.22109  22580961.70909
  20364840.81509 -23418429.21809 -18210236.82409  20364841.11809  20364840.16009
  22507327.99309 -14463061.34309 -11219635.89909  22507327.28909  22507327.41609
  24884688.12407  -2379088.41207  -1830745.73907  24884686.11207  24884687.75307
  24763464.80207  -2224669.49807  -1702702.96807  24763464.68407  24763464.31307
 07  1 15  2 40  0.0000000  0  9G09G05G18G29G28G26G17G22G12
  21329631.18409 -19433680.94209 -15118486.81909  21329631.33009  21329630.45109
  25160640.57607   -106444.12407    -11825.52506                                
  23095264.70708 -12590365.88708  -9726004.55109  23095262.99709  23095262.93909
  20853870.25309 -21857089.04509 -16979408.26209  20853869.99909  20853869.24709
  22595698.52609 -14050695.34909 -10887516.47009  22595697.25609  22595697.74409
  20372501.67009 -23378172.06709 -18178867.62209  20372501.67009  20372500.87809
  22495651.34509 -14524421.97709 -11267449.35809  22495650.82709  22495650.76909
  24871556.66708  -2448093.28108  -1884515.78606  24871554.53806  24871556.39406
  24742704.47208  -2333767.28708  -1787714.23907  24742704.56007  24742703.67107
 07  1 15  2 40 30.0000000  0  9G09G05G18G29G28G26G17G22G12
  21314964.36809 -19510755.71509 -15178545.06909  21314964.47509  21314963.61609
  25138987.63807   -220229.58507   -100489.51806  25138989.09406  25138986.76906
  23091338.09008 -12610999.86808  -9742082.98109  23091336.75209  23091336.53709
  20863232.29609 -21807891.36009 -16941072.40909  20863232.06109  20863231.29909
  22610484.66309 -13972994.20009 -10826970.12109  22610483.54009  22610483.59809
  20380264.06709 -23337380.51309 -18147082.00009  20380264.10609  20380263.34409
  22484061.85109 -14585325.77109 -11314906.83509  22484061.07009  22484061.36309
  24858503.50408  -2516691.07208  -1937968.64707  24858500.97407  24858502.82107
  24721963.56208  -2442761.92308  -1872645.14107  24721963.23907  24721963.19007
 07  1 15  2 41  0.0000000  0  9G09G05G18G29G28G26G17G22G12
  21300351.41509 -19587546.81909 -15238382.27709  21300351.45409  21300350.78009
  25117345.87507   -333954.00507   -189105.94006  25117347.07706  25117344.58606
  23087522.60808 -12631050.31608  -9757706.71309  23087521.07409  23087521.29909
  20872680.43709 -21758240.84709 -16902383.70509  20872680.15409  20872679.71409
  22625320.81409 -13895031.60409 -10766220.06509  22625319.29109  22625319.04609
  20388128.08509 -23296055.35109 -18114880.57809  20388128.11509  20388127.42109
  22472559.93109 -14645770.40509 -11362006.55209  22472558.95409  22472559.06209
  24845527.36508  -2584880.39308  -1991103.19107  24845524.92307  24845526.69107
  24701242.91107  -2551651.86807  -1957494.47007  24701242.12007  24701241.73907
 07  1 15  2 41 30.0000000  0  9G09G05G18G29G28G26G17G22G12
  21285792.94009 -19664052.94309 -15297997.42509  21285792.89109  21285792.17809
  25095717.05607   -447615.68607   -277673.50206  25095717.86706  25095715.62006
  23083818.28109 -12650516.09209  -9772874.86109  23083817.02109  23083817.28509
  20882214.72609 -21708138.04309 -16863342.56409  20882214.36509  20882213.94509
  22640205.67109 -13816809.47609 -10705267.77109  22640204.45009  22640204.48909
  20396093.38209 -23254197.38509 -18082263.98309  20396093.41209  20396092.72809
  22461145.39009 -14705753.20109 -11408746.39209  22461144.63709  22461144.85209
  24832629.93008  -2652658.87008  -2043917.60007  24832626.74607  24832628.74807
  24680541.13307  -2660435.51707  -2042260.94807  24680541.47507  24680540.62507
 07  1 15  2 42  0.0000000  0  9G09G05G18G29G28G26G17G22G12
  21271288.67009 -19740272.69309 -15357389.42909  21271288.48509  21271287.85009
  25074100.18307   -561212.85907   -366190.78206  25074101.07206  25074099.17706
  23080225.38209 -12669396.85809  -9787587.15009  23080224.36609  23080224.44409
  20891834.88009 -21657583.58909 -16823949.48609  20891834.61609  20891833.98109
  22655140.22909 -13738329.71709 -10644114.72309  22655138.31509  22655138.52009
  20404159.99709 -23211807.09609 -18049232.59609  20404160.03609  20404159.42109
  22449819.27109 -14765271.72209 -11455124.44309  22449818.46109  22449818.62709
  24819810.77008  -2720024.22008  -2096410.11907  24819807.89807  24819809.66607
  24659861.24607  -2769111.05007  -2126943.18307  24659861.21707  24659860.23007
 07  1 15  2 42 30.0000000  0  9G09G05G18G29G28G26G17G22G12
  21256839.52409 -19816204.68609 -15416557.21509  21256839.14309  21256838.49809
  25052495.53107   -674744.17507   -454656.77506  25052497.08406  25052494.98406
  23076743.90209 -12687692.08909  -9801843.17609  23076743.01309  23076742.93509
  20901540.88809 -21606578.45709 -16784205.23209  20901540.45809  20901540.04809
  22670122.74109 -13659594.57409 -10582762.67209  22670121.60809  22670121.87209
  20412327.58809 -23168885.64209 -18015787.31309  20412327.76409  20412327.09009
  22438582.31909 -14824323.81609 -11501139.05109  22438580.90309  22438581.60609
  24807070.36208  -2786974.37108  -2148579.09007  24807067.74407  24807069.44407
  24639201.94107  -2877677.08907  -2211540.10107  24639201.27707  24639201.09207
 07  1 15  2 43  0.0000000  0  9G09G05G18G29G28G26G17G22G12
  21242444.96309 -19891848.25409 -15475500.25209  21242444.88509  21242443.86909
  25030902.81607   -788207.96607   -543070.12706  25030906.45906  25030902.83506
  23073374.02609 -12705401.27309  -9815642.55009  23073373.09809  23073373.14609
  20911332.22309 -21555123.32109 -16744110.32509  20911332.12509  20911331.33409
  22685153.79209 -13580605.86709 -10521213.02409  22685152.37509  22685152.75609
  20420596.30209 -23125433.70509 -17981928.66509  20420596.26309  20420595.62809
  22427433.97709 -14882907.00509 -11546788.28309  22427433.28309  22427433.20509
  24794409.60608  -2853507.25008  -2200422.91807  24794406.75307  24794408.56107
  24618563.15007  -2986131.83307  -2296050.28807  24618562.98407  24618562.80807
 07  1 15  2 43 30.0000000  0  9G09G05G18G29G28G26G17G22G12
  21228105.55509 -19967201.71309 -15534217.22309  21228105.51609  21228104.41209
  25009325.20207   -901602.60207   -631429.58206  25009327.82006  25009324.49906
  23070115.93909 -12722523.88509  -9828984.84209  23070114.64009  23070114.71809
  20921209.32409 -21503219.04209 -16703665.44509  20921209.11909  20921208.32809
  22700232.93209 -13501365.81709 -10459467.53409  22700231.13509  22700231.56509
  20428965.67909 -23081452.08309 -17947657.27609  20428965.77709  20428964.97609
  22416375.54209 -14941018.82909 -11592070.21109  22416374.83909  22416375.22009
  24781828.60908  -2919620.75908  -2251939.94907  24781825.89307  24781827.85707
  24597946.80708  -3094473.74608  -2380472.57508  24597946.52308  24597946.01508
 07  1 15  2 44  0.0000000  0  9G09G05G18G29G28G26G17G22G12
  21213821.92409 -20042263.67909 -15592707.05109  21213821.60209  21213820.71309
  24987760.27806  -1014926.45206   -719733.90206  24987762.64206  24987759.85806
  23066969.64209 -12739059.31209  -9841869.59709  23066968.06009  23066968.13809
  20931171.58709 -21450866.22209 -16662871.04609  20931171.70409  20931170.70809
  22715359.04909 -13421876.48609 -10397527.80109  22715357.65209  22715358.00409
  20437435.65109 -23036941.39409 -17912973.62709  20437435.82709  20437435.02609
  22405407.46609 -14998656.93009 -11636983.01109  22405406.59609  22405406.87009
  24769327.60508  -2985312.62308  -2303128.44107  24769325.00707  24769326.70607
  24577352.22708  -3202700.93808  -2464805.46407  24577351.39707  24577351.39707
 07  1 15  2 44 30.0000000  0  9G09G05G18G29G28G26G17G22G12
  21199593.53409 -20117033.41709 -15650969.17209  21199593.56309  21199592.33209
  24966210.12307  -1128178.11307   -807981.96806  24966210.96306  24966208.43306
  23063934.84209 -12755007.82109  -9854297.00409  23063932.98609  23063933.40609
  20941219.34309 -21398065.81709 -16621727.88009  20941219.34309  20941218.31709
  22730532.55309 -13342139.59909 -10335395.17409  22730531.16509  22730531.31209
  20446006.24809 -22991902.88709 -17877878.68709  20446006.33609  20446005.34909
  22394529.95209 -15055819.10209 -11681524.95109  22394528.76009  22394529.56109
  24756907.70908  -3050581.22008  -2353987.11907  24756904.94407  24756905.92107
  24556778.66007  -3310812.15307  -2549047.97907  24556778.68907  24556778.58207
 07  1 15  2 45  0.0000000  0  9G09G05G18G29G28G26G17G22G12
  21185421.17509 -20191509.05809 -15709002.12709  21185421.34109  21185420.02209
  24944673.18607  -1241356.01907   -896172.57106  24944673.61506  24944671.29006
  23061011.16709 -12770368.61809  -9866266.46009  23061010.08309  23061010.11209
  20951351.91709 -21344818.74609 -16580236.67009  20951351.89809  20951351.01909
  22745752.71009 -13262157.17609 -10273071.21409  22745751.40109  22745751.47909
  20454677.00009 -22946337.27509 -17842373.01709  20454677.17609  20454676.27709
  22383743.40209 -15112503.04209 -11725694.24909  22383742.25909  22383742.86509
  24744568.38208  -3115424.15608  -2404514.08207  24744565.71507  24744567.09207
  24536228.54608  -3418805.79308  -2633198.87107  24536228.43907  24536227.73507
 07  1 15  2 45 30.0000000  0  9G09G05G18G29G28G26G17G22G12
  21171305.18909 -20265689.60609 -15766805.13609  21171305.11109  21171303.92909
  24923149.18107  -1354458.37207   -984304.29406  24923151.42806  24923148.35106
  23058199.97509 -12785141.34809  -9877777.67709  23058198.94909  23058199.17409
  20961569.52609 -21291125.60109 -16538397.86309  20961569.34109  20961568.58809
  22761019.30609 -13181931.25409 -10210557.51909  22761017.60709  22761017.92909
  20463447.99509 -22900245.29209 -17806457.18809  20463448.23009  20463447.35009
  22373048.11809 -15168706.20009 -11769488.90509  22373047.21909  22373047.63909
  24732310.53408  -3179839.57608  -2454707.93507  24732307.78907  24732309.54707
  24515700.78308  -3526679.66208  -2717256.41407  24515700.60707  24515700.08907
 07  1 15  2 46  0.0000000  0  9G09G05G18G29G28G26G17G22G12
  21157245.33309 -20339573.87009 -15824377.27309  21157245.40209  21157244.15109
  24901643.06307  -1467483.57007  -1072375.88106  24901644.34206  24901641.09906
  23055500.88609 -12799325.53109  -9888830.28809  23055499.48909  23055499.74309
  20971871.72009 -21236987.26609 -16496212.14709  20971871.66109  20971870.75309
  22776331.74609 -13101463.80409 -10147855.61709  22776329.94809  22776330.32909
  20472318.99009 -22853628.04309 -17770132.06109  20472319.19509  20472318.31609
  22362444.85209 -15224426.41009 -11812907.23909  22362443.66109  22362444.42309
  24720134.30008  -3243825.34308  -2504567.00407  24720131.52607  24720133.56807
  24495195.71108  -3634432.55008  -2801219.73208  24495195.71108  24495195.52508
 07  1 15  2 46 30.0000000  0  9G09G05G18G29G28G26G17G22G12
  21143242.18309 -20413160.74009 -15881717.68309  21143242.35909  21143241.05009
  24880149.81907  -1580430.38907  -1160386.40606  24880151.21606  24880148.23606
  23052913.87909 -12812921.47209  -9899424.53309  23052912.37509  23052912.82409
  20982258.46809 -21182404.84409 -16453680.39409  20982258.09709  20982257.55009
  22791689.42309 -13020757.18409 -10084967.35009  22791688.29909  22791688.73909
  20481289.73909 -22806486.48309 -17733398.38309  20481289.86609  20481289.08509
  22351933.97609 -15279661.45109 -11855947.52809  22351933.28309  22351933.38109
  24708040.30708  -3307379.57108  -2554089.82307  24708037.58207  24708040.19007
  24474714.29908  -3742062.88808  -2885087.53407  24474714.41607  24474714.06407
 07  1 15  2 47  0.0000000  0  9G09G05G18G29G28G26G17G22G12
  21129296.05109 -20486448.06409 -15938824.67609  21129296.18809  21129294.88809
  24858671.72607  -1693296.89707  -1248334.34006  24858673.00606  24858670.96406
  23050438.87709 -12825928.32009  -9909559.74609  23050437.25509  23050437.62609
  20992729.55809 -21127379.03009 -16410803.14609  20992729.23509  20992728.50309
  22807092.56209 -12939812.95609 -10021893.93209  22807091.49709  22807091.48709
  20490360.29309 -22758821.33909 -17696256.71609  20490360.38109  20490359.44309
  22341515.68509 -15334409.14409 -11898608.06909  22341515.30409  22341515.13809
  24696029.34508  -3370500.02408  -2603274.59207  24696027.36207  24696028.73007
  24454256.81907  -3849568.84307  -2968858.40507  24454257.43407  24454255.81307
 07  1 15  2 47 30.0000000  0  9G09G05G18G29G28G26G17G22G12
  21115406.95609 -20559435.25209 -15995697.80009  21115407.08309  21115405.84309
  24837209.27207  -1806081.56107  -1336218.53906  24837210.38606  24837208.86206
  23048075.52809 -12838345.89509  -9919235.78209  23048074.53109  23048074.49209
  21003284.70409 -21071910.67709 -16367581.06309  21003284.60609  21003283.81509
  22822540.71409 -12858633.11809  -9958636.93009  22822539.40509  22822539.59109
  20499530.02509 -22710633.63409 -17658707.86209  20499530.20109  20499529.28309
  22331190.75109 -15388667.14509 -11940887.02709  22331190.46809  22331190.28209
  24684100.64407  -3433184.81107  -2652119.86907  24684099.63707  24684099.55007
  24433823.25207  -3956948.74207  -3052531.07308  24433823.74108  24433822.24608
 07  1 15  2 48  0.0000000  0  9G09G05G18G29G28G26G17G22G12
  21101575.28109 -20632120.74809 -16052335.83609  21101575.35909  21101574.20609
  24815763.37607  -1918782.96307  -1424037.84206  24815764.54806  24815761.21706
  23045824.85709 -12850174.28409  -9928452.71409  23045823.53809  23045823.53809
  21013923.96609 -21016000.73409 -16324014.88309  21013923.78109  21013923.22409
  22838033.25409 -12777219.75709  -9895197.95109  22838032.00309  22838032.21809
  20508799.34609 -22661924.30609 -17620752.54909  20508799.23809  20508798.51609
  22320959.54509 -15442433.46609 -11982782.84609  22320958.72409  22320958.70509
  24672254.79708  -3495432.29508  -2700624.39807  24672253.64507  24672253.95707
  24413413.65707  -4064201.24207  -3136104.43808  24413414.44808  24413412.44608
 07  1 15  2 48 30.0000000  0  9G09G05G18G29G28G26G17G22G12
  21087801.39509 -20704503.46509 -16108737.93809  21087801.44409  21087800.38909
  24794332.96307  -2031399.40207  -1511790.89406  24794333.97906  24794332.04506
  23043686.44509 -12861413.24109  -9937210.34409  23043685.01909  23043685.04809
  21024647.22709 -20959650.16009 -16280105.35309  21024647.02209  21024646.35809
  22853569.82909 -12695574.81009  -9831578.52009  22853568.42309  22853568.44209
  20518167.40609 -22612694.47709 -17582391.64609  20518167.43509  20518166.59509
  22310822.22209 -15495705.47409 -12024293.50409  22310821.70509  22310820.98209
  24660493.91708  -3557240.14308  -2748786.36307  24660491.74807  24660492.75407
  24393028.52207  -4171324.74007  -3219577.29008  24393029.35208  24393027.25208
 07  1 15  2 49  0.0000000  0  9G09G05G18G29G28G26G17G22G12
  21074085.32809 -20776582.01709 -16164903.02909  21074085.31809  21074084.34209
  24772919.58607  -2143929.44607  -1599476.67706  24772919.71306  24772919.20506
  23041659.64709 -12872062.57509  -9945508.53309  23041658.41609  23041658.37709
  21035454.11509 -20902859.95509 -16235853.25509  21035453.75409  21035453.09909
  22869149.99109 -12613700.81009  -9767780.60409  22869148.99509  22869148.69209
  20527634.42009 -22562945.19509 -17543625.97309  20527634.37109  20527633.58009
  22300779.45809 -15548481.01709 -12065417.28809  22300779.23409  22300778.66709
  24648815.69608  -3618606.34008  -2796604.18007  24648814.07507  24648815.04207
  24372668.32607  -4278317.56407  -3302948.31808  24372669.11708  24372666.83108
 07  1 15  2 49 30.0000000  0  9G09G05G18G29G28G26G17G22G12
  21060427.30509 -20848354.96209 -16220829.98609  21060427.29609  21060426.43609
  24751521.95507  -2256371.32007  -1687093.72806  24751522.68806  24751521.43706
  23039745.36109 -12882121.89009  -9953346.96509  23039744.21809  23039744.57009
  21046344.25909 -20845630.89709 -16191259.19209  21046344.18109  21046343.45809
  22884773.43809 -12531598.91209  -9703805.11509  22884772.10909  22884771.95309
  20537200.02709 -22512677.39709 -17504456.25709  20537199.98809  20537199.31409
  22290831.26209 -15600757.82509 -12106152.43309  22290831.03809  22290830.86209
  24637222.48108  -3679529.22608  -2844076.53907  24637220.86907  24637221.51407
  24352333.85008  -4385178.07608  -3386216.25107  24352334.47507  24352332.39407
 07  1 15  2 50  0.0000000  0  9G09G05G18G29G28G26G17G22G12
  21046827.62009 -20919821.49709 -16276518.18309  21046827.71709  21046826.79909
  24730142.37707  -2368723.51607  -1774640.90706  24730143.28506  24730141.61506
  23037943.47108 -12891591.34908  -9960725.76909  23037942.24909  23037942.36709
  21057318.04109 -20787964.09409 -16146324.02409  21057317.74709  21057317.12209
  22900439.63009 -12449271.49409  -9639653.88809  22900438.45809  22900438.75109
  20546864.18709 -22461892.07709 -17464883.27809  20546864.09909  20546863.53209
  22280978.67909 -15652534.14609 -12146497.60309  22280977.88809  22280978.19109
  24625714.66108  -3740006.65608  -2891201.81407  24625712.29707  24625713.04907
  24332024.11707  -4491904.47607  -3469379.68908  24332025.28908  24332022.63208
 07  1 15  2 50 30.0000000  0  9G09G05G18G29G28G26G17G22G12
  21033286.57409 -20990980.33109 -16331966.61209  21033286.48609  21033285.61609
  24708779.93207  -2480984.60407  -1862117.09506  24708780.02006  24708778.69106
  23036253.80909 -12900470.77209  -9967644.80409  23036252.89109  23036252.50009
  21068374.71709 -20729860.52809 -16101048.51709  21068374.46309  21068373.79809
  22916148.87209 -12366720.44709  -9575328.39909  22916147.45609  22916147.14309
  20556626.44109 -22410590.41009 -17424907.95509  20556626.43109  20556625.86509
  22271221.52409 -15703807.75509 -12186451.05409  22271221.22109  22271220.83109
  24614290.92708  -3800036.64008  -2937978.42707  24614288.54307  24614290.38007
  24311740.49608  -4598495.41008  -3552437.54708  24311741.77508  24311739.58708
 07  1 15  2 51  0.0000000  0  9G09G05G18G29G28G26G17G22G12
  21019804.38209 -21061830.16509 -16387174.25909  21019804.07909  21019803.25909
  24687434.63107  -2593152.76807  -1949520.87506  24687435.30506  24687433.23406
  23034676.29908 -12908759.84308  -9974103.81409  23034675.42009  23034674.97109
  21079514.52209 -20671321.04309 -16055433.33409  21079514.14109  21079513.63309
  22931899.89409 -12283947.74509  -9510830.19209  22931898.56509  22931898.47709
  20566486.97609 -22358773.38909 -17384531.05509  20566486.95609  20566486.30209
  22261560.62709 -15754576.38209 -12226011.00109  22261560.06009  22261560.16809
  24602953.05708  -3859617.51308  -2984405.07007  24602950.62507  24602952.31507
  24291483.39507  -4704949.22807  -3635388.58808  24291484.10808  24291482.47708
 07  1 15  2 51 30.0000000  0  9G09G05G18G29G28G26G17G22G12
  21006381.12409 -21132369.16509 -16442139.69709  21006381.01609  21006380.11709
  24666107.72407  -2705226.59007  -2036851.13406  24666107.98706  24666106.38506
  23033211.35108 -12916458.89508  -9980103.08209  23033210.32509  23033209.82709
  21090737.00709 -20612346.80509 -16009479.38609  21090736.69409  21090736.05909
  22947692.89009 -12200955.38109  -9446160.82609  22947691.38609  22947691.30809
  20576445.29209 -22306441.99509 -17343753.34709  20576445.23309  20576444.53009
  22251996.20209 -15804837.75109 -12265175.68609  22251995.70409  22251995.36209
  24591700.98408  -3918747.08708  -3030480.05707  24591698.41507  24591700.38807
  24271251.81908  -4811264.49908  -3718231.62908  24271252.77708  24271251.21408
 07  1 15  2 52  0.0000000  0  9G09G05G18G29G28G26G17G22G12
  20993017.56009 -21202595.99609 -16496861.89109  20993017.34509  20993016.54409
  24644799.32707  -2817204.36907  -2124106.54506  24644799.26906  24644798.00906
  23031858.46508 -12923567.55608  -9985642.30509  23031857.52709  23031856.91209
  21102041.86909 -20552938.61909 -15963187.29809  21102041.63409  21102041.04809
  22963527.16809 -12117745.21209  -9381321.74409  22963525.72209  22963525.92709
  20586501.09709 -22253597.41409 -17302575.75209  20586501.25309  20586500.48109
  22242528.64109 -15854589.96609 -12303943.62309  22242528.05509  22242527.90809
  24580535.12608  -3977423.86008  -3076202.21907  24580532.37207  24580534.68707
  24251047.68308  -4917439.21208  -3800965.16208  24251048.46508  24251046.76508
 07  1 15  2 52 30.0000000  0  9G09G05G18G29G28G26G17G22G12
  20979713.16309 -21272510.10909 -16551340.40509  20979712.95809  20979712.47909
  24623509.40306  -2929084.82206  -2211286.12706  24623509.38406  24623506.81506
  23030618.20008 -12930086.19408  -9990721.77109  23030616.80309  23030616.55909
  21113429.29309 -20493097.74409 -15916558.04909  21113429.31309  21113428.45309
  22979402.60909 -12034319.30809  -9316314.53909  22979401.39809  22979401.73009
  20596654.50709 -22200240.94209 -17260999.28509  20596654.74209  20596653.70609
  22233158.30509 -15903831.20309 -12342313.39109  22233158.03109  22233157.56209
  24569456.22708  -4035646.08908  -3121570.17807  24569453.52107  24569455.47507
  24230870.99608  -5023472.17308  -3883588.24708  24230870.81108  24230870.00008
 07  1 15  2 53  0.0000000  0  9G09G05G18G29G28G26G17G22G12
  20966468.94009 -21342109.85409 -16605573.95609  20966468.75409  20966467.86509
  24602237.49206  -3040866.17506  -2298388.47406  24602238.41006  24602235.50906
  23029489.63608 -12936014.50008  -9995341.23009  23029488.69809  23029488.21009
  21124898.74309 -20432825.14309 -15869592.37809  21124898.57709  21124897.92309
  22995318.49209 -11950679.60709  -9251140.74809  22995317.21309  22995317.61309
  20606905.13309 -22146373.60809 -17219024.74209  20606905.41709  20606904.31309
  22223885.74109 -15952559.17609 -12380283.22209  22223885.08609  22223884.72509
  24558463.27108  -4093411.73608  -3166582.36307  24558461.12207  24558462.57707
  24210720.46908  -5129361.77608  -3966099.62008  24210720.48908  24210719.97108
 07  1 15  2 53 30.0000000  0  9G09G05G18G29G28G26G17G22G12
  20953284.57809 -21411393.87109 -16659561.48609  20953284.44109  20953283.69809
  24580984.86407  -3152546.77907  -2385412.32106  24580985.69406  24580983.46706
  23028474.00508 -12941352.78308  -9999500.93909  23028472.74409  23028472.30509
  21136450.16009 -20372121.68509 -15822290.97909  21136450.06209  21136449.31009
  23011275.28509 -11866827.84009  -9185801.71409  23011273.90809  23011274.03509
  20617252.91609 -22091996.37709 -17176652.87809  20617252.96509  20617251.84209
  22214711.16309 -16000771.65309 -12417851.36909  22214710.96809  22214710.21609
  24547558.37608  -4150718.78408  -3211237.19207  24547555.43607  24547557.74107
  24190598.15308  -5235106.16108  -4048497.82208  24190597.79208  24190597.45008
 07  1 15  2 54  0.0000000  0  9G09G05G18G29G28G26G17G22G12
  20940160.44709 -21480360.93709 -16713302.03609  20940160.37909  20940159.58809
  24559751.95806  -3264125.29006  -2472356.61406  24559753.04206  24559750.62006
  23027570.62208 -12946101.17708 -10003200.99008  23027569.02008  23027568.92208
  21148083.40609 -20310988.75909 -15774654.93609  21148083.39709  21148082.55609
  23027271.89409 -11782766.02509  -9120299.00209  23027270.98609  23027270.24409
  20627697.30809 -22037110.56309 -17133884.71209  20627697.44509  20627696.41009
  22205635.16909 -16048466.93109 -12455016.49609  22205634.60209  22205634.37809
  24536740.82108  -4207565.42208  -3255533.27507  24536737.69507  24536739.69807
  24170503.52108  -5340704.05308  -4130781.85408  24170503.29608  24170502.59308
 07  1 15  2 54 30.0000000  0  9G09G05G18G29G28G26G17G22G12
  20927097.23309 -21549009.52509 -16766794.42409  20927096.96909  20927096.27509
  24538540.07407  -3375600.06207  -2559220.09806  24538540.59206  24538537.78806
  23026778.78508 -12950259.71908 -10006441.39808  23026777.53508  23026777.70108
  21159798.13109 -20249427.33209 -15726684.99409  21159797.91609  21159797.34009
  23043307.07909 -11698496.45009  -9054634.40109  23043306.52209  23043306.43409
  20638238.12409 -21981717.40409 -17090721.21309  20638238.37809  20638237.39209
  22196657.99209 -16095643.03109 -12491777.07709  22196657.30809  22196657.37609
  24526011.39608  -4263949.85808  -3299469.19207  24526008.11407  24526010.17507
  24150436.42608  -5446153.75308  -4212950.44408  24150436.49408  24150436.43608
 07  1 15  2 55  0.0000000  0  9G09G05G18G29G28G26G17G22G12
  20914094.72909 -21617338.67209 -16820037.89909  20914094.35709  20914093.63509
  24517346.14406  -3486969.44606  -2646001.42606  24517348.27406  24517344.75706
  23026100.03708 -12953828.34408 -10009222.15408  23026098.84508  23026098.59108
  21171594.15909 -20187438.41009 -15678381.94009  21171594.20709  21171593.32809
  23059382.52909 -11614020.75709  -8988809.18409  23059381.47409  23059381.52309
  20648875.57909 -21925818.09609 -17047163.30809  20648875.64809  20648874.80809
  22187779.80809 -16142297.67309 -12528131.33009  22187779.45609  22187779.43609
  24515369.73108  -4319870.21208  -3343043.47308  24515367.13308  24515369.30108
  24130398.73408  -5551453.63408  -4295002.27308  24130398.35308  24130398.07008
 07  1 15  2 55 30.0000000  0  9G09G05G18G29G28G26G17G22G12
  20901153.03309 -21685347.14609 -16873031.50409  20901152.76909  20901152.09509
  24496174.80806  -3598231.96006  -2732699.44806  24496175.87306  24496171.43806
  23025533.03008 -12956807.40808 -10011543.50809  23025531.87709  23025532.39509
  21183471.47909 -20125023.15809 -15629746.68609  21183471.33209  21183470.60909
  23075496.62309 -11529340.98309  -8922824.94709  23075495.89009  23075495.57709
  20659609.00909 -21869413.72909 -17003211.85109  20659608.99909  20659608.24709
  22179001.31009 -16188429.10909 -12564077.87709  22179000.87109  22179001.10509
  24504817.02708  -4375324.95008  -3386254.95108  24504814.37008  24504816.67508
  24110390.01508  -5656602.06708  -4376936.09808  24110389.46808  24110389.17508
 07  1 15  2 56  0.0000000  0  9G09G05G18G29G28G26G17G22G12
  20888272.71209 -21753033.42609 -16925774.04609  20888272.57609  20888271.83309
  24475022.52106  -3709385.95806  -2819312.98306  24475024.21106  24475020.58706
  23025078.46709 -12959196.97309 -10013405.51709  23025076.81609  23025077.80209
  21195429.75909 -20062182.71909 -15580780.11709  21195429.52509  21195428.87009
  23091648.86208 -11444458.78708  -8856682.97609  23091647.91409  23091648.31509
  20670438.16909 -21812505.65809 -16958867.89709  20670438.30609  20670437.49509
  22170322.63609 -16234035.31209 -12599615.16209  22170321.87409  22170322.13809
  24494353.63508  -4430312.45108  -3429102.34208  24494350.99808  24494352.58008
  24090409.80008  -5761597.84308  -4458750.96308  24090409.69208  24090409.00808
 07  1 15  2 56 30.0000000  0  9G09G05G18G29G28G26G17G22G12
  20875454.00109 -21820396.11109 -16978264.43509  20875453.84509  20875453.09309
  24453891.36307  -3820430.06607  -2905840.90406  24453893.27806  24453888.76506
  23024736.07409 -12960997.38409 -10014808.43409  23024734.44309  23024735.20509
  21207468.58009 -19998918.09709 -15531483.01009  21207468.24809  21207467.56409
  23107840.11608 -11359376.32008  -8790384.95109  23107839.17909  23107838.86609
  20681363.05009 -21755095.03609 -16914132.34309  20681363.16709  20681362.29809
  22161744.36109 -16279114.55209 -12634741.82209  22161743.68709  22161743.97109
  24483978.64808  -4484830.62808  -3471584.03708  24483976.40108  24483977.89508
  24070458.86108  -5866439.08708  -4540445.42908  24070459.04608  24070458.19608
 07  1 15  2 57  0.0000000  0  9G09G05G18G29G28G26G17G22G12
  20862697.04609 -21887434.27709 -17030501.95609  20862697.03609  20862696.05909
  24432782.52607  -3931362.51007  -2992281.75406  24432783.69806  24432779.75206
  23024505.32508 -12962208.67508 -10015752.30109  23024504.45609  23024504.19209
  21219587.87409 -19935230.62409 -15481856.41009  21219587.70709  21219587.01409
  23124067.85608 -11274095.52008  -8723932.38809  23124067.37709  23124067.10409
  20692383.24109 -21697183.21009 -16869006.24409  20692383.37709  20692382.47909
  22153266.70209 -16323664.80209 -12669456.28709  22153265.85209  22153266.11509
  24473694.04708  -4538877.99608  -3513698.86608  24473691.58508  24473693.15808
  24050538.09608  -5971124.28708  -4622018.28608  24050538.38008  24050537.33408
 07  1 15  2 57 30.0000000  0  9G09G05G18G29G28G26G17G22G12
  20850002.13909 -21954146.61909 -17082485.58209  20850002.01209  20850001.19209
  24411693.91907  -4042181.98207  -3078634.60706  24411695.96106  24411690.73406
  23024386.92209 -12962831.36809 -10016237.52109  23024385.93509  23024386.00409
  21231787.49209 -19871121.42409 -15431901.19809  21231787.29709  21231786.59409
  23140333.86808 -11188618.49408  -8657326.90909  23140332.83209  23140332.85209
  20703498.68409 -21638771.51109 -16823490.63709  20703498.70309  20703497.91209
  22144890.24209 -16367684.36609 -12703757.23309  22144888.99209  22144889.84209
  24463499.18908  -4592452.78608  -3555445.44708  24463496.62008  24463498.18308
  24030647.08708  -6075652.29008  -4703468.66308  24030647.03808  24030646.24608
 07  1 15  2 58  0.0000000  0  9G09G05G18G29G28G26G17G22G12
  20837369.54509 -22020531.66909 -17134214.17709  20837369.41809  20837368.56809
  24390627.77906  -4152886.85306  -3164898.15406  24390629.39106  24390624.40906
  23024380.43609 -12962865.46909 -10016264.09609  23024379.14609  23024379.37109
  21244067.05609 -19806591.63709 -15381618.25009  21244066.86109  21244066.07909
  23156636.75508 -11102946.83108  -8590569.78209  23156636.02309  23156635.59309
  20714708.91909 -21579861.06209 -16777586.39809  20714709.11409  20714708.17709
  22136615.03309 -16411171.07609 -12737642.97909  22136613.90009  22136614.47609
  24453394.63008  -4645553.39008  -3596822.54408  24453392.08008  24453393.17408
  24010786.87708  -6180020.88508  -4784794.81408  24010786.49608  24010785.58708
 07  1 15  2 58 30.0000000  0  9G09G05G18G29G28G26G17G22G12
  20824799.44009 -22086588.10409 -17185686.71309  20824799.23509  20824798.41409
  24369583.11107  -4263475.45407  -3251071.08006  24369584.72306  24369580.11206
  23024485.79808 -12962311.51308 -10015832.43609  23024484.29409  23024484.50809
  21256426.59409 -19741642.38909 -15331008.45309  21256426.28109  21256425.39209
  23172975.98208 -11017082.59608  -8523662.58209  23172974.90709  23172975.23909
  20726013.91809 -21520453.32109 -16731294.65309  20726013.94709  20726013.22409
  22128441.37609 -16454122.96409 -12771111.95009  22128440.04709  22128441.00409
  24443380.55608  -4698177.79008  -3637828.56408  24443378.10408  24443379.34408
  23990956.37208  -6284228.93908  -4865995.87108  23990956.19608  23990955.38608
 07  1 15  2 59  0.0000000  0  9G09G05G18G29G28G26G17G22G12
  20812292.06709 -22152314.54209 -17236902.10709  20812291.83309  20812291.12009
  24348560.07907  -4373946.42707  -3337152.38806  24348562.98006  24348558.76006
  23024703.14508 -12961169.75008 -10014942.75809  23024701.74809  23024701.92409
  21268865.43109 -19676275.17009 -15280072.96909  21268865.29409  21268864.39609
  23189351.80008 -10931027.64208  -8456606.76709  23189350.77509  23189351.03809
  20737413.28909 -21460549.56409 -16684616.40009  20737413.26009  20737412.49809
  22120370.02309 -16496538.49809 -12804162.99909  22120368.60609  22120369.38809
  24433456.81008  -4750324.82908  -3678462.60908  24433454.84608  24433456.37008
  23971157.20508  -6388275.10508  -4947070.79908  23971156.86308  23971156.34508
 07  1 15  2 59 30.0000000  0  9G09G05G18G29G28G26G17G22G12
  20799847.82809 -22217710.01209 -17287859.60809  20799847.49609  20799846.73409
  24327561.76207  -4484298.27807  -3423140.80906  24327563.77406  24327559.82806
  23025032.24309 -12959440.84109 -10013595.55409  23025030.86509  23025031.17809
  21281383.78309 -19610490.99809 -15228812.58109  21281383.70509  21281382.63109
  23205763.53708 -10844784.10808  -8389404.02809  23205762.44309  23205762.03309
  20748906.61309 -21400151.19509 -16637552.74209  20748906.60309  20748905.88009
  22112400.97509 -16538416.03409 -12836794.82109  22112399.75409  22112400.26209
  24423624.88708  -4801992.45008  -3718723.10308  24423622.76708  24423624.03708
  23951388.87708  -6492157.67308  -5028018.24208  23951389.01308  23951388.14408
 07  1 15  3  0  0.0000000  0  9G09G05G18G29G28G26G17G22G12
  20787466.51709 -22282773.09209 -17338558.10309  20787466.45809  20787465.56909
  24306585.45207  -4594529.06707  -3509034.91306  24306587.22006  24306583.88006
  23025472.93509 -12957124.64409 -10011790.72609  23025471.70409  23025471.76209
  21293981.17209 -19544290.91009 -15177228.10109  21293981.14209  21293980.27309
  23222210.91008 -10758353.42308  -8322055.45209  23222209.47409  23222209.37609
  20760493.95809 -21339259.27009 -16590104.48909  20760494.04609  20760493.17609
  22104534.50509 -16579753.45009 -12869005.78509  22104533.72309  22104533.92809
  24413884.49408  -4853179.01208  -3758608.73008  24413882.64808  24413883.48808
  23931652.27608  -6595874.73808  -5108836.71508  23931652.30508  23931651.71908
 07  1 15  3  0 30.0000000  0  9G09G05G18G29G28G26G17G22G12
  20775149.07109 -22347502.45509 -17388996.55309  20775148.85609  20775148.03609
  24285632.44107  -4704637.54107  -3594833.71507  24285634.74607  24285630.88807
  23026025.34809 -12954221.66409 -10009528.66909  23026024.01909  23026024.03909
  21306657.74309 -19477676.31709 -15125320.62409  21306657.54809  21306656.54109
  23238693.36008 -10671737.58208  -8254562.58909  23238692.45209  23238691.95409
  20772174.85509 -21277875.50709 -16542272.98909  20772175.01109  20772174.06309
  22096771.44309 -16620549.20009 -12900794.67109  22096770.67109  22096770.41709
  24404235.68008  -4903883.10108  -3798118.40608  24404233.80508  24404234.55708
  23911947.29608  -6699424.94308  -5189525.16208  23911947.24708  23911946.76808
 07  1 15  3  1  0.0000000  0  9G09G05G18G29G28G26G17G22G12
  20762895.14009 -22411896.77409 -17439173.93009  20762894.96409  20762894.15309
  24264703.64507  -4814622.10907  -3680535.96707  24264705.21807  24264701.76007
  23026689.30709 -12950732.61009 -10006809.92009  23026687.80209  23026688.37909
  21319412.58809 -19410648.49409 -15073091.15509  21319412.44209  21319411.42609
  23255210.49908 -10584938.50908  -8186926.96909  23255209.22909  23255209.35609
  20783949.26409 -21216001.18509 -16494059.23309  20783949.37209  20783948.35609
  22089111.76009 -16660801.42609 -12932160.03509  22089110.98909  22089110.63709
  24394679.17808  -4954102.89408  -3837250.70408  24394677.18508  24394678.30908
  23892274.31708  -6802807.05208  -5270082.63308  23892274.22908  23892273.74108
 07  1 15  3  1 30.0000000  0  9G09G05G18G29G28G26G17G22G12
  20750705.20209 -22475954.68409 -17489089.17409  20750705.19209  20750704.44909
  24243798.48907  -4924481.33507  -3766140.54607  24243799.18207  24243797.29707
  23027464.77209 -12946657.79009 -10003634.74109  23027463.28709  23027463.77509
  21332245.83509 -19343208.80009 -15020540.75209  21332245.63009  21332244.99509
  23271762.15808 -10497958.37508  -8119150.23809  23271761.07409  23271761.00609
  20795816.52309 -21153637.67809 -16445464.29709  20795816.71809  20795815.71209
  22081555.51509 -16700508.63909 -12963100.71509  22081554.87109  22081554.91009
  24385215.00708  -5003836.79408  -3876004.37908  24385213.28708  24385214.41108
  23872633.66208  -6906019.61608  -5350508.01408  23872633.32008  23872633.24208
 07  1 15  3  2  0.0000000  0  9G09G05G18G29G28G26G17G22G12
  20738579.80309 -22539674.91909 -17538741.29409  20738579.64709  20738578.78709
  24222917.34308  -5034213.65708  -3851646.21507  24222917.53907  24222916.17107
  23028351.77309 -12941997.73509 -10000003.54109  23028350.03409  23028350.42409
  21345157.32709 -19275358.35809 -14967670.28109  21345157.19009  21345156.28209
  23288348.16408 -10410798.80608  -8051233.71809  23288347.33409  23288346.84509
  20807776.69909 -21090786.51609 -16396489.37009  20807776.88409  20807775.99509
  22074103.35309 -16739669.01109 -12993615.28109  22074103.47009  22074102.53209
  24375843.71308  -5053083.86308  -3914378.71308  24375842.18908  24375843.41008
  23853025.45708  -7009060.80608  -5430799.82008  23853025.55508  23853025.27208
 07  1 15  3  2 30.0000000  0  9G09G05G18G29G28G26G17G22G12
  20726518.68109 -22603056.27709 -17588129.35509  20726518.49509  20726517.77209
  24202059.97407  -5143817.43807  -3937051.76307  24202060.82407  24202058.93907
  23029349.66409 -12936752.92209  -9995916.68009  23029348.36509  23029348.32609
  21358146.78009 -19207098.52009 -14914480.80409  21358146.35009  21358145.83309
  23304967.95808 -10323461.93708  -7983179.02309  23304966.45409  23304966.40509
  20819829.77209 -21027448.82409 -16347135.33509  20819829.76209  20819828.94209
  22066755.93709 -16778280.70809 -13023702.30409  22066755.73209  22066755.22409
  24366565.78608  -5101841.95408  -3952372.02808  24366563.86208  24366564.88708
  23833450.49408  -7111929.24008  -5510957.02308  23833449.94708  23833450.21108
 07  1 15  3  3  0.0000000  0  9G09G05G18G29G28G26G17G22G12
  20714522.18609 -22666097.55109 -17637252.42009  20714522.24509  20714521.37509
  24181227.72008  -5253291.19708  -4022355.95807  24181229.23407  24181226.81107
  23030458.88709 -12930923.90309  -9991374.60709  23030457.38209  23030457.51909
  21371214.00009 -19138430.46209 -14860973.23509  21371213.40409  21371212.85709
  23321621.30708 -10235949.34108  -7914987.40309  23321620.04709  23321620.01809
  20831974.67809 -20963626.29509 -16297403.50609  20831974.84409  20831973.95509
  22059512.96509 -16816342.12709 -13053360.54309  22059512.36909  22059512.26109
  24357380.56108  -5150109.59508  -3989983.15008  24357378.66608  24357379.75108
  23813908.30508  -7214623.34308  -5590978.38208  23813907.91408  23813908.14808
 07  1 15  3  3 30.0000000  0  9G09G05G18G29G28G26G17G22G12
  20702591.11009 -22728797.24709 -17686109.31709  20702590.90509  20702590.09509
  24160420.75508  -5362633.40708  -4107557.66607  24160421.55607  24160420.36507
  23031679.14609 -12924511.53209  -9986377.96009  23031677.64209  23031677.79809
  21384358.28209 -19069355.70809 -14807148.75609  21384358.03809  21384357.56009
  23338307.08708 -10148263.09308  -7846660.47409  23338305.73009  23338306.16909
  20844211.66109 -20899320.45209 -16247295.06809  20844211.87609  20844210.92809
  22052375.24709 -16853851.72009 -13082588.79609  22052374.97409  22052373.93809
  24348289.27008  -5197885.26608  -4027210.93808  24348286.95408  24348288.32208
  23794399.70908  -7317141.75208  -5670862.83808  23794399.18108  23794399.41608
 07  1 15  3  4  0.0000000  0  9G09G05G18G29G28G26G17G22G12
  20690724.86809 -22791154.40409 -17734699.30009  20690724.64309  20690723.86209
  24139638.50507  -5471842.64807  -4192655.76707  24139639.60907  24139637.97807
  23033010.32709 -12917515.85009  -9980926.78909  23033008.70509  23033009.03709
  21397580.13609 -18999875.51509 -14753008.35109  21397579.56009  21397579.17909
  23355026.38308 -10060404.75308  -7778199.42908  23355024.45808  23355024.98608
  20856540.36909 -20834532.80209 -16196811.19709  20856540.52609  20856539.62709
  22045342.69609 -16890807.58809 -13111385.55509  22045342.14009  22045341.77809
  24339291.53008  -5245167.59808  -4064054.30508  24339289.27308  24339290.88508
  23774925.00908  -7419482.92708  -5750609.19408  23774923.90508  23774924.82308
 07  1 15  3  4 30.0000000  0  9G09G05G18G29G28G26G17G22G12
  20678923.85909 -22853167.37209 -17783021.08609  20678924.07309  20678923.29209
  24118883.10908  -5580917.25108  -4277648.91907  24118883.14807  24118881.97507
  23034452.47609 -12909937.57409  -9975021.65009  23034451.02009  23034451.36209
  21410878.72009 -18929991.14209 -14698553.00209  21410878.29109  21410877.79209
  23371777.73808  -9972376.36508  -7709605.90609  23371776.30209  23371776.21409
  20868960.39309 -20769264.46809 -16145952.76309  20868960.72509  20868959.67009
  22038415.86909 -16927208.45809 -13139749.85409  22038415.13609  22038415.06809
  24330387.64508  -5291954.96808  -4100511.96708  24330386.06308  24330387.17608
  23755483.86408  -7521645.39108  -5830216.28708  23755483.10208  23755483.76608
 07  1 15  3  5  0.0000000  0  9G09G05G18G29G28G26G17G22G12
  20667188.93309 -22914835.00909 -17831073.78609  20667189.08909  20667188.17109
  24098152.23108  -5689855.72108  -4362536.05507  24098152.60207  24098151.55707
  23036005.13508 -12901777.51108  -9968663.17109  23036003.98209  23036004.00209
  21424253.82109 -18859704.02409 -14643783.82109  21424253.49809  21424252.98109
  23388560.43108  -9884179.82008  -7640881.32608  23388559.09208  23388559.82508
  20881471.63409 -20703517.18309 -16094721.11709  20881471.79009  20881470.75509
  22031594.87309 -16963052.68409 -13167680.41109  22031594.05209  22031593.78809
  24321579.01208  -5338245.98708  -4136582.86608  24321577.12708  24321578.25008
  23736077.19108  -7623627.37408  -5909682.75008  23736076.35108  23736077.42508
 07  1 15  3  5 30.0000000  0  9G09G05G18G29G28G26G17G22G12
  20655520.07009 -22976156.01809 -17878856.38309  20655520.05109  20655519.29909
  24077448.22508  -5798656.63708  -4447315.95907  24077449.34907  24077447.20007
  23037668.48009 -12893036.34609  -9961851.89209  23037667.29809  23037667.40609
  21437705.54409 -18789015.41309 -14588701.79309  21437705.23209  21437704.62609
  23405375.52508  -9795816.79508  -7572027.03008  23405374.52908  23405374.77308
  20894073.91609 -20637292.48809 -16043117.46709  20894074.01409  20894073.03709
  22024880.23509 -16998338.83109 -13195176.09409  22024879.43409  22024879.30709
  24312865.20108  -5384039.20008  -4172265.86908  24312863.01308  24312864.14608
  23716705.36208  -7725427.89408  -5989007.81008  23716704.57108  23716705.10808
 07  1 15  3  6  0.0000000  0  9G09G05G18G29G28G26G17G22G12
  20643917.43809 -23037128.99409 -17926367.78409  20643917.23309  20643916.34409
  24056770.01908  -5907318.37408  -4531987.41107  24056771.63007  24056769.56007
  23039442.64809 -12883714.89309  -9954588.43509  23039440.65509  23039441.22209
  21451233.15909 -18717926.84409 -14533308.10509  21451232.83709  21451232.30909
  23422222.09308  -9707289.15908  -7503044.48308  23422220.75508  23422220.93108
  20906766.62509 -20570591.84309 -15991142.94509  20906766.65409  20906765.79509
  22018272.02309 -17033065.09009 -13222235.49809  22018271.04709  22018271.23209
  24304245.92808  -5429333.10408  -4207559.81108  24304243.42808  24304245.21508
  23697367.96708  -7827045.02208  -6068189.96808  23697367.60608  23697367.83108
 07  1 15  3  6 30.0000000  0  9G09G05G18G29G28G26G17G22G12
  20632381.15309 -23097752.93809 -17973607.21609  20632380.86009  20632380.17609
  24036119.00708  -6015839.46508  -4616549.28307  24036119.77907  24036118.36207
  23041326.68108 -12873813.71608  -9946873.24509  23041324.97109  23041325.50809
  21464836.71309 -18646439.61109 -14477603.77309  21464836.59609  21464835.76509
  23439099.28508  -9618598.86108  -7433935.16008  23439097.81008  23439097.97608
  20919549.65209 -20503416.78709 -15938798.75009  20919549.61309  20919549.07609
  22011770.53209 -17067230.26409 -13248857.69009  22011769.79009  22011769.67309
  24295721.91708  -5474126.37908  -4242463.64308  24295719.78808  24295721.40008
  23678066.13908  -7928477.43308  -6147228.16608  23678065.62108  23678065.57308
 07  1 15  3  7  0.0000000  0  9G09G05G18G29G28G26G17G22G12
  20620911.45909 -23158026.58109 -18020573.68009  20620911.27309  20620910.34509
  24015495.60108  -6124218.41008  -4701000.40607  24015496.13807  24015494.31207
  23043320.53008 -12863333.51808  -9938706.86709  23043319.40709  23043319.83709
  21478515.85509 -18574555.17509 -14421589.93709  21478515.64009  21478514.91709
  23456006.31008  -9529747.78208  -7364700.56508  23456006.02608  23456006.14408
  20932422.68609 -20435769.03809 -15886086.22109  20932422.64709  20932421.95309
  22005376.15109 -17100832.80109 -13275041.47009  22005375.44809  22005375.45809
  24287293.75408  -5518417.66608  -4276976.31408  24287291.28308  24287293.01208
  23658799.40908  -8029723.64208  -6226121.31308  23658798.92008  23658798.88108
 07  1 15  3  7 30.0000000  0  9G09G05G18G29G28G26G17G22G12
  20609508.45309 -23217948.72809 -18067266.25209  20609508.46309  20609507.49609
  23994898.60908  -6232453.77108  -4785339.61607  23994899.81007  23994897.87607
  23045424.97708 -12852274.97208  -9930089.83709  23045423.77609  23045423.97109
  21492270.34109 -18502275.02009 -14365267.74309  21492270.08709  21492269.41309
  23472944.96508  -9440737.68808  -7295342.08308  23472943.66508  23472943.61708
  20945385.30509 -20367649.90609 -15833006.38109  20945385.30509  20945384.66009
  21999089.23309 -17133871.25009 -13300785.71109  21999088.63709  21999088.55909
  24278961.24308  -5562205.58408  -4311096.74408  24278958.52708  24278960.32508
  23639568.54808  -8130782.28008  -6304868.29208  23639568.08908  23639568.34308
 07  1 15  3  8  0.0000000  0  9G09G05G18G29G28G26G17G22G12
  20598173.05509 -23277517.64009 -18113683.57809  20598172.85009  20598171.79509
  23974329.92608  -6340543.84408  -4869565.63807  23974330.55107  23974329.34907
  23047639.52408 -12840638.85808  -9921022.75609  23047638.33309  23047638.15709
  21506099.89709 -18429600.31909 -14308638.11809  21506099.59409  21506099.02709
  23489912.52408  -9351570.23408  -7225860.95008  23489912.12408  23489911.92808
  20958437.17909 -20299061.15609 -15779560.61309  20958437.42309  20958436.52409
  21992909.91409 -17166344.15509 -13326089.26409  21992909.46409  21992909.01509
  24270724.67708  -5605488.44508  -4344823.62908  24270722.02008  24270724.11108
  23620373.92808  -8231651.83108  -6383467.91808  23620373.10708  23620373.31308
 07  1 15  3  8 30.0000000  0  9G09G05G18G29G28G26G17G22G12
  20586904.76609 -23336732.62009 -18159825.11009  20586904.46409  20586903.71109
  23953788.67208  -6448487.44708  -4953677.50707  23953789.73707  23953787.89007
  23049963.40008 -12828426.13508  -9911506.35709  23049962.13009  23049962.13009
  21520004.22009 -18356532.83909 -14251702.43109  21520003.80009  21520003.34109
  23506910.56108  -9262247.55208  -7156258.89008  23506910.29708  23506909.01808
  20971578.13009 -20230004.41309 -15725750.17409  20971578.60909  20971577.30009
  21986838.35909 -17198250.21509 -13350951.10909  21986837.86109  21986837.68509
  24262584.49608  -5648265.48808  -4378156.37608  24262581.60508  24262583.69508
  23601215.03108  -8332331.21608  -6461919.38108  23601214.57208  23601214.50408
 07  1 15  3  9  0.0000000  0  9G09G05G18G29G28G26G17G22G12
  20575704.24109 -23395591.80509 -18205689.39909  20575704.05509  20575703.21509
  23933276.60608  -6556282.73508  -5037673.80708  23933277.10408  23933275.39508
  23052396.90608 -12815637.45108  -9901541.15809  23052395.65509  23052395.56709
  21533983.15509 -18283073.67409 -14194461.53109  21533982.56909  21533982.54909
  23523937.62008  -9172770.97108  -7086536.89208  23523936.49708  23523936.21308
  20984807.89609 -20160481.19009 -15671576.24709  20984808.34509  20984807.00709
  21980875.09809 -17229587.61809 -13375369.85209  21980874.48209  21980874.22809
  24254540.87608  -5690534.86708  -4411093.55008  24254538.34608  24254539.97708
  23582092.60008  -8432818.50908  -6540221.15009  23582092.87309  23582092.56109
 07  1 15  3  9 30.0000000  0  9G09G05G18G29G28G26G17G22G12
  20564571.38109 -23454094.57309 -18251275.96909  20564571.25409  20564570.55109
  23912791.68708  -6663928.42508  -5121553.55507  23912792.74207  23912790.85707
  23054939.99308 -12802273.95708  -9891128.05709  23054938.78209  23054938.84109
  21548036.17309 -18209224.52809 -14136916.73909  21548035.80209  21548035.49909
  23540993.20308  -9083142.66208  -7016696.69208  23540992.47008  23540991.29808
  20998126.27109 -20090493.07209 -15617040.06709  20998126.48609  20998125.43109
  21975020.22609 -17260355.01709 -13399344.43509  21975019.49309  21975019.60109
  24246594.49108  -5732295.51208  -4443634.28808  24246591.56008  24246593.69908
  23563007.64008  -8533112.30608  -6618372.12309  23563007.66909  23563006.76109
 07  1 15  3 10  0.0000000  0  9G09G05G18G29G28G26G17G22G12
  20553506.92909 -23512239.15409 -18296583.43009  20553506.73409  20553506.05009
  23892336.63008  -6771422.99908  -5205315.54708  23892337.25508  23892335.66308
  23057592.07708 -12788336.41008  -9880267.64109  23057591.38409  23057591.04209
  21562163.44109 -18134986.78709 -14079069.15209  21562162.60109  21562162.37609
  23558077.29008  -8993364.39308  -6946739.61808  23558076.53808  23558075.85408
  21011532.89409 -20020041.76909 -15562142.95809  21011533.01209  21011531.88809
  21969274.07709 -17290551.61809 -13422874.24509  21969273.40309  21969273.52009
  24238744.22608  -5773546.22508  -4475777.68508  24238741.58908  24238743.54208
  23543959.09708  -8633211.18708  -6696371.23309  23543958.98909  23543958.77409
 07  1 15  3 10 30.0000000  0  9G09G05G18G29G28G26G17G22G12
  20542510.45609 -23570024.32209 -18341610.82909  20542510.55409  20542509.62609
  23871909.76408  -6878764.93608  -5288958.61408  23871910.58508  23871908.89508
  23060353.28408 -12773826.04708  -9868960.87409  23060352.57109  23060352.18009
  21576363.87409 -18060362.02509 -14020919.99309  21576363.46409  21576363.03409
  23575190.64308  -8903437.79008  -6876666.96908  23575189.19708  23575188.04408
  21025027.25709 -19949128.94809 -15506886.22509  21025027.18909  21025026.38809
  21963636.65009 -17320175.77209 -13445957.99709  21963635.98609  21963636.25009
  24230992.02708  -5814285.62808  -4507522.65908  24230989.55608  24230990.84508
  23524948.50408  -8733113.96108  -6774217.55109  23524948.27909  23524947.75209
